[{"name": "Wolfsburg, Niedersachsen, Germany", "cc": "GM", "lat": 52.433, "lon": 10.8, "n": 8, "art": 34, "url": "https://www.engadget.com/2212213/volkswagen-will-shrink-model-lineup-and-factory-footprint/"}, {"name": "Vancouver, British Columbia, Canada", "cc": "CA", "lat": 49.25, "lon": -123.133, "n": 4, "art": 30, "url": "https://thetyee.ca/News/2026/07/10/Vancouver-Growing-Anti-AI-Movement/"}, {"name": "Washington, District of Columbia, United States", "cc": "US", "lat": 38.895, "lon": -77.036, "n": 16, "art": 124, "url": "https://www.washingtonexaminer.com/news/4644469/mamdani-immigrant-map-little-italy-adams/"}, {"name": "Guangzhou, Guangdong, China", "cc": "CH", "lat": 23.117, "lon": 113.25, "n": 2, "art": 13, "url": "https://www.munhwa.com:443/article/11601750"}, {"name": "Lviv, L'vivs'ka Oblast', Ukraine", "cc": "UP", "lat": 49.841, "lon": 24.03, "n": 12, "art": 92, "url": "https://lenta.ru/news/2026/07/11/na-ukraine-siloviki-nachali-ohotu-na-uchastnikov-bunta-protiv-ttsk/"}, {"name": "Sweden", "cc": "SW", "lat": 62.0, "lon": 15.0, "n": 11, "art": 98, "url": "https://eldiariodeguayana.com.ve/familiares-de-presos-politicos-en-el-rodeo-i-denuncian-tratos-inhumanos-y-exigen-intervencion-de-la-onu/"}, {"name": "Monaco", "cc": "MN", "lat": 43.733, "lon": 7.4, "n": 5, "art": 40, "url": "https://www.bfmtv.com/podcasts/le-titre-a-la-une/francs-macons-faux-espions-et-tueurs-a-gages-au-proces-athanor-anatomie-d-une-pme-du-crime_EN-202607100688.html"}, {"name": "Estado De Mexico, Campeche, Mexico", "cc": "MX", "lat": 18.0, "lon": -90.89, "n": 2, "art": 8, "url": "https://www.omnia.com.mx/noticia/433975/exigimos-tu-renuncia-protestan-durante-audiencia-de-alcaldesa-de-tenancingo-que-"}, {"name": "Tehran, Tehran, Iran", "cc": "IR", "lat": 35.75, "lon": 51.515, "n": 19, "art": 141, "url": "https://www.hispantv.com/noticias/opinion/646920/papel-lider-martir-iran-imam-jamenei-transformacion-potencia-mundial-misiles"}, {"name": "Albania", "cc": "AL", "lat": 41.0, "lon": 20.0, "n": 14, "art": 122, "url": "https://top-channel.tv/2026/07/10/logjika-e-hurit-dhe-drurit-i-ka-dhene-protestes-ngjyren-e-sorrave-rama-pas-sulmit-kibernetik-ndaj-bizneseve-google-po-rikthen-yjet-e-merituara/"}, {"name": "La Lisa, Matanzas, Cuba", "cc": "CU", "lat": 22.667, "lon": -80.767, "n": 3, "art": 18, "url": "https://www.cubaheadlines.com/articles/334650"}, {"name": "Cayos, Pinar del R\u00edCU, Cuba", "cc": "CU", "lat": 21.967, "lon": -84.1, "n": 1, "art": 7, "url": "https://www.cubaheadlines.com/articles/334667"}, {"name": "Cuba", "cc": "CU", "lat": 22.0, "lon": -79.5, "n": 7, "art": 58, "url": "https://www.martinoticias.com/a/senador-tom-cotton-exige-la-liberaci%C3%B3n-de-los-presos-pol%C3%ADticos-cubanos-a-cinco-a%C3%B1os-del-11j/470602.html"}, {"name": "Diez De Octubre, Villa Clara, Cuba", "cc": "CU", "lat": 22.376, "lon": -80.124, "n": 1, "art": 10, "url": "https://www.cubaheadlines.com/articles/334644"}, {"name": "United States", "cc": "US", "lat": 39.828, "lon": -98.579, "n": 23, "art": 136, "url": "https://www1.folha.uol.com.br/mundo/2026/07/trump-se-recusa-a-assinar-lei-de-moradia-em-protesto-contra-paralisacao-de-projeto-que-pode-limitar-o-voto.shtml"}, {"name": "California, United States", "cc": "US", "lat": 36.17, "lon": -119.746, "n": 13, "art": 60, "url": "https://www.mercurynews.com/2026/07/10/mirandas-rescue-case-every-animal-with-a-chip-has-a-story-and-we-are-following-up-on-that-story-sheriff-says-2/"}, {"name": "Israel", "cc": "IS", "lat": 31.5, "lon": 34.75, "n": 9, "art": 53, "url": "https://www.librered.net/las-activistas-que-asaltaron-una-fabrica-de-elbit-en-bristol-declaran-ante-el-tribunal-old-bailey/"}, {"name": "Juarez, M\u00e9co, Mexico", "cc": "MX", "lat": 31.733, "lon": -106.483, "n": 1, "art": 10, "url": "https://www.eldiariodechihuahua.mx/estado/2026/jul/09/pierde-la-vida-al-estrellarse-contra-un-trailer-en-juarez-816031.html"}, {"name": "Geneva, Gen\u00e8, Switzerland", "cc": "SZ", "lat": 46.196, "lon": 6.148, "n": 1, "art": 4, "url": "https://www.fox6now.com/news/walworth-county-storm-recovery-volunteers-help-cleanup-efforts"}, {"name": "London, London, City of, United Kingdom", "cc": "UK", "lat": 51.5, "lon": -0.117, "n": 7, "art": 29, "url": "https://www.ynet.co.il/judaism/article/s1q0qlamgl"}, {"name": "United Kingdom", "cc": "UK", "lat": 54.0, "lon": -4.0, "n": 16, "art": 73, "url": "https://www.artnews.com/art-news/news/us-returns-indonesia-looted-bronze-buddha-statues-douglas-latchford-1234791873/"}, {"name": "Abuja, Abuja Federal Capital Territory, Nigeria", "cc": "NI", "lat": 9.083, "lon": 7.533, "n": 4, "art": 30, "url": "https://hallmarknews.com/exxonmobils-1bn-deepwater-investment-signals-renewed-confidence-in-nigeria-says-nuprc/"}, {"name": "Gaza, Israel (general), Israel", "cc": "IS", "lat": 31.417, "lon": 34.333, "n": 19, "art": 114, "url": "https://www.clevelandjewishnews.com/jns/report-universities-with-more-foreign-worker-visas-saw-significantly-more-anti-israel-protests/article_cb8c8bfe-947c-50e7-a13b-d2ac0ec02724.html"}, {"name": "Bangladesh", "cc": "BG", "lat": 24.0, "lon": 90.0, "n": 3, "art": 13, "url": "https://www.dailynayadiganta.com/bangladesh/country-news/yaQnKYqYrB5P"}, {"name": "Hollywood, California, United States", "cc": "US", "lat": 34.098, "lon": -118.327, "n": 3, "art": 26, "url": "https://www.forbes.com/sites/carolinereid/2026/07/10/the-ai-star-wars-film-that-is-giving-hollywood-a-wake-up-call/"}, {"name": "Lower Saxony, Niedersachsen, Germany", "cc": "GM", "lat": 52.0, "lon": 10.0, "n": 1, "art": 10, "url": "https://www.freemalaysiatoday.com/category/business/2026/07/10/union-warns-of-conflict-as-volkswagen-eyes-mass-job-cuts"}, {"name": "Chicago, Illinois, United States", "cc": "US", "lat": 41.85, "lon": -87.65, "n": 10, "art": 39, "url": "https://www.dailykos.com/stories/2026/7/10/800067948/community/president-yang-gets-results-an-alternative-history-2024-26/"}, {"name": "Hamburg, Hamburg, Germany", "cc": "GM", "lat": 53.55, "lon": 10.0, "n": 3, "art": 30, "url": "https://www.techtimes.com/articles/320015/20260709/eu-anonymization-rules-tightened-ai-inference-attacks-drive-new-three-test-standard.htm"}, {"name": "Mexico", "cc": "MX", "lat": 23.0, "lon": -102.0, "n": 17, "art": 128, "url": "https://www.greaterbelize.com/mexico-seeks-u-s-probe-into-ice-deaths-of-17-citizens/"}, {"name": "Bogota, Cundinamarca, Colombia", "cc": "CO", "lat": 4.6, "lon": -74.083, "n": 5, "art": 38, "url": "https://www.publimetro.co/noticias/2026/07/10/gustavo-bolivar-reacciono-a-fallo-por-muerte-de-dilan-cruz-con-pulla-a-la-policia-de-duque/"}, {"name": "Clacton, Essex, United Kingdom", "cc": "UK", "lat": 51.783, "lon": 1.167, "n": 3, "art": 20, "url": "https://www.aol.co.uk/articles/clacton-election-candidates-standing-farage-193451000.html"}, {"name": "Nadda, Uttaranchal, India", "cc": "IN", "lat": 29.867, "lon": 78.582, "n": 2, "art": 5, "url": "https://scroll.in/article/1094109/education-crisis-in-india-puts-spotlight-on-cabinet-ministers-children-studying-abroad"}, {"name": "Karnataka, Karnataka, India", "cc": "IN", "lat": 13.5, "lon": 76.0, "n": 2, "art": 4, "url": "https://scroll.in/article/1094109/education-crisis-in-india-puts-spotlight-on-cabinet-ministers-children-studying-abroad"}, {"name": "Shanghai, Shanghai, China", "cc": "CH", "lat": 31.222, "lon": 121.458, "n": 1, "art": 6, "url": "https://www.techtimes.com/articles/319956/20260709/dune-part-three-trailer-five-sciences-graded-real-impossible.htm"}, {"name": "Idaho, United States", "cc": "US", "lat": 44.239, "lon": -114.51, "n": 3, "art": 14, "url": "https://www.seattletimes.com/nation-world/idaho-state-employee-ran-anonymous-accounts-promoting-pro-russian-views/"}, {"name": "Sacramento, California, United States", "cc": "US", "lat": 38.582, "lon": -121.494, "n": 1, "art": 6, "url": "https://www.kpbs.org/news/health/2026/07/09/kaiser-nurses-say-technology-is-making-their-jobs-and-patient-care-worse"}, {"name": "San Francisco, California, United States", "cc": "US", "lat": 37.775, "lon": -122.419, "n": 2, "art": 8, "url": "https://www.kpbs.org/news/health/2026/07/09/kaiser-nurses-say-technology-is-making-their-jobs-and-patient-care-worse"}, {"name": "Iraq", "cc": "IZ", "lat": 33.0, "lon": 44.0, "n": 3, "art": 24, "url": "https://www.postandcourier.com/aikenstandard/aikenstandard/news/local/aiken-hiitchcock-woods-environmental-education-moths/article_81be3f96-8444-40f4-a445-9fe90ec8d24d.html"}, {"name": "Dallas, Texas, United States", "cc": "US", "lat": 32.783, "lon": -96.807, "n": 1, "art": 10, "url": "https://www.rawstory.com/trump-midterm-convention/"}, {"name": "Illinois, United States", "cc": "US", "lat": 40.336, "lon": -89.002, "n": 3, "art": 7, "url": "https://lasvegassun.com/news/2026/jul/10/many-us-jewish-adults-have-experienced-assault-or-/"}, {"name": "Ayacucho, Ayacucho, Peru", "cc": "PE", "lat": -13.158, "lon": -74.224, "n": 2, "art": 20, "url": "https://www.deperu.com/tv/0XQlCRUnu5I.los-golpean-frente-al-congreso-trabajadores-cas-denuncian-represion-policial-en-medio-de-protestas.UC6xAnp5ygm8oNoBDCgu70UQ.html"}, {"name": "Egypt", "cc": "EG", "lat": 27.0, "lon": 30.0, "n": 1, "art": 10, "url": "https://fr.globalvoices.org/2026/07/10/302671/"}, {"name": "San Valentin, Nayarit, Mexico", "cc": "MX", "lat": 20.917, "lon": -104.55, "n": 1, "art": 10, "url": "https://aristeguinoticias.com/0907/investigaciones-especiales/no-tenia-por-que-morir-como-un-centro-de-detencion-fallo-una-y-otra-vez-ante-una-crisis-de-salud-mental-reportaje-propublica-and-texas-tribune/"}, {"name": "Moche, Murmanskaya Oblast', Russia", "cc": "RS", "lat": 69.593, "lon": 32.617, "n": 1, "art": 10, "url": "https://www.agencianova.com/nota.asp?n=2026_7_9&id=169712&id_tiponota=4"}, {"name": "Ankara, Ankara, Turkey", "cc": "TU", "lat": 39.927, "lon": 32.864, "n": 12, "art": 55, "url": "https://morningstaronline.co.uk/article/british-woman-hunger-strike-turkey-after-nato-summit-protest-arrest"}, {"name": "Bihar, Bihar, India", "cc": "IN", "lat": 25.183, "lon": 85.517, "n": 1, "art": 10, "url": "https://indianexpress.com/article/opinion/40-years-ago/40-years-ago-july-10-1986-violence-in-ahmedabad-10779559/"}, {"name": "New York, United States", "cc": "US", "lat": 42.15, "lon": -74.938, "n": 11, "art": 34, "url": "https://www.algemeiner.com/2026/07/10/77-percent-of-american-jews-experienced-antisemitism-after-october-7-new-poll-shows/"}, {"name": "Mashhad, (IR30), Iran", "cc": "IR", "lat": 36.297, "lon": 59.606, "n": 4, "art": 10, "url": "https://www.presstv.ir/Detail/2026/07/10/771955/Martyred-Leader"}, {"name": "Karbala, Karbala', Iraq", "cc": "IZ", "lat": 32.598, "lon": 44.017, "n": 5, "art": 20, "url": "https://thefrontierpost.com/body-of-slain-iranian-supreme-leader-buried-at-shiite-shrine/"}, {"name": "Texas, United States", "cc": "US", "lat": 31.106, "lon": -97.647, "n": 5, "art": 36, "url": "https://www.kjas.com/news/local_news/article_36f9b83b-e393-446c-915d-1d5d6bf5102c.html"}, {"name": "Tiananmen Square, Beijing, China", "cc": "CH", "lat": 39.904, "lon": 116.391, "n": 1, "art": 8, "url": "https://slguardian.org/fujimori-legacy-highlights-limits-of-us-push-to-counter-chinas-influence-in-peru/"}, {"name": "Alberto Fujimori, Region de La Libertad, Peru", "cc": "PE", "lat": -7.107, "lon": -79.589, "n": 1, "art": 2, "url": "https://slguardian.org/fujimori-legacy-highlights-limits-of-us-push-to-counter-chinas-influence-in-peru/"}, {"name": "Ibadan, Oyo, Nigeria", "cc": "NI", "lat": 7.388, "lon": 3.896, "n": 1, "art": 4, "url": "https://tribuneonlineng.com/beyond-politics-and-promises-redefining-representation-in-ibadan-north/"}, {"name": "Utah, United States", "cc": "US", "lat": 40.114, "lon": -111.854, "n": 5, "art": 24, "url": "https://www.wsws.org/en/articles/2026/07/10/lwyz-j10.html"}, {"name": "Houston, Texas, United States", "cc": "US", "lat": 29.763, "lon": -95.363, "n": 12, "art": 52, "url": "https://www.greaterbelize.com/mexico-seeks-u-s-probe-into-ice-deaths-of-17-citizens/"}, {"name": "Houston City Hall, Texas, United States", "cc": "US", "lat": 29.761, "lon": -95.371, "n": 1, "art": 7, "url": "https://www.click2houston.com/news/local/2026/07/09/ice-agents-involved-in-fatal-houston-shooting-were-not-wearing-body-cameras-dhs-says/"}, {"name": "Ukraine", "cc": "UP", "lat": 49.0, "lon": 32.0, "n": 9, "art": 65, "url": "https://news.mail.ru/politics/71594071/"}, {"name": "Sheffield Lake, Ohio, United States", "cc": "US", "lat": 41.487, "lon": -82.102, "n": 1, "art": 4, "url": "https://www.morningjournal.com/2026/07/09/sheffield-lake-police-receive-hearing-devices-through-state-program/"}, {"name": "Netherlands", "cc": "NL", "lat": 52.5, "lon": 5.75, "n": 4, "art": 32, "url": "https://nos.nl/artikel/2622527-rode-kruis-stopt-hulpverlening-op-voorterrein-van-aanmeldcentrum-na-overlast"}, {"name": "Nigeria", "cc": "NI", "lat": 10.0, "lon": 8.0, "n": 2, "art": 20, "url": "https://www.premiumtimesng.com/news/top-news/894322-edo-local-election-pdp-announces-boycott-gives-reasons.html"}, {"name": "Qatar", "cc": "QA", "lat": 25.5, "lon": 51.25, "n": 2, "art": 10, "url": "https://theonion.com/secret-service-urges-trump-not-to-use-qatari-gifted-jet-pack/"}, {"name": "Michigan, United States", "cc": "US", "lat": 43.35, "lon": -84.56, "n": 3, "art": 4, "url": "https://www.stltoday.com/exclusive/250/article_5eabedb1-68e7-4c28-8140-30af57d6bac2.html"}, {"name": "New Mexico, United States", "cc": "US", "lat": 34.837, "lon": -106.237, "n": 1, "art": 2, "url": "https://www.santafenewmexican.com/news/local_news/childcare-providers-say-new-mexicos-proposed-rule-changes-would-hurt-business/article_2c8034f0-6fe2-4bf5-8e6d-cf35521593f1.html"}, {"name": "Guajira, Lara, Venezuela", "cc": "VE", "lat": 9.733, "lon": -69.8, "n": 1, "art": 10, "url": "https://meridiano.net/farandula/influencer-llevo-ayuda-a-venezuela-y-fue-violentada-en-su-regreso-a-colombia-20267920370"}, {"name": "Morelos, M\u00e9co, Mexico", "cc": "MX", "lat": 19.601, "lon": -99.052, "n": 1, "art": 4, "url": "https://zetatijuana.com/2026/07/destituyen-a-director-de-bomberos-de-rosarito-tras-protesta-de-elementos/"}, {"name": "Rosarito, Sinaloa, Mexico", "cc": "MX", "lat": 24.333, "lon": -107.4, "n": 2, "art": 6, "url": "https://zetatijuana.com/2026/07/destituyen-a-director-de-bomberos-de-rosarito-tras-protesta-de-elementos/"}, {"name": "Dakar, Dakar, Senegal", "cc": "SG", "lat": 14.737, "lon": -17.634, "n": 2, "art": 20, "url": "https://www.senenews.com/actualites/greve-generalisee-comment-le-pays-sest-retrouve-a-larret-ce-vendredi_592949.html"}, {"name": "Ratanda, Gauteng, South Africa", "cc": "SF", "lat": -26.552, "lon": 28.327, "n": 3, "art": 20, "url": "https://mg.co.za/thought-leader/2026-07-10-ratanda-water-protest-deaths-a-tragic-result-of-poor-governance/"}, {"name": "Rand Water, Gauteng, South Africa", "cc": "SF", "lat": -26.383, "lon": 28.1, "n": 2, "art": 10, "url": "https://mg.co.za/thought-leader/2026-07-10-ratanda-water-protest-deaths-a-tragic-result-of-poor-governance/"}, {"name": "Kentucky, United States", "cc": "US", "lat": 37.669, "lon": -84.651, "n": 1, "art": 10, "url": "https://www.kentuckynewera.com/news/state/article_b021a0c1-1c69-555b-801e-e98f7643a93a.html"}, {"name": "Arizona, United States", "cc": "US", "lat": 33.771, "lon": -111.388, "n": 3, "art": 10, "url": "https://tucson.com/news/local/border/article_1faf5bc1-fff5-4d61-a328-d8284ab11a1b.html"}, {"name": "Hungary", "cc": "HU", "lat": 47.0, "lon": 20.0, "n": 5, "art": 43, "url": "https://www.freshplaza.com/north-america/article/9855046/murcia-forecasts-3-3-larger-stone-fruit-crop-for-2026/"}, {"name": "Telok Blangah, Singapore (general), Singapore", "cc": "SN", "lat": 1.248, "lon": 103.838, "n": 1, "art": 10, "url": "https://www.businesstimes.com.sg/property/upcoming-gillman-barracks-housing-estate-set-retain-25-heritage-buildings-green-spaces"}, {"name": "Baruipur, West Bengal, India", "cc": "IN", "lat": 22.35, "lon": 88.439, "n": 2, "art": 7, "url": "https://indianexpress.com/article/political-pulse/west-bengal-facing-heat-over-baruipur-rape-murder-why-suvendu-adhikari-govt-treads-with-caution-10779613/"}, {"name": "Orlando, Florida, United States", "cc": "US", "lat": 28.538, "lon": -81.379, "n": 1, "art": 10, "url": "https://www.brnow.org/opinions/voices-opinion/first-person-why-resolutions-should-matter-to-southern-baptists/"}, {"name": "Larak, Khorasan-e Janubi, Iran", "cc": "IR", "lat": 31.871, "lon": 59.901, "n": 1, "art": 1, "url": "https://hotair.com/ed-morrissey/2026/07/09/thursdays-final-word-n3816779"}, {"name": "Lebanon", "cc": "LE", "lat": 33.833, "lon": 35.833, "n": 2, "art": 11, "url": "https://www.la-croix.com/religion/abouna-tu-peux-me-preter-300-dollars-journal-de-bord-d-un-pretre-dans-un-liban-en-guerre-20260710"}, {"name": "India", "cc": "IN", "lat": 20.0, "lon": 77.0, "n": 9, "art": 45, "url": "https://aninews.in/news/national/general-news/andhra-pradesh-congress-protests-in-guntur-over-alleged-neet-irregularities-demand-dharmendra-pradhans-resignation20260710231812/"}, {"name": "Espriella, Nari\u00f1O, Colombia", "cc": "CO", "lat": 1.433, "lon": -77.417, "n": 1, "art": 8, "url": "https://www.elpais.com.co/opinion/columnistas/georges-clemenceau-el-tigre-0919.html"}, {"name": "France", "cc": "FR", "lat": 46.0, "lon": 2.0, "n": 11, "art": 102, "url": "https://www.eurointegration.com.ua/news/2026/07/10/7241390/"}, {"name": "Ponmudi, Kerala, India", "cc": "IN", "lat": 8.733, "lon": 77.067, "n": 1, "art": 10, "url": "https://www.livemint.com/market/stock-market-news/stock-market-today-gift-nifty-hints-positive-start-eight-day-trading-stocks-to-buy-on-friday-10-july-11783648082072.html"}, {"name": "Tsangaya, Nigeria (general), Nigeria", "cc": "NI", "lat": 11.617, "lon": 9.217, "n": 1, "art": 5, "url": "https://thesun.ng/ubec-recovers-n100bn-dormant-education-funds/"}, {"name": "Kuala Lumpur, Kuala Lumpur, Malaysia", "cc": "MY", "lat": 3.167, "lon": 101.7, "n": 1, "art": 10, "url": "https://www.freemalaysiatoday.com/category/nation/2026/07/10/mudas-rashifa-aljunied-aiming-to-be-puteri-wangsas-loudest-voice"}, {"name": "Lagos, Lagos, Nigeria", "cc": "NI", "lat": 6.453, "lon": 3.396, "n": 2, "art": 20, "url": "https://dailytrust.com/more-than-50-days-after-families-of-oyo-borno-pupils-still-waiting/"}, {"name": "Newark, New Jersey, United States", "cc": "US", "lat": 40.736, "lon": -74.172, "n": 2, "art": 2, "url": "https://www.newsweek.com/ice-detains-husband-with-green-card-after-28-years-in-us-12178939"}, {"name": "Myanmar", "cc": "BM", "lat": 22.0, "lon": 98.0, "n": 1, "art": 10, "url": "https://www.minuto30.com/le-disparo-9-veces-condenaron-a-mas-de-20-anos-sicario-que-ataco-a-un-extranjero-en-cali/1712685/"}, {"name": "Guadeloupe", "cc": "GP", "lat": 16.25, "lon": -61.583, "n": 1, "art": 20, "url": "https://www.critica.com.mx/vernoticias.php?artid=117658&mas=1"}, {"name": "Cambodia", "cc": "CB", "lat": 13.0, "lon": 105.0, "n": 4, "art": 13, "url": "https://www.artnews.com/art-news/news/us-returns-indonesia-looted-bronze-buddha-statues-douglas-latchford-1234791873/"}, {"name": "Thailand", "cc": "TH", "lat": 15.0, "lon": 100.0, "n": 1, "art": 8, "url": "https://www.akp.gov.kh/fr/post/detail/375258"}, {"name": "Moscow, Moskva, Russia", "cc": "RS", "lat": 55.752, "lon": 37.616, "n": 7, "art": 66, "url": "https://larepublica.pe:443/sociedad/2026/07/10/familiares-de-peruanos-captados-para-ir-a-la-guerra-en-rusia-exigen-reunion-con-el-canciller-160590"}, {"name": "Annapolis, Maryland, United States", "cc": "US", "lat": 38.978, "lon": -76.492, "n": 1, "art": 3, "url": "https://okcfox.com/amazing-america/amazing-america-250-liberty-tree-seedlings-planted-as-maryland-marks-anniversary-revolutionaries-hurricane-chapel-state-house-dna-st-johns"}, {"name": "Maryland, United States", "cc": "US", "lat": 39.072, "lon": -76.79, "n": 3, "art": 11, "url": "https://www.gamedeveloper.com/business/-we-mean-business-xbox-union-workers-fighting-back-with-save-our-devs-rally-on-july-15"}, {"name": "Brussels, Bruxelles-Capitale, Belgium", "cc": "BE", "lat": 50.833, "lon": 4.333, "n": 4, "art": 40, "url": "https://fr.euronews.com/next/2026/07/10/allemagne-lime-et-bolt-vises-par-des-regles-plus-strictes-sur-la-responsabilite-des-trotti"}, {"name": "Manchester, Manchester, United Kingdom", "cc": "UK", "lat": 53.5, "lon": -2.217, "n": 1, "art": 3, "url": "https://www.politico.eu/article/labour-mps-andy-burnham-uk-politics/"}, {"name": "Pena Verde, Chihuahua, Mexico", "cc": "MX", "lat": 30.383, "lon": -108.117, "n": 1, "art": 10, "url": "https://www.eleconomista.com.mx/opinion/meta-invertira-10-000-millones-dolares-canada-20260709-822575.html"}, {"name": "Syria", "cc": "SY", "lat": 35.0, "lon": 38.0, "n": 1, "art": 10, "url": "https://www.ilgiorno.it/milano/cronaca/notarangelo-leterno-studente-seconda-laurea-b5102aef"}, {"name": "Ninh Binh, Ninh B\u00ec, Vietnam, Republic Of", "cc": "VM", "lat": 20.254, "lon": 105.975, "n": 1, "art": 10, "url": "https://vietnamnews.vn/society/1785165/prime-minister-le-minh-hung-visits-bach-mai-general-hospital-s-ninh-binh-campus.html"}, {"name": "Ohio, United States", "cc": "US", "lat": 40.374, "lon": -82.775, "n": 1, "art": 10, "url": "https://highlandcountypress.com/headlines/ohio-gov-mike-dewine-vetoes-bill-requiring-mail-voters-show-copy-their-id-vote"}, {"name": "Budapest, Budapest, Hungary", "cc": "HU", "lat": 47.5, "lon": 19.083, "n": 8, "art": 46, "url": "https://wiadomosci.radiozet.pl/swiat/tysiace-wegrow-wyszlo-na-ulice-protestowac-przeciwko-magyarowi-sa-nagrania"}, {"name": "South Africa", "cc": "SF", "lat": -30.0, "lon": 26.0, "n": 6, "art": 36, "url": "https://chimpreports.com/ugandans-repatriated-from-south-africa-undergo-reintegration-in-kyankwanzi/"}, {"name": "Slovak Republic", "cc": "LO", "lat": 48.667, "lon": 19.5, "n": 1, "art": 10, "url": "https://www.pravda.sk/spravy/ekonomika/clanok/2004915-koniec-tesca-na-slovensku-obchodny-obor-preveruje-odchod-z-poslednej-velkej-zahranicnej-basty"}, {"name": "Heidelberg, Baden-W\u00fcberg, Germany", "cc": "GM", "lat": 48.317, "lon": 8.917, "n": 1, "art": 4, "url": "https://www.news.de/politik/859715628/demos-gegen-rechtsextremismus-gegen-afd-heute-freitag-10-juli-2026-demonstrationen-termine-aktuell-neumuenster-betzdorf-erlangen/1/"}, {"name": "Saxony, Sachsen, Germany", "cc": "GM", "lat": 51.0, "lon": 13.0, "n": 1, "art": 6, "url": "https://www.news.de/politik/859715628/demos-gegen-rechtsextremismus-gegen-afd-heute-freitag-10-juli-2026-demonstrationen-termine-aktuell-neumuenster-betzdorf-erlangen/1/"}, {"name": "Nyandarua, Central, Kenya", "cc": "KE", "lat": -0.628, "lon": 36.708, "n": 1, "art": 4, "url": "https://www.the-star.co.ke/news/2026-07-10-ol-kalou-is-a-do-or-die-for-ruto-and-gachagua"}, {"name": "Kathmandu, Bagmati, Nepal", "cc": "NP", "lat": 27.717, "lon": 85.317, "n": 7, "art": 45, "url": "https://kathmandupost.com/national/2026/07/10/ganesh-nepali-was-fined-1-000-rupees-it-cost-him-his-life"}, {"name": "Puerto Principe, Cienfuegos, Cuba", "cc": "CU", "lat": 22.45, "lon": -80.717, "n": 2, "art": 8, "url": "https://acento.com.do/opinion/250-anos-9715908.html"}, {"name": "Haiti", "cc": "HA", "lat": 19.0, "lon": -72.417, "n": 2, "art": 10, "url": "https://abc7chicago.com/post/haiti-tps-update-expiration-sparks-chicago-protests-haitian-syrian-communities-face-uncertainty/19481163/"}, {"name": "Japan", "cc": "JA", "lat": 36.0, "lon": 138.0, "n": 2, "art": 15, "url": "https://kotaku.com/playstation-no-disc-no-buy-boycott-immediately-splinters-in-the-face-of-black-ops-ports-2000714620"}, {"name": "Pennsylvania, United States", "cc": "US", "lat": 40.577, "lon": -77.264, "n": 3, "art": 17, "url": "https://www.westminster.edu/about/news/release.cfm?id=11170"}, {"name": "Salt Lake City, Utah, United States", "cc": "US", "lat": 40.761, "lon": -111.891, "n": 1, "art": 1, "url": "https://www.wsws.org/en/articles/2026/07/10/lwyz-j10.html"}, {"name": "Turkey", "cc": "TU", "lat": 39.059, "lon": 34.912, "n": 3, "art": 13, "url": "https://www.larazon.es/internacional/turquia-comienza-liberar-cientos-detenidos-cumbre-otan-ankara_202607106a513e35772f745d2c3fc059.html"}, {"name": "Vietnam, Republic Of", "cc": "VM", "lat": 16.167, "lon": 107.833, "n": 2, "art": 2, "url": "https://dailycaller.com/2026/07/10/calmatters-investigation-uc-colleges-universities-military-equipment-stockpiles-ar-15s-stun-grenades/"}, {"name": "Anbar, Sistan va Baluchestan, Iran", "cc": "IR", "lat": 26.791, "lon": 62.774, "n": 1, "art": 3, "url": "https://www.theamericanconservative.com/the-iran-war-as-history-the-box-scores-of-foreign-wars/"}, {"name": "Alaska, United States", "cc": "US", "lat": 61.385, "lon": -152.268, "n": 1, "art": 1, "url": "https://www.theamericanconservative.com/the-iran-war-as-history-the-box-scores-of-foreign-wars/"}, {"name": "China", "cc": "CH", "lat": 35.0, "lon": 105.0, "n": 8, "art": 72, "url": "http://www.bozemandailychronicle.com/ap_news/business/ap-business-summarybrief-at-5-07-p-m-edt/article_aa37e16f-b2dd-57b2-87e3-94b984c05077.html"}, {"name": "Budejovice, Jihocesk\u00fd, Czech Republic", "cc": "EZ", "lat": 48.983, "lon": 14.467, "n": 1, "art": 6, "url": "https://www.denik.cz/evropa/stavba-dalnice-prinesla-borku-klidnejsi-prostredi-atraktivita-obce-roste/"}, {"name": "Kashmir, Jammu and Kashmir, India", "cc": "IN", "lat": 33.917, "lon": 76.667, "n": 8, "art": 30, "url": "https://www.prokerala.com/news/articles/a1786188.html"}, {"name": "Ali Al Salem Air Base, Kuwait (general), Kuwait", "cc": "KU", "lat": 29.35, "lon": 47.521, "n": 1, "art": 2, "url": "https://kashmirreader.com/2026/07/10/crude-oil-jumps-over-5%AFter-trump-says-iran-ceasefire-over/"}, {"name": "Shiv, Rajasthan, India", "cc": "IN", "lat": 26.183, "lon": 71.25, "n": 6, "art": 40, "url": "https://www.rediff.com/news/report/ram-temple-theft-hurts-devotees-says-shinde-targets-uddhav-on-siddhivinayak/20260710.htm"}, {"name": "Bulgaria", "cc": "BU", "lat": 43.0, "lon": 25.0, "n": 3, "art": 20, "url": "https://www.mediapool.bg/kadrova-kriza-zatvarya-klyuchovi-otdeleniya-na-bolnitsata-v-silistra-patsientite-shte-badat-prenasochvani-news385349.html"}, {"name": "Quebec, Quebec, Canada", "cc": "CA", "lat": 47.5, "lon": -72.0, "n": 2, "art": 10, "url": "https://www.ledevoir.com/opinion/idees/993884/politique-ombre-heure-rearmement"}, {"name": "Australia", "cc": "AS", "lat": -25.0, "lon": 135.0, "n": 1, "art": 12, "url": "https://www.maitlandmercury.com.au/story/9308089/shocking-disregard-anti-semitism-probe-condemns-x/"}, {"name": "Irvine, California, United States", "cc": "US", "lat": 33.669, "lon": -117.823, "n": 2, "art": 2, "url": "https://www.juancole.com/2026/07/protesting-threatened-willoughby.html"}, {"name": "Germany", "cc": "GM", "lat": 51.5, "lon": 10.5, "n": 7, "art": 58, "url": "https://www.giornaleibleo.it/2026/07/10/la-festa-di-san-biagio-a-comiso-entra-nel-vivo-domenica-la-processione/"}, {"name": "Tirana, Tirane, Albania", "cc": "AL", "lat": 41.328, "lon": 19.819, "n": 6, "art": 58, "url": "https://euronews.al/protesta-ne-tirane-hyn-ne-diten-e-41-te-aktivistet-dhe-qytetaret-mblidhen-para-kryeministrise/"}, {"name": "Tenancingo, M\u00e9co, Mexico", "cc": "MX", "lat": 18.967, "lon": -99.6, "n": 5, "art": 40, "url": "https://periodicocorreo.com.mx/nacional/2026/jul/10/alcaldesa-de-tenancingo-es-vinculada-a-proceso-por-presunto-autosecuestro-161560.html"}, {"name": "Labrador Nature Reserve, Singapore (general), Singapore", "cc": "SN", "lat": 1.266, "lon": 103.802, "n": 1, "art": 10, "url": "https://www.straitstimes.com/singapore/housing/upcoming-gillman-barracks-housing-estate-will-retain-25-heritage-buildings-green-spaces"}, {"name": "Paris, France (general), France", "cc": "FR", "lat": 48.867, "lon": 2.333, "n": 5, "art": 17, "url": "https://index.hu/kulfold/2026/07/10/europai-unio-migracios-paktum-szigoritas-svedorszag-franciaorszag-olaszorszag-hollandia/"}, {"name": "Murrindindi, Victoria, Australia", "cc": "AS", "lat": -37.367, "lon": 145.533, "n": 2, "art": 10, "url": "https://www.miragenews.com/murrindindi-infrastructure-strengthened-by-1708134/"}, {"name": "Kyiv, Kyyiv, Misto, Ukraine", "cc": "UP", "lat": 50.433, "lon": 30.517, "n": 2, "art": 12, "url": "https://1tv.com.ua/ukrayina/zrada-chy-durist-u-minoborony-polshhi-vidpovily-krytykam-nadannya-raket-perehoplyuvachiv-ukrayini/"}, {"name": "Sulyok, Szabolcs-Szatm\u00e1Bereg, Hungary", "cc": "HU", "lat": 47.75, "lon": 21.85, "n": 6, "art": 29, "url": "https://hungarytoday.hu/thousands-protest-against-presidents-removal-and-tisza-dictatorship/"}, {"name": "Huntington Beach, California, United States", "cc": "US", "lat": 33.66, "lon": -117.999, "n": 3, "art": 10, "url": "https://www.ocregister.com/2021/05/22/multiple-police-agencies-disperse-crowds-of-tiktok-partygoers-in-huntington-beach/"}, {"name": "San Zaccaria, Emilia-Romagna, Italy", "cc": "IT", "lat": 44.263, "lon": 12.208, "n": 1, "art": 10, "url": "https://www.artasiapacific.com/news/anga-plans-protest-to-meet-us-ambassador-in-venice/"}, {"name": "Berlin, Berlin, Germany", "cc": "GM", "lat": 52.517, "lon": 13.4, "n": 6, "art": 60, "url": "https://runews24.ru/politics/10/07/2026/effekt-erfurta-xorvatskoe-izdanie-predreklo-germanii-politicheskij-vzryiv-kotoryij-potryasyot-vsyu-evropu"}, {"name": "Havana, Ciudad de La Habana, Cuba", "cc": "CU", "lat": 23.132, "lon": -82.364, "n": 5, "art": 48, "url": "https://www.cubaheadlines.com/articles/334756"}, {"name": "Athens, Attik\u00edR, Greece", "cc": "GR", "lat": 37.983, "lon": 23.733, "n": 8, "art": 78, "url": "https://athina984.gr/2026/07/10/gallia-schedio-ektaktis-anagkis-gia-quot-akraia-zesti-quot-sta-pyrina-metopa-kai-ellines-pyrosvestes/"}, {"name": "Borno State, Borno, Nigeria", "cc": "NI", "lat": 11.5, "lon": 13.0, "n": 4, "art": 10, "url": "https://dailytrust.com/more-than-50-days-after-families-of-oyo-borno-pupils-still-waiting/"}, {"name": "Atiba, Oyo, Nigeria", "cc": "NI", "lat": 7.558, "lon": 3.999, "n": 1, "art": 2, "url": "https://dailytrust.com/more-than-50-days-after-families-of-oyo-borno-pupils-still-waiting/"}, {"name": "Amritsar, Punjab, India", "cc": "IN", "lat": 31.633, "lon": 74.866, "n": 1, "art": 7, "url": "https://aninews.in/news/national/general-news/sgpc-holds-protest-march-in-amritsar-seeks-lifting-of-ban-on-film-satluj20260710110246/"}, {"name": "Singapore", "cc": "SN", "lat": 1.367, "lon": 103.8, "n": 2, "art": 10, "url": "https://www.police.gov.sg/Media-Hub/News/2026/07/20260709_two_malaysian_men_to_be_charged_for_suspected_involvement"}, {"name": "Askira, Borno, Nigeria", "cc": "NI", "lat": 10.647, "lon": 12.911, "n": 5, "art": 11, "url": "https://dailytrust.com/more-than-50-days-after-families-of-oyo-borno-pupils-still-waiting/"}, {"name": "Witbank, Mpumalanga, South Africa", "cc": "SF", "lat": -25.871, "lon": 29.233, "n": 1, "art": 10, "url": "https://www.faceofmalawi.com/2026/07/10/four-arrested-after-spaza-shop-looting-as-teen-killed-during-chaos-in-south-africa/"}, {"name": "Uttar Pradesh, Uttar Pradesh, India", "cc": "IN", "lat": 27.25, "lon": 80.75, "n": 7, "art": 23, "url": "https://organiser.org/2026/07/10/369249/bharat/propaganda-demolished-every-single-fake-narrative-targeting-the-ram-mandir-utterly-smashed-by-facts/"}, {"name": "Mumbai, Maharashtra, India", "cc": "IN", "lat": 18.975, "lon": 72.826, "n": 1, "art": 6, "url": "https://www.lokmat.com/thane/federation-cant-disallow-housing-society-from-redevelopment-bombay-high-court-a-a1012/"}, {"name": "Rivne, Rivnens'ka Oblast', Ukraine", "cc": "UP", "lat": 50.623, "lon": 26.227, "n": 2, "art": 16, "url": "https://rivnepost.rv.ua/kriminal/motoczyklist-potrapyv-do-likarni-pislya-zitknennya-z-pozashlyahovykom/"}, {"name": "Sirik, Hormozgan, Iran", "cc": "IR", "lat": 26.506, "lon": 57.122, "n": 5, "art": 10, "url": "https://www.ncr-iran.org/en/news/iran-news-in-brief-news/iran-news-in-brief-july-10-2026/"}, {"name": "Fariman, Khorasan-e Shemali, Iran", "cc": "IR", "lat": 37.113, "lon": 57.417, "n": 5, "art": 7, "url": "https://www.ncr-iran.org/en/news/iran-news-in-brief-news/iran-news-in-brief-july-10-2026/"}, {"name": "Vakilabad, Kerman, Iran", "cc": "IR", "lat": 29.768, "lon": 55.956, "n": 1, "art": 1, "url": "https://www.ncr-iran.org/en/news/iran-news-in-brief-news/iran-news-in-brief-july-10-2026/"}, {"name": "Colomadu, Indonesia (general), Indonesia", "cc": "ID", "lat": -7.533, "lon": 110.75, "n": 1, "art": 10, "url": "https://www.tribunnews.com/nasional/7852580/saat-warga-sudah-bayar-pajak-harus-keluar-uang-lagi-untuk-membangun-infrastruktur-dasar"}, {"name": "Chennai, Tamil Nadu, India", "cc": "IN", "lat": 13.083, "lon": 80.283, "n": 1, "art": 10, "url": "https://www.madhyamam.com/india/ram-temple-donation-scam-you-set-up-the-trust-and-performed-the-consecration-why-the-silence-now-congress-questions-modis-stance-1535937"}, {"name": "Ittoqqortoormiit, Kommuneqarfik Sermersooq, Greenland", "cc": "GL", "lat": 70.483, "lon": -21.967, "n": 1, "art": 10, "url": "https://www.dr.dk/nyheder/indland/groenland/oestgroenlandsk-i-centrum-amerikansk-olieeventyr-vi-er-ikke-usa-s-gas-station"}, {"name": "Italy", "cc": "IT", "lat": 42.833, "lon": 12.833, "n": 6, "art": 54, "url": "https://www.zazoom.it/2026-07-10/la-maxi-classe-da-35-studenti-fa-esplodere-la-protesta-delle-famiglie-il-caso-in-un-liceo-a-firenze/19446753/"}, {"name": "Hanover, Niedersachsen, Germany", "cc": "GM", "lat": 52.367, "lon": 9.717, "n": 1, "art": 10, "url": "https://www.economx.hu/kulfold/2026/07/10/nemetorszag-volkswagen-modellkinalat-gyarbezaras-elbocsatasok-tiltakozasok/"}, {"name": "Ghaziabad, Uttar Pradesh, India", "cc": "IN", "lat": 28.667, "lon": 77.433, "n": 1, "art": 1, "url": "https://www.hindustantimes.com/india-news/child-found-facedown-lifeless-ghaziabad-rain-kills-3-year-old-outside-own-house-locals-protest-vijay-nagar-101783665401526.html"}, {"name": "Istanbul, Istanbul, Turkey", "cc": "TU", "lat": 41.019, "lon": 28.965, "n": 4, "art": 22, "url": "https://anf-news.com/kadin/halide-turkoglu-merkezi-kadin-konferansi-icin-hazirliklara-basladik-230810"}, {"name": "Salamanca, Castilla y Le\u00f3P, Spain", "cc": "SP", "lat": 40.968, "lon": -5.662, "n": 1, "art": 10, "url": "https://www.breizh-info.com/2026/07/10/262065/guerre-civile-espagnole-clara-campoamor-la-republicaine-que-pedro-sanchez-veut-faire-oublier/"}, {"name": "Abbeville, Picardie, France", "cc": "FR", "lat": 49.516, "lon": 2.169, "n": 1, "art": 10, "url": "https://www.breizh-info.com/2026/07/10/262099/marine-le-pen-la-volonte-contre-les-idees/"}, {"name": "Russia", "cc": "RS", "lat": 60.0, "lon": 100.0, "n": 10, "art": 40, "url": "https://mfaapsny.org/en/allnews/news/visits/vstrecha-ministra-inostrannykh-del-respubliki-abkhaziya-olega-bartsits-s-delegatsiey-respubliki-gana/"}, {"name": "Pretoria, Gauteng, South Africa", "cc": "SF", "lat": -25.707, "lon": 28.229, "n": 3, "art": 7, "url": "https://economictimes.indiatimes.com/us/news/zulu-proverb-of-the-day-wathint-abafazi-wathint-imbokodo-you-strike-a-woman-you-strike-a-rock/articleshow/132305349.cms"}, {"name": "Ireland", "cc": "EI", "lat": 53.0, "lon": -8.0, "n": 2, "art": 18, "url": "https://www.newstalk.com/news/bonfire-2274016"}, {"name": "Petersburg, Sankt-Peterburg, Russia", "cc": "RS", "lat": 59.894, "lon": 30.264, "n": 1, "art": 10, "url": "https://www.eastrussia.ru/news/vo-vladivostoke-zapustyat-besplatnuyu-shkolu-segi/"}, {"name": "Jakarta, Jakarta Raya, Indonesia", "cc": "ID", "lat": -6.174, "lon": 106.829, "n": 1, "art": 10, "url": "https://www.jpnn.com/news/pemuda-antikorupsi-desak-usut-tuntas-dugaan-korupsi-yang-seret-jampidsus-febrie"}, {"name": "Mauritius", "cc": "MP", "lat": 16.0, "lon": 146.0, "n": 3, "art": 20, "url": "https://www.elheraldo.co/colombia/2026/07/10/la-nacion-el-ministerio-de-defensa-y-la-policia-nacional-condenados-por-la-muerte-de-dilan-cruz-durante-protestas-en-2019/"}, {"name": "Motiers, Switzerland (general), Switzerland", "cc": "SZ", "lat": 46.91, "lon": 6.611, "n": 2, "art": 8, "url": "https://www.lematin.ch/story/partenariat-quand-la-nature-et-l-art-s-allient-pour-de-belles-decouvertes-103600298"}, {"name": "Karyes, Perifereia Thessalias, Greece", "cc": "GR", "lat": 39.53, "lon": 21.778, "n": 1, "art": 10, "url": "https://www.flynews.gr/karies-simantika-nea-gia-ton-platano-tou-vasilia-menelaiou/"}, {"name": "Soweto, Gauteng, South Africa", "cc": "SF", "lat": -26.267, "lon": 27.867, "n": 3, "art": 10, "url": "https://www.dailysabah.com/world/africa/door-to-door-xenophobic-raids-deepen-tensions-across-south-africa"}, {"name": "Patna, Bihar, India", "cc": "IN", "lat": 25.6, "lon": 85.117, "n": 1, "art": 5, "url": "https://www.prokerala.com/news/articles/a1786197.html"}, {"name": "Jerusalem, Israel (general), Israel", "cc": "IS", "lat": 31.767, "lon": 35.233, "n": 7, "art": 30, "url": "https://www.thenationalnews.com/news/mena/2026/07/10/middle-east-experts-urge-andy-burnham-to-go-further-on-palestinian-policy/"}, {"name": "South Korea", "cc": "KS", "lat": 37.0, "lon": 127.5, "n": 2, "art": 10, "url": "https://www.koreatimes.co.kr/business/companies/20260710/hyundai-motor-kia-gm-korea-on-verge-of-strike-amid-faltering-wage-talks"}, {"name": "Yerevan, Yerevan*, Armenia", "cc": "AM", "lat": 40.181, "lon": 44.514, "n": 2, "art": 14, "url": "https://horizonweekly.ca/en/ruben-vardanyans-case-to-be-brought-before-the-european-court-of-human-rights/"}, {"name": "Les Pennes, Provence-Alpes-C\u00f4d'Azur, France", "cc": "FR", "lat": 43.417, "lon": 5.301, "n": 1, "art": 2, "url": "http://www.rightspeak.net/2026/07/afghan-muslim-who-rapes-animals.html"}, {"name": "Pennes, Rh\u00f4Alpes, France", "cc": "FR", "lat": 44.637, "lon": 5.316, "n": 1, "art": 8, "url": "http://www.rightspeak.net/2026/07/afghan-muslim-who-rapes-animals.html"}, {"name": "Quetta, Balochistan, Pakistan", "cc": "PK", "lat": 30.199, "lon": 67.01, "n": 2, "art": 10, "url": "https://www.bbc.com/urdu/articles/c621jjl2k5vo"}, {"name": "Mhlanga, Eastern Cape, South Africa", "cc": "SF", "lat": -31.186, "lon": 29.691, "n": 1, "art": 10, "url": "https://www.dailysabah.com/world/africa/door-to-door-xenophobic-raids-deepen-tensions-across-south-africa"}, {"name": "Ljubljana, Slovenia (general), Slovenia", "cc": "SI", "lat": 46.055, "lon": 14.514, "n": 1, "art": 8, "url": "https://www.politika.rs/scc/clanak/769624/demonstranti-u-sloveniji-traze-izlazak-iz-nato-a-i-uvodenje-sankcija-sad-i-izraelu"}, {"name": "Tarbes, Midi-Pyr\u00e9es, France", "cc": "FR", "lat": 43.233, "lon": 0.083, "n": 1, "art": 6, "url": "https://www.ladepeche.fr/2026/07/10/forges-de-tarbes-dans-la-tourmente-un-fonds-voyou-base-aux-bahamas-accuse-de-piller-une-industrie-strategique-de-defense-13462879.php"}, {"name": "Bahamas, The", "cc": "BF", "lat": 24.0, "lon": -76.0, "n": 1, "art": 2, "url": "https://www.ladepeche.fr/2026/07/10/forges-de-tarbes-dans-la-tourmente-un-fonds-voyou-base-aux-bahamas-accuse-de-piller-une-industrie-strategique-de-defense-13462879.php"}, {"name": "Jersey", "cc": "JE", "lat": 49.217, "lon": -2.117, "n": 1, "art": 5, "url": "http://inews24.com/view/1984511"}, {"name": "Kerala, Kerala, India", "cc": "IN", "lat": 10.0, "lon": 76.5, "n": 1, "art": 10, "url": "https://www.thehindu.com/news/national/kerala/us-firm-corrohealth-closure-in-kerala-no-breakthrough-in-minister-level-meeting/article71205819.ece"}, {"name": "Estepona, Andaluc\u00edSP, Spain", "cc": "SP", "lat": 36.428, "lon": -5.145, "n": 1, "art": 10, "url": "https://www.surinenglish.com/what-to-do/costa-sol-waters-ready-welcome-revered-patron-20260710103831-nt.html"}, {"name": "Georgia, United States", "cc": "US", "lat": 32.987, "lon": -83.649, "n": 2, "art": 12, "url": "https://www.dailykos.com/stories/2026/7/10/800067948/community/president-yang-gets-results-an-alternative-history-2024-26/"}, {"name": "Iran", "cc": "IR", "lat": 32.0, "lon": 53.0, "n": 8, "art": 48, "url": "http://www.bozemandailychronicle.com/ap_news/business/ap-business-summarybrief-at-5-07-p-m-edt/article_aa37e16f-b2dd-57b2-87e3-94b984c05077.html"}, {"name": "Sydney, New South Wales, Australia", "cc": "AS", "lat": -33.883, "lon": 151.217, "n": 1, "art": 10, "url": "https://www.skynews.com.au/australia-news/politics/i-dont-think-its-helpful-alex-antic-calls-for-cooperation-with-one-nation-after-angus-taylors-blistering-attack/news-story/0994b84e8ca7c7f42c16bbf49a8cba96?nk=55aeffde996b1342afe61d2503aaf2e3-1783675011"}, {"name": "Montreal, Quebec, Canada", "cc": "CA", "lat": 45.5, "lon": -73.583, "n": 2, "art": 18, "url": "https://www.gamesindustry.biz/they-want-us-to-accept-this-as-a-done-deal-and-quietly-disappear-bethesda-union-members-organise-protest-in-response-to-xbox-layoffs"}, {"name": "Burgundy, France (general), France", "cc": "FR", "lat": 47.0, "lon": 4.5, "n": 1, "art": 10, "url": "https://www.stars-actu.fr/2026/07/tour-de-france-2026-tout-savoir-sur-letape-7-a-suivre-ce-vendredi-10-juillet/"}, {"name": "Two Mountains, Quebec, Canada", "cc": "CA", "lat": 45.667, "lon": -74.0, "n": 1, "art": 10, "url": "https://leveil.com/actualites/elections-provinciales-2026-deux-premiers-candidats-pour-affronter-benoit-charette"}, {"name": "Ciudad De Mexico, Distrito Federal, Mexico", "cc": "MX", "lat": 19.434, "lon": -99.139, "n": 2, "art": 20, "url": "https://www.diariomomento.com/vamos-a-hacer-todo-lo-que-este-en-nuestras-manos-presidenta-sheinbaum-sre-inicia-acciones-legales-por-muertes-de-mexicanos-bajo-custodia-y-en-operativos-de-ice/"}, {"name": "North Korea", "cc": "KN", "lat": 40.0, "lon": 127.0, "n": 1, "art": 4, "url": "https://slguardian.org/taiwans-blacklisted-ships-reveal-north-korea-smuggling-links/"}, {"name": "Macedonia", "cc": "MK", "lat": 41.833, "lon": 22.0, "n": 2, "art": 2, "url": "https://www.dw.com/mk/politicki-stapici-na-patot-megu-skopje-i-tirana/a-77900506"}, {"name": "Pskov, Pskovskaya Oblast', Russia", "cc": "RS", "lat": 57.814, "lon": 28.35, "n": 1, "art": 10, "url": "https://pln-pskov.ru/accidents/592681.html"}, {"name": "Elbasan, Qarku Elbasan, Albania", "cc": "AL", "lat": 41.112, "lon": 20.082, "n": 1, "art": 10, "url": "https://sot.com.al/aktualitet/rama-krijon-policine-e-propagandes-sulmon-rrjetet-sociale-se-i-ra-klasifikimi-gjergj-luces-dhe-kercenon/"}, {"name": "Beijing, Beijing, China", "cc": "CH", "lat": 39.929, "lon": 116.388, "n": 2, "art": 9, "url": "https://www.manilatimes.net/2026/07/11/opinion/contributors/batanes-is-ours-facts-over-fiction-dialogue-over-alarm/2382410"}, {"name": "Athi, Eastern, Kenya", "cc": "KE", "lat": -2.267, "lon": 38.067, "n": 1, "art": 10, "url": "https://www.the-star.co.ke/news/2026-07-10-lsk-to-hold-march-over-deaths-of-two-lawyers"}, {"name": "Gambia", "cc": "GA", "lat": 13.5, "lon": -15.5, "n": 1, "art": 5, "url": "https://thepoint.gm/africa/gambia/national-news/sos-childrens-villages-calls-for-greater-inclusion-of-children-with-disabilities"}, {"name": "Milimani, Coast, Kenya", "cc": "KE", "lat": -2.523, "lon": 40.333, "n": 1, "art": 10, "url": "https://www.the-star.co.ke/news/2026-07-10-lsk-to-hold-march-over-deaths-of-two-lawyers"}, {"name": "Philippines", "cc": "RP", "lat": 13.0, "lon": 122.0, "n": 1, "art": 4, "url": "https://verafiles.org/articles/fact-check-tulfo-did-not-say-he-will-penalize-the-inc-for-holding-another-rally"}, {"name": "Zvernec, Vlore, Albania", "cc": "AL", "lat": 40.515, "lon": 19.417, "n": 4, "art": 42, "url": "https://gazeta-shqip.com/aktualiteti/shqiperia-e-rinise-jo-e-partise-qytetaret-nisin-marshimin-rama-ne-burg-berisha-ne-burg/"}, {"name": "Liberec, Libereck\u00fd, Czech Republic", "cc": "EZ", "lat": 50.764, "lon": 15.065, "n": 1, "art": 6, "url": "https://www.metro.cz/kraje/stredocesky-kraj/opravy-silnice-tsk-kbelska-kritika-prace.A260710_102220_metro-praha-zpravy_air"}, {"name": "Kiev, Ukraine (general), Ukraine", "cc": "UP", "lat": 50.433, "lon": 30.517, "n": 7, "art": 38, "url": "https://www.dnes.bg/a/2-svyat/728005-reshavashti-sedmitsi-za-putin-kremal-e-izpraven-pred-sadbonosen-izbor"}, {"name": "Najaf, An Najaf, Iraq", "cc": "IZ", "lat": 31.989, "lon": 44.329, "n": 3, "art": 10, "url": "https://www.bankingnews.gr/diethni/articles/887339/iran-in-chaos-powerful-explosions-rocked-bushehr-and-konarak-urgent-message-to-trump-from-qatar-and-pakistan"}, {"name": "Andhra, Andhra Pradesh, India", "cc": "IN", "lat": 18.0, "lon": 79.5, "n": 2, "art": 5, "url": "https://www.thehindubusinessline.com/news/lokesh-invites-hyundai-shipbuilding-arm-to-set-up-marine-engineering-hub-in-andhra/article71205893.ece"}, {"name": "White House, District of Columbia, United States", "cc": "US", "lat": 38.895, "lon": -77.036, "n": 4, "art": 24, "url": "https://theonion.com/secret-service-urges-trump-not-to-use-qatari-gifted-jet-pack/"}, {"name": "Cetinje, Montenegro (general), Montenegro", "cc": "MJ", "lat": 42.392, "lon": 18.922, "n": 1, "art": 10, "url": "https://www.alo.rs/vesti/politika/16842716/sok-izjava-seselja-mozemo-i-20-30-ljudi-da-stavimo-na-spisak.html"}, {"name": "Helsinki, Etel\u00e4uomen L\u00e4i, Finland", "cc": "FI", "lat": 60.176, "lon": 24.934, "n": 1, "art": 10, "url": "https://www.focus-news.net/novini/mejdunarodni/Finlandiya-otnovo-zatvori-nebeto-i-moreto-si-Voenna-trevoga-vuv-Finskiya-zaliv-zaradi-dronove-2993546"}, {"name": "Damascus, Dimashq, Syria", "cc": "SY", "lat": 33.5, "lon": 36.3, "n": 4, "art": 40, "url": "https://sana.sy/fr/syria-and-the-world/2317210/"}, {"name": "Tokyo, Tokyo, Japan", "cc": "JA", "lat": 35.685, "lon": 139.751, "n": 2, "art": 20, "url": "https://www.whathifi.com/tv-home-cinema/televisions/sony-bravia-9-ii-k65xr95m2"}, {"name": "Bikaner, Rajasthan, India", "cc": "IN", "lat": 28.017, "lon": 73.3, "n": 1, "art": 10, "url": "https://www.siasat.com/rajasthan-dalit-youth-dies-in-knife-attack-si-suspended-3504979/"}, {"name": "Banff National Park, Alberta, Canada", "cc": "CA", "lat": 51.15, "lon": -115.667, "n": 1, "art": 3, "url": "https://www.newsweek.com/canada-national-parks-created-using-colonial-injustices-government-report-12180042"}, {"name": "Hannover, Niedersachsen, Germany", "cc": "GM", "lat": 52.367, "lon": 9.717, "n": 1, "art": 2, "url": "https://gr.euronews.com/business/2026/07/10/volkswagen-unveils-a-four-year-plan-as-questions-remain-over-jobs-and-plants"}, {"name": "Malawi", "cc": "MI", "lat": -13.5, "lon": 34.0, "n": 2, "art": 20, "url": "https://www.pressafrik.com/Afrique-du-Sud-le-mouvement-anti-sans-papiers-lance-des-manifestations-hebdomadaires-marquees-par-des-agressions_a308122.html"}, {"name": "Chisinau, Chisinau, Moldova", "cc": "MD", "lat": 47.006, "lon": 28.858, "n": 3, "art": 24, "url": "https://newsmaker.md/ru/198-semei-jdut-klyuchi-ot-kvartir-u-administraczii-prezidenta-proshel-protest-protiv-kostyuka"}, {"name": "Morocco", "cc": "MO", "lat": 32.0, "lon": -5.0, "n": 1, "art": 8, "url": "https://www.lavanguardia.com/deportes/futbol/20260710/11588882/adolescente-muere-celebraciones-victoria-francia-mundial.html"}, {"name": "Rawalakot, Azad Kashmir, Pakistan", "cc": "PK", "lat": 33.858, "lon": 73.76, "n": 3, "art": 15, "url": "https://thefrontierpost.com/armed-groups-of-banned-action-committee-make-life-miserable-for-rawalakot-residents/"}, {"name": "Gudalur, Tamil Nadu, India", "cc": "IN", "lat": 11.5, "lon": 76.5, "n": 1, "art": 10, "url": "https://www.thehindu.com/news/national/tamil-nadu/business-owners-protest-move-to-close-kalhatty-ghat-road-to-tourist-vehicles/article71205945.ece"}, {"name": "Brighton, Brighton and Hove, United Kingdom", "cc": "UK", "lat": 50.833, "lon": -0.15, "n": 4, "art": 25, "url": "https://morningstaronline.co.uk/article/british-woman-hunger-strike-turkey-after-nato-summit-protest-arrest"}, {"name": "Philadelphia, Pennsylvania, United States", "cc": "US", "lat": 39.952, "lon": -75.164, "n": 2, "art": 20, "url": "https://www.unian.ua/lite/kino/serial-task-2-sezon-sezon-detektiva-z-markom-ruffalo-ob-yednali-z-mare-of-easttown-z-keyt-vinslet-13437204.html"}, {"name": "Stavropol, Stavropol'skiy Kray, Russia", "cc": "RS", "lat": 45.043, "lon": 41.973, "n": 1, "art": 10, "url": "https://azh.kz/ru/news/view/129933"}, {"name": "Tengiz, Atyrau, Kazakhstan", "cc": "KZ", "lat": 46.333, "lon": 53.467, "n": 1, "art": 10, "url": "https://azh.kz/ru/news/view/129933"}, {"name": "Madrid, Madrid, Spain", "cc": "SP", "lat": 40.4, "lon": -3.683, "n": 1, "art": 10, "url": "https://www.eldiario.es/madrid/manifestacion-nocturna-educadoras-infantiles-madrid-prepara-camino-nuevo-curso-huelga-continuara_1_13370305.html"}, {"name": "Romania", "cc": "RO", "lat": 46.0, "lon": 25.0, "n": 2, "art": 18, "url": "https://www.europafm.ro/corveta-contraamiral-augustin-roman-dotata-cu-echipamente-adaptate-cerintelor-de-la-frontiera-maritima-a-ue-comandantul-navei-are-capabilitati-de-detectare-a-dronelor/"}, {"name": "Congo", "cc": "CF", "lat": -1.0, "lon": 15.0, "n": 1, "art": 10, "url": "https://www.dw.com/sw/masharti-upinzani-kabla-mazungumzo-kitaifa-kongo/a-77900666"}, {"name": "Accra, Greater Accra, Ghana", "cc": "GH", "lat": 5.55, "lon": -0.217, "n": 3, "art": 13, "url": "https://www.channelafrica.co.za/channelafrica/lifestyle-ent/culture-clout-creativity-your-weekly-arty-beats-wrap-up/"}, {"name": "Kavaja, Tirane, Albania", "cc": "AL", "lat": 41.186, "lon": 19.557, "n": 2, "art": 16, "url": "https://www.syri.net/politike/902412/protestuesit-marshojne-ne-rrugen-e-kavajes-shqiperia-e-rinise-jo-e-partise/"}, {"name": "Villefranche, Midi-Pyr\u00e9es, France", "cc": "FR", "lat": 43.897, "lon": 2.332, "n": 1, "art": 10, "url": "https://www.centrepresseaveyron.fr/2026/07/10/laveyron-en-fetes-cinema-en-plein-air-marches-nocturnes-festivals-brasucade-au-programme-du-7-au-11-juillet-13455818.php"}, {"name": "Rome, Lazio, Italy", "cc": "IT", "lat": 41.9, "lon": 12.483, "n": 2, "art": 10, "url": "https://www.thelocal.it/20260709/italian-farmer-jailed-for-16-years-for-abandoning-injured-indian-worker/"}, {"name": "Oakville, Ontario, Canada", "cc": "CA", "lat": 43.433, "lon": -79.667, "n": 1, "art": 4, "url": "https://www.niagarafallsreview.ca/news/crime/human-trafficking-niagara-10-year-sentence/article_54d86e0f-5ed2-51f7-998c-b1a5744d99ea.html"}, {"name": "Toronto, Ontario, Canada", "cc": "CA", "lat": 43.667, "lon": -79.417, "n": 3, "art": 11, "url": "https://www.theglobeandmail.com/opinion/article-reza-pahlavi-impact-on-iran/"}, {"name": "Surat, Gujarat, India", "cc": "IN", "lat": 20.967, "lon": 72.9, "n": 2, "art": 6, "url": "https://www.prokerala.com/news/articles/a1786271.html"}, {"name": "Barcelona, Comunidad Autonoma de Cataluna, Spain", "cc": "SP", "lat": 41.383, "lon": 2.183, "n": 3, "art": 29, "url": "http://www.elpuntavui.cat/politica/article/2658407.html"}, {"name": "Delhi, Delhi, India", "cc": "IN", "lat": 28.667, "lon": 77.217, "n": 7, "art": 25, "url": "https://www.newkerala.com/news/a/datia-bypoll-will-strive-justify-confidence-reposed-me-801.htm"}, {"name": "Johannesburg, Gauteng, South Africa", "cc": "SF", "lat": -26.2, "lon": 28.083, "n": 2, "art": 17, "url": "https://pidgin.informationng.com/?p=35356"}, {"name": "Zimbabwe", "cc": "ZI", "lat": -19.0, "lon": 29.0, "n": 1, "art": 3, "url": "https://thezimbabwemail.com/news/world-world-3/south-african-protesters-go-door-to-door-forcing-immigrants-from-their-homes/"}, {"name": "Islamabad, Islamabad, Pakistan", "cc": "PK", "lat": 33.7, "lon": 73.167, "n": 2, "art": 15, "url": "https://tribune.com.pk/story/2617514/g-b-uplift-govts-priority-as-steps-underway-to-improve-infrastructure-create-jobs-pm-shehbaz"}, {"name": "Skopje, Macedonia (general), Macedonia", "cc": "MK", "lat": 42.0, "lon": 21.433, "n": 2, "art": 10, "url": "https://time.mk/ai/4cd7a1030d/mk/"}, {"name": "Idleb, Idlib, Syria", "cc": "SY", "lat": 35.931, "lon": 36.634, "n": 1, "art": 10, "url": "https://sana.sy/fr/syria-and-the-world/2317161/"}, {"name": "Bucharest, Bucuresti, Romania", "cc": "RO", "lat": 44.433, "lon": 26.1, "n": 1, "art": 4, "url": "https://tvmania.libertatea.ro/dana-rogoz-radu-dragomir-aniversare-cununie-civila-munti-632165"}, {"name": "Gihon River, Vermont, United States", "cc": "US", "lat": 44.634, "lon": -72.685, "n": 1, "art": 8, "url": "https://www.mynbc5.com/article/how-the-town-of-johnson-has-progressed-near-the-anniversary-of-historic-flooding/71890022"}, {"name": "Colombia", "cc": "CO", "lat": 4.0, "lon": -72.0, "n": 2, "art": 20, "url": "https://www.hsbnoticias.com/se-presentan-protestas-en-inmediaciones-de-la-universidad-nacional-este-es-el-estado-de-las-vias/"}, {"name": "Dublin, Dublin, Ireland", "cc": "EI", "lat": 53.333, "lon": -6.249, "n": 3, "art": 12, "url": "https://www.roscommonherald.ie/accused-people-unrepresented-in-district-court-due-to-legal-aid-dispute-challenge-legality-of-detent_arid-104599.html"}, {"name": "Edinburgh, Edinburgh, City of, United Kingdom", "cc": "UK", "lat": 55.95, "lon": -3.2, "n": 2, "art": 13, "url": "https://thefederalist.com/2026/07/10/the-real-citizen-vigilantes-roaming-europe-are-armed-muslims-imposing-sharia-law/"}, {"name": "Aughinish, Clare, Ireland", "cc": "EI", "lat": 53.165, "lon": -9.079, "n": 2, "art": 5, "url": "https://www.irishtimes.com/politics/2026/07/10/fuel-excise-you-cant-continue-writing-a-cheque-every-month-says-minister/"}, {"name": "Zurich, Z\u00fcSZ, Switzerland", "cc": "SZ", "lat": 47.367, "lon": 8.55, "n": 1, "art": 10, "url": "https://www.hellenicshippingnews.com/oslo-rotterdam-shipping-route-to-demonstrate-liquid-hydrogen-in-eu/"}, {"name": "Coahuila, Sonora, Mexico", "cc": "MX", "lat": 28.6, "lon": -111.383, "n": 1, "art": 10, "url": "https://www.zocalo.com.mx/rinden-protesta-nuevos-socios-del-ccpc/"}, {"name": "Dhaka, Dhaka, Bangladesh", "cc": "BG", "lat": 23.723, "lon": 90.409, "n": 1, "art": 4, "url": "https://www.naidunia.com/world-sheikh-hasina-says-she-will-return-to-bangladesh-surrender-in-december-8450594"}, {"name": "Kosovo", "cc": "KV", "lat": 42.583, "lon": 21.0, "n": 1, "art": 10, "url": "https://www.epokaere.com/2026/07/10/punetoret-e-rtk-se-pa-paga-prej-10-ditesh-sindikatat-paralajmerojne-proteste-te-henen/"}, {"name": "Jinan, Shandong, China", "cc": "CH", "lat": 36.668, "lon": 116.997, "n": 1, "art": 1, "url": "http://eng.chinamil.com.cn/2025xb/W/A_251464/16472977.html"}, {"name": "Manila, Manila, Philippines", "cc": "RP", "lat": 14.604, "lon": 120.982, "n": 2, "art": 12, "url": "https://www.manilatimes.net/2026/07/11/tmt-newswire/globenewswire/mdwerks-appoints-jeff-hopmayer-to-board-of-directors-as-molecular-targeting-technology-platform-expands-across-industrial-markets/2382603"}, {"name": "Tunisia", "cc": "TS", "lat": 34.0, "lon": 9.0, "n": 1, "art": 10, "url": "https://www.webdo.tn/fr/actualite/national/plan-de-developpement-2026-2030-le-parlement-valide-la-feuille-de-route-economique-de-la-tunisie/400866/"}, {"name": "Spain", "cc": "SP", "lat": 40.0, "lon": -4.0, "n": 5, "art": 70, "url": "https://www.svt.se/vader/varmebolja-i-europa-folj-senaste-nytt?inlagg=a9178670626da6bc2839e2fe11bb44b4"}, {"name": "Muranga, Central, Kenya", "cc": "KE", "lat": -0.717, "lon": 37.15, "n": 4, "art": 10, "url": "https://www.standardmedia.co.ke/politics/article/2001552477/gachagua-calls-on-iebc-to-reign-on-state-officials-in-ol-kalau"}, {"name": "Alexandria, Al Iskandariyah, Egypt", "cc": "EG", "lat": 31.198, "lon": 29.919, "n": 3, "art": 5, "url": "https://www.theguardian.com/commentisfree/2026/jul/10/graham-platner-democrats-image"}, {"name": "Venezuela", "cc": "VE", "lat": 8.0, "lon": -66.0, "n": 4, "art": 36, "url": "https://maritime-executive.com/article/uss-abraham-lincoln-sets-record-of-over-210-consecutive-days-at-sea"}, {"name": "Sykhiv, L'vivs'ka Oblast', Ukraine", "cc": "UP", "lat": 49.213, "lon": 24.031, "n": 1, "art": 4, "url": "https://www.bbc.com/ukrainian/articles/ce3er3vv60xo"}, {"name": "Iberia, Spain (general), Spain", "cc": "SP", "lat": 40.0, "lon": -5.0, "n": 1, "art": 10, "url": "https://executivedigest.sapo.pt/grupo-casais-e-construtora-espanhola-acr-criam-empresa-conjunta-para-construir-edificios-mais-depressa-e-com-menos-desperdicio/"}, {"name": "Lisbon, Lisboa, Portugal", "cc": "PO", "lat": 38.717, "lon": -9.133, "n": 1, "art": 6, "url": "https://fr.allafrica.com/stories/202607100362.html"}, {"name": "Angola", "cc": "AO", "lat": -12.5, "lon": 18.5, "n": 1, "art": 4, "url": "https://fr.allafrica.com/stories/202607100362.html"}, {"name": "Cairo, Al Qahirah, Egypt", "cc": "EG", "lat": 30.05, "lon": 31.25, "n": 3, "art": 10, "url": "https://nos.nl/artikel/2622447-egyptische-nederlander-al-9-maanden-zonder-aanklacht-vast-in-egypte"}, {"name": "Dubno, Rivnens'ka Oblast', Ukraine", "cc": "UP", "lat": 50.417, "lon": 25.734, "n": 1, "art": 8, "url": "https://ogo.ua/drager-pokazav-174-promile-u-rivnomu-patrulni-zatrymaly-netverezogo-kermanycha/"}, {"name": "Alabama, United States", "cc": "US", "lat": 32.799, "lon": -86.807, "n": 1, "art": 10, "url": "https://www.livinglutheran.org/living-faithfully/publicly-boldly-and-honestly/"}, {"name": "Minnesota, United States", "cc": "US", "lat": 45.733, "lon": -93.92, "n": 5, "art": 23, "url": "https://knsiradio.com/2026/07/10/office-of-cannabis-management-brings-listening-tour-to-st-cloud-saturday/"}, {"name": "Niavaran, Tehran, Iran", "cc": "IR", "lat": 35.817, "lon": 51.473, "n": 1, "art": 4, "url": "https://www.theglobeandmail.com/opinion/article-reza-pahlavi-impact-on-iran/"}, {"name": "Navaly, Northern, Sri Lanka", "cc": "CE", "lat": 9.711, "lon": 79.983, "n": 2, "art": 10, "url": "https://www.tamilguardian.com/content/31-years-victims-navaly-bombing-remembered-jaffna"}, {"name": "Philippine, Benguet, Philippines", "cc": "RP", "lat": 16.45, "lon": 120.55, "n": 1, "art": 8, "url": "https://www.bulatlat.com/2026/07/10/progressive-groups-confront-ntf-elcac-officials-in-un-counter-terrorism-week/"}, {"name": "Brasilia, Distrito Federal, Brazil", "cc": "BR", "lat": -15.783, "lon": -47.917, "n": 1, "art": 10, "url": "https://www.dgabc.com.br/Noticia/4334354/fortalecer-as-bancadas"}, {"name": "Reunion", "cc": "RE", "lat": -21.1, "lon": 55.6, "n": 1, "art": 10, "url": "https://horanews.uai.com.br/noticia/810535/novelas/quem-ama-cuida-essas-3-pistas-finais-indicam-se-pedro-tirou-ou-nao-a-vida-de-arthur-10072026"}, {"name": "Beirut, Beyrouth, Lebanon", "cc": "LE", "lat": 33.872, "lon": 35.51, "n": 1, "art": 10, "url": "https://www.bbc.com/urdu/articles/c872vnq54jdo"}, {"name": "Cyprus", "cc": "CY", "lat": 35.0, "lon": 33.0, "n": 1, "art": 10, "url": "https://www.thenews.coop/e42m-share-offer-launched-for-new-co-op-bank-in-cyprus/"}, {"name": "Atlanta, Georgia, United States", "cc": "US", "lat": 33.749, "lon": -84.388, "n": 1, "art": 6, "url": "https://www.newsweek.com/donald-trump-cdc-food-net-monitoring-parasite-cyclospora-12180951"}, {"name": "Central West End, Missouri, United States", "cc": "US", "lat": 38.645, "lon": -90.257, "n": 2, "art": 4, "url": "https://www.stltoday.com/exclusive/250/article_5eabedb1-68e7-4c28-8140-30af57d6bac2.html"}, {"name": "Switzerland", "cc": "SZ", "lat": 47.0, "lon": 8.0, "n": 2, "art": 10, "url": "https://retailtimes.co.uk/standing-firm-why-manned-guarding-is-the-first-and-last-line-of-defence-for-luxury-retail/"}, {"name": "Melbourne, Victoria, Australia", "cc": "AS", "lat": -37.817, "lon": 144.967, "n": 2, "art": 14, "url": "https://www.surinametimes.com/artikel/modi-eyes-historic-chance-to-secure-australian-uranium"}, {"name": "Anaheim, California, United States", "cc": "US", "lat": 33.835, "lon": -117.915, "n": 1, "art": 2, "url": "https://www.thewrap.com/culture-lifestyle/culture/pirates-of-the-caribbean-new-character-backlash/"}, {"name": "Queens, New York, United States", "cc": "US", "lat": 40.75, "lon": -73.798, "n": 1, "art": 2, "url": "https://nextcity.org/urbanist-news/the-weekly-wrap-public-banking-will-be-on-the-ballot-in-san-francisco"}, {"name": "Zwickau, Sachsen, Germany", "cc": "GM", "lat": 50.733, "lon": 12.5, "n": 2, "art": 8, "url": "https://finance.yahoo.com/markets/stocks/articles/volkswagen-cut-model-lineup-half-132536222.html"}, {"name": "Kolkata, West Bengal, India", "cc": "IN", "lat": 22.57, "lon": 88.37, "n": 5, "art": 38, "url": "https://www.albiladpress.com/news/2026/6479/spaces/1008587.html"}, {"name": "Toloka, Chernivets'ka Oblast', Ukraine", "cc": "UP", "lat": 48.1, "lon": 25.05, "n": 1, "art": 10, "url": "http://www.strategypage.com/htmw/htairw/articles/20260710704.aspx"}, {"name": "Black Sea, Oceans (general), Oceans", "cc": "OS", "lat": 43.0, "lon": 35.0, "n": 1, "art": 10, "url": "http://www.strategypage.com/htmw/htairw/articles/20260710704.aspx"}, {"name": "Andalusia, Spain (general), Spain", "cc": "SP", "lat": 37.6, "lon": -4.5, "n": 1, "art": 10, "url": "https://www.20minutos.es/andalucia/almeria/vision-satelital-incendio-los-gallardos-hay-12-fallecidos-mas-una-veintena-desaparecidos_7013238_0.html"}, {"name": "Madras, Tamil Nadu, India", "cc": "IN", "lat": 13.083, "lon": 80.283, "n": 1, "art": 1, "url": "https://www.thehindu.com/newsletter/tamil-nadu-today/here-are-the-big-stories-from-tamil-nadu-today/article71206567.ece"}, {"name": "Nilgiris, Tamil Nadu, India", "cc": "IN", "lat": 11.4, "lon": 76.7, "n": 1, "art": 7, "url": "https://www.thehindu.com/newsletter/tamil-nadu-today/here-are-the-big-stories-from-tamil-nadu-today/article71206567.ece"}, {"name": "Bihta, Bihar, India", "cc": "IN", "lat": 25.55, "lon": 84.867, "n": 1, "art": 3, "url": "https://timesofindia.indiatimes.com/city/patna/road-blocked-in-bihta-area-after-body-of-former-mukhiya-found/articleshow/132313480.cms"}, {"name": "Karur, Karnataka, India", "cc": "IN", "lat": 14.017, "lon": 74.9, "n": 1, "art": 5, "url": "https://www.freepressjournal.in/india/vijay-returns-to-karur-announces-memorial-for-stampede-victims-and-attacks-dmk"}, {"name": "Coyoacan, Distrito Federal, Mexico", "cc": "MX", "lat": 19.329, "lon": -99.16, "n": 1, "art": 10, "url": "https://www.publimetro.com.mx/noticias/2026/07/10/marchas-cdmx-hoy-10-de-julio-estas-son-las-zonas-donde-podria-haber-afectaciones-viales/"}, {"name": "Kolyma, Russia (general), Russia", "cc": "RS", "lat": 69.5, "lon": 161.0, "n": 2, "art": 12, "url": "https://glavred.info/culture/poet-shestidesyatnik-i-borec-za-svobodu-kto-takoy-vasiliy-stus-10779581.html"}, {"name": "Benito Juarez, Oaxaca, Mexico", "cc": "MX", "lat": 18.118, "lon": -96.001, "n": 1, "art": 10, "url": "https://www.publimetro.com.mx/noticias/2026/07/10/marchas-cdmx-hoy-10-de-julio-estas-son-las-zonas-donde-podria-haber-afectaciones-viales/"}, {"name": "Sazan, Vlore, Albania", "cc": "AL", "lat": 40.492, "lon": 19.275, "n": 2, "art": 20, "url": "https://www.balkanweb.com/4-mln-euro-per-koncertin-e-kanye-west-media-italiane-qeveria-shqiptare-akuzohet-per-financim-me-fondet-e-emergjencave/"}, {"name": "Cape Town, Western Cape, South Africa", "cc": "SF", "lat": -33.917, "lon": 18.417, "n": 1, "art": 3, "url": "https://allafrica.com/stories/202607100431.html"}, {"name": "Entebbe, Wakiso, Uganda", "cc": "UG", "lat": 0.064, "lon": 32.447, "n": 1, "art": 2, "url": "https://allafrica.com/stories/202607100431.html"}, {"name": "Saint Marie, Aquitaine, France", "cc": "FR", "lat": 44.844, "lon": -0.55, "n": 1, "art": 8, "url": "https://www.unitaid.eu/dennis-guyon-death-paradise-x6c4.html"}, {"name": "Nairobi, Nairobi Area, Kenya", "cc": "KE", "lat": -1.283, "lon": 36.817, "n": 5, "art": 22, "url": "https://www.standardmedia.co.ke/national/article/2001552485/lawyers-demand-speedy-probe-into-colleagues-killings"}, {"name": "Machakos, Eastern, Kenya", "cc": "KE", "lat": -1.517, "lon": 37.267, "n": 1, "art": 6, "url": "https://www.standardmedia.co.ke/national/article/2001552485/lawyers-demand-speedy-probe-into-colleagues-killings"}, {"name": "Makrinitsa, Perifereia Thessalias, Greece", "cc": "GR", "lat": 39.4, "lon": 22.983, "n": 1, "art": 10, "url": "https://www.taxydromos.gr/politismos/1341379/oi-maides-tis-makrinitsas-pilioy-otan-i-paradosi-ginetai-mellon/"}, {"name": "Jedwabne, Podlaskie, Poland", "cc": "PL", "lat": 53.286, "lon": 22.306, "n": 3, "art": 16, "url": "https://www.al-monitor.com/originals/2026/07/polish-nationalists-protest-jewish-pogrom-commemoration"}, {"name": "Radzilow, Podlaskie, Poland", "cc": "PL", "lat": 53.411, "lon": 22.409, "n": 1, "art": 2, "url": "https://www.tokfm.pl/polska/rocznice-jedwabnego-i-rzezi-wolynskiej-co-trzeba-wiedziec-w-zwiazku-z-obchodami"}, {"name": "Warsaw, (PL67), Poland", "cc": "PL", "lat": 52.25, "lon": 21.0, "n": 2, "art": 20, "url": "https://www.rynekzdrowia.pl/Finanse-i-zarzadzanie/Prace-nad-kontrowersyjna-nowela-ustawy-o-zawodzie-lekarza-wstrzymane-Mamy-potwierdzenie,286544,1.html"}, {"name": "Sochi, Krasnodarskiy Kray, Russia", "cc": "RS", "lat": 43.599, "lon": 39.726, "n": 1, "art": 2, "url": "https://www.akm.ru/press/yandeks_zapustil_robotaksi_mezhdu_svoimi_ofisami_v_moskve/"}, {"name": "Greenock, Inverclyde, United Kingdom", "cc": "UK", "lat": 55.933, "lon": -4.75, "n": 1, "art": 10, "url": "https://www.greenocktelegraph.co.uk/news/26270313.poilce-investigating-serious-assault-man-greenock/"}, {"name": "Meerut, Uttar Pradesh, India", "cc": "IN", "lat": 28.983, "lon": 77.7, "n": 3, "art": 12, "url": "https://www.rediff.com/news/report/meerut-ssp-defends-police-action-amid-protests-over-sc-students-death/20260710.htm"}, {"name": "Munich, Bayern, Germany", "cc": "GM", "lat": 48.15, "lon": 11.583, "n": 1, "art": 12, "url": "http://www.prnewswire.com/news-releases/lumosenergy-hosts-global-brand-launch-in-munich-showcasing-global-vision-and-charging-innovation-302822842.html"}, {"name": "Phoenix, Arizona, United States", "cc": "US", "lat": 33.448, "lon": -112.074, "n": 1, "art": 18, "url": "http://www.prnewswire.com/news-releases/lumosenergy-hosts-global-brand-launch-in-munich-showcasing-global-vision-and-charging-innovation-302822842.html"}, {"name": "Tomatin, Highland, United Kingdom", "cc": "UK", "lat": 57.333, "lon": -3.983, "n": 1, "art": 7, "url": "https://www.heraldscotland.com/news/26270371.whisky-distillery-tomatin-celebrates-year-rapid-growth/"}, {"name": "Meiyu, Hainan, China", "cc": "CH", "lat": 19.85, "lon": 110.083, "n": 1, "art": 5, "url": "https://www.channelafrica.co.za/channelafrica/lifestyle-ent/culture-clout-creativity-your-weekly-arty-beats-wrap-up/"}, {"name": "Dytiki Ellada, Perifereia Dytikis Elladas, Greece", "cc": "GR", "lat": 38.233, "lon": 21.733, "n": 2, "art": 8, "url": "https://pelop.gr/althom-engineering-apo-tin-patra-sta-megala-evropaika-aeronafpigika-kai-amyntika-programmata/"}, {"name": "Nouakchott, Trarza, Mauritania", "cc": "MR", "lat": 18.119, "lon": -16.041, "n": 2, "art": 20, "url": "https://www.afriquesenlutte.org/afrique-du-nord/mauritanie-55/article/mauritanie-solidarite-avec-les"}, {"name": "Kazakhstan", "cc": "KZ", "lat": 48.0, "lon": 68.0, "n": 1, "art": 10, "url": "https://www2.fundsforngos.org/agriculture-food-nutrition-2/rfas-kazakhstan-agricultural-methane-reduction-project-2026/"}, {"name": "Eluru, Andhra Pradesh, India", "cc": "IN", "lat": 16.7, "lon": 81.1, "n": 1, "art": 5, "url": "https://www.thehindu.com/news/national/andhra-pradesh/anganwadi-workers-seek-26000-monthly-wage-social-security-benefits/article71207006.ece"}, {"name": "Lugano, Ticino, Switzerland", "cc": "SZ", "lat": 46.006, "lon": 8.951, "n": 1, "art": 10, "url": "https://www.tdg.ch/suisse-les-eglises-sopposent-au-rappel-militaire-des-pretres-500639104538"}, {"name": "Bozdag, Izmir, Turkey", "cc": "TU", "lat": 38.333, "lon": 28.1, "n": 1, "art": 8, "url": "https://www.dw.com/ru/rossian-budut-deportirovat-iz-turcii-primer-litvinovoj/a-77908338"}, {"name": "Azerbaijan", "cc": "AJ", "lat": 40.5, "lon": 47.5, "n": 1, "art": 2, "url": "https://www.dw.com/ru/rossian-budut-deportirovat-iz-turcii-primer-litvinovoj/a-77908338"}, {"name": "Norway", "cc": "NO", "lat": 62.0, "lon": 10.0, "n": 1, "art": 2, "url": "https://vz.ru/news/2026/7/10/1433937.html"}, {"name": "Wisconsin, United States", "cc": "US", "lat": 44.256, "lon": -89.638, "n": 2, "art": 10, "url": "https://www.wispolitics.com/2026/dem-contenders-rebuff-crowley-call-to-rally-behind-rodriguez-in-governors-race/"}, {"name": "Tbilisi, Georgia (general), Georgia", "cc": "GG", "lat": 41.725, "lon": 44.791, "n": 1, "art": 8, "url": "https://news.bg/int-politics/gruzinski-opozitsioner-poluchi-13-godini-zatvor-za-opit-za-palezh-na-sad.html"}, {"name": "Genoa, Liguria, Italy", "cc": "IT", "lat": 44.417, "lon": 8.95, "n": 1, "art": 20, "url": "https://www.ilfattonisseno.it/2026/07/detenuto-sale-sul-tetto-la-protesta-nel-carcere-marassi-di-genova/"}, {"name": "Jammu, Jammu and Kashmir, India", "cc": "IN", "lat": 32.733, "lon": 74.867, "n": 1, "art": 10, "url": "http://www.scoopnews.in/det.aspx?q=146473%20class="}, {"name": "Uganda", "cc": "UG", "lat": 2.0, "lon": 33.0, "n": 1, "art": 10, "url": "https://gearjunkie.com/outdoor/mosquitoes-catnip-repellent"}, {"name": "Minsk, Belarus (general), Belarus", "cc": "BO", "lat": 53.9, "lon": 27.567, "n": 1, "art": 7, "url": "https://tol.org/client/article/after-the-escape-the-political-awakening-of-belarusian-youth-in-exile.html"}, {"name": "Hernando County, Florida, United States", "cc": "US", "lat": 28.542, "lon": -82.458, "n": 2, "art": 10, "url": "https://www.fox13news.com/news/vintage-medicine-bottle-turns-wartime-explosive-brooksvilles-historic-may-stringer-house"}, {"name": "Telangana, Andhra Pradesh, India", "cc": "IN", "lat": 18.0, "lon": 79.5, "n": 1, "art": 10, "url": "https://www.andhrajyothy.com/2026/telangana/khammam/kalvakuntla-kavitha-telangana-rakshana-sena-farmer-promises-tribal-welfare-vvnp-1540572.html"}, {"name": "Ruthin, Denbighshire, United Kingdom", "cc": "UK", "lat": 53.117, "lon": -3.3, "n": 2, "art": 20, "url": "https://www.rhyljournal.co.uk/news/26271249.parents-pupils-staff-impacted-ruthin-school-closure/"}, {"name": "Perambur, Tamil Nadu, India", "cc": "IN", "lat": 13.11, "lon": 80.243, "n": 1, "art": 6, "url": "https://organiser.org/2026/07/10/369309/bharat/tamil-nadu-cm-joseph-offers-karur-victims-kin-govt-jobs-subject-to-judicial-review-politics-over-tragedy-continues/"}, {"name": "Bethesda, Maryland, United States", "cc": "US", "lat": 38.981, "lon": -77.1, "n": 1, "art": 2, "url": "https://www.gamesindustry.biz/they-want-us-to-accept-this-as-a-done-deal-and-quietly-disappear-bethesda-union-members-organise-protest-in-response-to-xbox-layoffs"}, {"name": "Greece", "cc": "GR", "lat": 39.0, "lon": 22.0, "n": 2, "art": 20, "url": "https://www.iefimerida.gr/kosmos/india-dolofonia-11hronoy-koritsioy-syllipseis"}, {"name": "Chuvashia, Chuvashiya, Russia", "cc": "RS", "lat": 55.5, "lon": 47.0, "n": 1, "art": 6, "url": "https://re-port.ru:443/pressreleases/sotrudniki_i_voennosluzhashie_upravlenija_rosgvardii_po_chuvashskoi_respublike_obespechili_bezopasnost_uchastnikov_vserossiiskogo_parada_semi_v_cheboksarah/"}, {"name": "Sachsen, Bayern, Germany", "cc": "GM", "lat": 49.3, "lon": 10.4, "n": 1, "art": 10, "url": "https://www.naval-technology.com/news/rheinmetall-mbda-german-navy/"}, {"name": "Tibet, Xizang, China", "cc": "CH", "lat": 32.0, "lon": 90.0, "n": 2, "art": 12, "url": "https://www.tamilguardian.com/content/tibetan-activist-dies-after-self-immolation-outside-un-headquarters"}, {"name": "Connecticut, United States", "cc": "US", "lat": 41.583, "lon": -72.762, "n": 1, "art": 10, "url": "https://www.independent.co.uk/us/money/worst-states-retirement-savings-b3012675.html"}, {"name": "Boston, Massachusetts, United States", "cc": "US", "lat": 42.358, "lon": -71.06, "n": 1, "art": 10, "url": "https://www.bostonglobe.com/2026/07/10/business/brigham-nurses-strike-deal/"}, {"name": "Compton, California, United States", "cc": "US", "lat": 33.896, "lon": -118.22, "n": 1, "art": 6, "url": "https://abc30.com/post/california-colleges-reveal-military-weapons-stockade-calmatters-investigation/19481103/"}, {"name": "San Bernardino, California, United States", "cc": "US", "lat": 34.108, "lon": -117.29, "n": 1, "art": 4, "url": "https://abc30.com/post/california-colleges-reveal-military-weapons-stockade-calmatters-investigation/19481103/"}, {"name": "Lithuania", "cc": "LH", "lat": 56.0, "lon": 24.0, "n": 1, "art": 5, "url": "https://www.eib.org/en/press/all/2026-246-eib-completes-eur290-million-financing-package-for-lithuania-s-military-base-in-rudninkai"}, {"name": "Tegucigalpa, Francisco Moraz\u00e1HO, Honduras", "cc": "HO", "lat": 14.1, "lon": -87.217, "n": 1, "art": 10, "url": "https://proceso.hn/toman-instalaciones-de-la-escuela-nacional-de-musica-por-despidos-de-personal/"}, {"name": "Guayaquil, Guayas, Ecuador", "cc": "EC", "lat": -2.167, "lon": -79.9, "n": 1, "art": 10, "url": "https://www.extra.ec/noticia/mundo/12-muertos-19-desaparecidos-incendio-letal-ultimas-decadas-espana-157966.html"}, {"name": "Lusaran, Cebu City, Philippines", "cc": "RP", "lat": 10.317, "lon": 123.917, "n": 1, "art": 10, "url": "https://www.manilatimes.net/2026/07/11/regions/cebu-city-seeks-national-govt-support-for-new-major-projects/2382467"}, {"name": "Sanaa, San\u0091a', Yemen", "cc": "YM", "lat": 15.355, "lon": 44.207, "n": 1, "art": 6, "url": "https://26sep.net/index.php/local/130944-2026-07-10-14-14-47"}, {"name": "Libya", "cc": "LY", "lat": 25.0, "lon": 17.0, "n": 2, "art": 12, "url": "https://www.eremnews.com/news/arab-world/uza7y7j"}, {"name": "Taiwan", "cc": "TW", "lat": 24.0, "lon": 121.0, "n": 1, "art": 10, "url": "https://www.taipeitimes.com/News/editorials/archives/2026/07/11/2003860554"}, {"name": "Guanajay, Provincia de Artemisa, Cuba", "cc": "CU", "lat": 22.926, "lon": -82.688, "n": 3, "art": 21, "url": "https://www.cubaheadlines.com/articles/334718"}, {"name": "Datia, Madhya Pradesh, India", "cc": "IN", "lat": 25.667, "lon": 78.467, "n": 2, "art": 2, "url": "https://www.prokerala.com/news/articles/a1786446.html"}, {"name": "Neckarsulm, Baden-W\u00fcberg, Germany", "cc": "GM", "lat": 49.193, "lon": 9.226, "n": 2, "art": 20, "url": "https://cleantechnica.com/2026/07/10/volkswagen-may-discontinue-up-to-half-its-current-models/"}, {"name": "Iringa, Iringa, Tanzania", "cc": "TZ", "lat": -7.767, "lon": 35.7, "n": 1, "art": 10, "url": "https://dailynews.co.tz/bmhs-royal-clinic-attracts-28000-patients-in-first-year/"}, {"name": "Brazil", "cc": "BR", "lat": -10.0, "lon": -55.0, "n": 1, "art": 10, "url": "https://www.topagrar.pl/articles/aktualnosci-branzowe-uprawa/kiedy-wygasaja-patenty-zaczyna-sie-walka-o-rynek-ochrona-upraw-wchodzi-w-nowa-faze-2684663"}, {"name": "Belgrade, Serbia (general),", "cc": "RB", "lat": 44.819, "lon": 20.468, "n": 6, "art": 50, "url": "https://glavcom.ua/world/world-politics/vuchich-oholosiv-pro-vidstavku-koli-zalishit-posadu-prezidenta-serbiji-1130577.html"}, {"name": "Vilnius, Vilniaus Apskritis, Lithuania", "cc": "LH", "lat": 54.683, "lon": 25.317, "n": 1, "art": 10, "url": "https://opinions.glavred.info/pochemu-vybory-v-rf-stanut-ispytaniem-dlya-kremlya-naki-nazval-problemu-putina-10779449.html"}, {"name": "Czech Republic", "cc": "EZ", "lat": 49.75, "lon": 15.0, "n": 1, "art": 10, "url": "https://brnensky.denik.cz/zpravy-region/brno-ceska-ulice-pesi-tepna-ozdobne-pitko-pryc-nevrati-se-jine-misto/"}, {"name": "Northern Ireland, Craigavon, United Kingdom", "cc": "UK", "lat": 54.5, "lon": -6.5, "n": 1, "art": 6, "url": "https://www.cnn.com/2026/07/10/uk/northern-ireland-mosque-bonfire-burn-intl"}, {"name": "Sardinia, Sardegna, Italy", "cc": "IT", "lat": 40.0, "lon": 9.0, "n": 1, "art": 10, "url": "https://cronacamilano.it/scienza-tecnologia/110788-einstein-telescope-et.html"}, {"name": "Elba, Vastmanlands Lan, Sweden", "cc": "SW", "lat": 59.583, "lon": 16.567, "n": 1, "art": 20, "url": "https://www.critica.com.mx/vernoticias.php?artid=117661&mas=1"}, {"name": "Tamra, Ha?afon, Israel", "cc": "IS", "lat": 32.853, "lon": 35.199, "n": 4, "art": 16, "url": "https://english.wafa.ps/Pages/Details/172536"}, {"name": "Serbia", "cc": "RI", "lat": 44.0, "lon": 21.0, "n": 4, "art": 17, "url": "https://profile.ru/news/abroad/vuchich-zayavil-chto-podast-v-otstavku-posle-naznacheniya-daty-parlamentskih-vyborov-1879795/"}, {"name": "Hanoi, Ha N?i, Vietnam, Republic Of", "cc": "VM", "lat": 21.033, "lon": 105.85, "n": 1, "art": 10, "url": "https://lecourrier.vn/mise-en-chantier-du-siege-du-hub-regional-asie-pacifique-de-lutte-contre-la-cybercriminalite/1351166.html"}, {"name": "Camarillo, California, United States", "cc": "US", "lat": 34.216, "lon": -119.038, "n": 5, "art": 10, "url": "https://www.foxla.com/news/camarillo-ice-raid-911-calls-glass-house-farms"}, {"name": "Carpinteria, California, United States", "cc": "US", "lat": 34.399, "lon": -119.518, "n": 2, "art": 8, "url": "https://www.foxla.com/news/camarillo-ice-raid-911-calls-glass-house-farms"}, {"name": "Mullaitivu, Northern, Sri Lanka", "cc": "CE", "lat": 9.268, "lon": 80.815, "n": 1, "art": 10, "url": "https://www.tamilguardian.com/content/sri-lanka-permanently-acquire-1661-acres-north-east-high-security-zone-says-deputy-defence"}, {"name": "Colorado, United States", "cc": "US", "lat": 39.065, "lon": -105.327, "n": 2, "art": 10, "url": "https://kgnu.org/victor-marx-wins-co-gop-governor-primary-ice-abducts-two-people-in-northglenn-heading-to-work-2020-election-colorado-voter-intimidation-lawsuit-revisited/"}, {"name": "Panama", "cc": "PM", "lat": 9.0, "lon": -80.0, "n": 3, "art": 20, "url": "https://www.prensa.com/opinion/Viernes-Negro_0_5346215399.html"}, {"name": "Sergipe, S\u00e3Paulo, Brazil", "cc": "BR", "lat": -21.133, "lon": -50.8, "n": 1, "art": 10, "url": "https://www.gazetadigital.com.br/colunas-e-opiniao/colunas-e-artigos/como-parametros-oficiais-fortalecem-a-governanca-nas-compras-publicas/852234"}, {"name": "Zagreb, Zagreb, Grad, Croatia", "cc": "HR", "lat": 45.8, "lon": 16.0, "n": 1, "art": 10, "url": "https://www.rtrs.tv/vijesti/vijest.php?id=652615"}, {"name": "Edo State, Edo, Nigeria", "cc": "NI", "lat": 6.5, "lon": 6.0, "n": 3, "art": 20, "url": "https://www.premiumtimesng.com/news/top-news/894356-adc-faction-withdraws-from-edo-local-elections-gives-reasons.html"}, {"name": "Norilsk, Krasnoyarskiy Kray, Russia", "cc": "RS", "lat": 69.353, "lon": 88.203, "n": 1, "art": 2, "url": "https://www.cnews.ru/news/top/2026-07-10_rossijskim_razrabotchikam"}, {"name": "Zotov, Rostovskaya Oblast', Russia", "cc": "RS", "lat": 49.242, "lon": 40.959, "n": 1, "art": 8, "url": "https://www.cnews.ru/news/top/2026-07-10_rossijskim_razrabotchikam"}, {"name": "Massachusetts, United States", "cc": "US", "lat": 42.237, "lon": -71.531, "n": 1, "art": 5, "url": "https://gazettenet.com/2026/07/10/columnist-bill-newman-and-death-shall-have-no-dominion/"}, {"name": "Oregon, United States", "cc": "US", "lat": 44.567, "lon": -122.127, "n": 3, "art": 20, "url": "https://katu.com/news/local/annual-seattle-to-portland-bike-ride-may-cause-traffic-delays-throughout-the-weekend-local-traffic-alert-oregon-washington"}, {"name": "New Delhi, Delhi, India", "cc": "IN", "lat": 28.6, "lon": 77.2, "n": 2, "art": 10, "url": "https://timesofindia.indiatimes.com/india/after-farooqs-protest-invite-mirwaiz-calls-for-art-370-inclusion-bjp-shreds-nc-over-2010-killings/articleshow/132318741.cms"}, {"name": "Mogadishu, Banaadir, Somalia", "cc": "SO", "lat": 2.067, "lon": 45.367, "n": 1, "art": 10, "url": "https://www.twincities.com/2026/07/09/arrest-in-minnesota-covid-fraud-case-faces-extradition-hurdles/"}, {"name": "Antalya, Antalya, Turkey", "cc": "TU", "lat": 36.908, "lon": 30.696, "n": 1, "art": 10, "url": "https://www.yenialanya.com/antalyada-hekimlerden-sezaryen-cezasi-protestosu"}, {"name": "Pescara, Abruzzo, Italy", "cc": "IT", "lat": 42.467, "lon": 14.217, "n": 1, "art": 10, "url": "https://www.abruzzoindependent.it/news/SAPPE-Chiudere-la-Casa-circondariale-di-Pescara/26147.htm"}, {"name": "Revolucion Mexicana, Sinaloa, Mexico", "cc": "MX", "lat": 26.317, "lon": -108.933, "n": 1, "art": 8, "url": "https://www.am.com.mx/leon-450/2026/07/03/hacienda-santa-rosa-refugiados-polacos-leon-1815091.html"}, {"name": "Taganrog, Rostovskaya Oblast', Russia", "cc": "RS", "lat": 47.236, "lon": 38.897, "n": 1, "art": 2, "url": "https://www.svoboda.org/a/reuters-posle-udarov-vsu-ostanovlen-azovo-donskoy-kanal/33801179.html"}, {"name": "Chilkat, Alaska, United States", "cc": "US", "lat": 59.4, "lon": -135.896, "n": 1, "art": 5, "url": "https://alaskapublic.org/news/alaska-desk/2026-07-10/4-alaska-communities-could-get-millions-in-fema-disaster-funding"}, {"name": "Batanes, Batanes, Philippines", "cc": "RP", "lat": 20.667, "lon": 121.917, "n": 1, "art": 8, "url": "https://www.manilatimes.net/2026/07/11/opinion/contributors/batanes-is-ours-facts-over-fiction-dialogue-over-alarm/2382410"}, {"name": "South China Sea, Brunei (general), Brunei", "cc": "BX", "lat": 15.0, "lon": 115.0, "n": 2, "art": 6, "url": "https://www.manilatimes.net/2026/07/11/opinion/columns/how-china-may-counter-the-weaponization-of-the-arbitral-ruling/2382428"}, {"name": "Kastelorizo, Perifereia Notiou Aigaiou, Greece", "cc": "GR", "lat": 36.149, "lon": 29.594, "n": 1, "art": 10, "url": "https://www.newsbomb.gr/ellada/story/1748847/marfin-pos-eginan-oi-syllipseis-16-xronia-meta-erevna-apo-to-miden-psifiaka-peistiria-kai-neo-yliko"}, {"name": "Oyelade, Nigeria (general), Nigeria", "cc": "NI", "lat": 8.1, "lon": 4.3, "n": 1, "art": 10, "url": "https://punchng.com/56-days-in-captivity-how-the-oyo-abduction-unfolded/"}, {"name": "Oyo State, Oyo, Nigeria", "cc": "NI", "lat": 8.0, "lon": 4.0, "n": 1, "art": 3, "url": "https://www.channelstv.com/2026/07/10/timeline-of-oriire-school-abduction-rescue/"}, {"name": "Mato Grosso, Estado do Rio, Brazil", "cc": "BR", "lat": -22.867, "lon": -42.6, "n": 1, "art": 2, "url": "https://www.midianews.com.br/cotidiano/empresa-de-mt-conquista-mercado-nacional-e-avanca-ao-mercosul/524896"}, {"name": "Queretaro, Quer\u00e9ro de Arteaga, Mexico", "cc": "MX", "lat": 20.6, "lon": -100.383, "n": 3, "art": 30, "url": "https://www.proceso.com.mx/nacional/estados/2026/7/10/frenan-a-presidente-municipal-de-queretaro-y-su-pretension-de-subastar-12-predios-municipales-375854.html"}, {"name": "Latvia", "cc": "LG", "lat": 57.0, "lon": 25.0, "n": 2, "art": 10, "url": "https://24-ore.com/shtetet-baltike-therrasin-te-derguarit-ruse-per-pretendime-te-rreme-per-deportim/"}, {"name": "Kostyantynivka, Donets'ka Oblast', Ukraine", "cc": "UP", "lat": 48.528, "lon": 37.707, "n": 1, "art": 6, "url": "https://novosti.dn.ua/kostyantynivka/62882-fpv-dron-dobyv-okupanta-pislya-aviaudaru-po-kostyantynivczi/"}, {"name": "Santa Clara, Villa Clara, Cuba", "cc": "CU", "lat": 22.167, "lon": -79.767, "n": 2, "art": 12, "url": "https://www.cubaheadlines.com/articles/334737"}, {"name": "Northumbria, Northumberland, United Kingdom", "cc": "UK", "lat": 55.0, "lon": -2.5, "n": 1, "art": 4, "url": "https://morningstaronline.co.uk/article/no-more-cover-orgreave-demands-answers"}, {"name": "Suhum, Ghana (general), Ghana", "cc": "GH", "lat": 6.533, "lon": -1.067, "n": 1, "art": 1, "url": "https://mfaapsny.org/en/allnews/news/visits/vstrecha-ministra-inostrannykh-del-respubliki-abkhaziya-olega-bartsits-s-delegatsiey-respubliki-gana/"}, {"name": "Missouri, United States", "cc": "US", "lat": 38.462, "lon": -92.302, "n": 1, "art": 10, "url": "https://www.columbiamissourian.com/missouri-realtors-rally-against-amendments-4-and-5/article_b9d77de9-318d-58bf-b596-8059bd546eca.html"}, {"name": "Guntur, Andhra Pradesh, India", "cc": "IN", "lat": 16.3, "lon": 80.45, "n": 5, "art": 17, "url": "https://news.webindia123.com/news/Articles/India/20260710/4473366.html"}, {"name": "Seattle, Washington, United States", "cc": "US", "lat": 47.606, "lon": -122.332, "n": 1, "art": 6, "url": "https://www.spokesman.com/stories/2026/jul/08/candidates-tout-their-experience-in-highly-watched/"}, {"name": "Thurston County, Washington, United States", "cc": "US", "lat": 46.916, "lon": -122.818, "n": 1, "art": 4, "url": "https://www.spokesman.com/stories/2026/jul/08/candidates-tout-their-experience-in-highly-watched/"}, {"name": "Argentina", "cc": "AR", "lat": -34.0, "lon": -64.0, "n": 2, "art": 14, "url": "https://aldianews.com/en/wellness/salud-fisica-y-mental/alzheimers-fingerprint"}, {"name": "Sitsang, Xizang, China", "cc": "CH", "lat": 32.0, "lon": 90.0, "n": 1, "art": 8, "url": "https://tibet.fr/actualites/lobga-rangzen-simmole-par-le-feu-pour-protester-contre-la-nouvelle-loi-coloniale-chinoise-au-tibet-sur-lunite-et-le-progres-ethniques/"}, {"name": "Gorodenka, Ivano-Frankivs'ka Oblast', Ukraine", "cc": "UP", "lat": 48.673, "lon": 25.502, "n": 1, "art": 10, "url": "https://pravda.if.ua/na-ivano-frankivshhynu-pryamuye-skorbotnyj-kortezh-z-tilom-poleglogo-voyina-sergiya-czyumpala/"}, {"name": "Korce, Qarku Korce, Albania", "cc": "AL", "lat": 40.619, "lon": 20.781, "n": 1, "art": 20, "url": "https://gazeta-shqip.com/aktualiteti/ambasadori-i-osbe-se-michel-tarran-nga-korca-e-drejta-per-proteste-duhet-te-respektohet-dialogu-politik-mbetet-sfide/"}, {"name": "Berkeley, California, United States", "cc": "US", "lat": 37.872, "lon": -122.273, "n": 2, "art": 7, "url": "https://dailycaller.com/2026/07/10/calmatters-investigation-uc-colleges-universities-military-equipment-stockpiles-ar-15s-stun-grenades/"}, {"name": "Tomball, Texas, United States", "cc": "US", "lat": 30.097, "lon": -95.616, "n": 1, "art": 6, "url": "https://www.houstonpress.com/news/houston-officials-question-feds-account-of-ice-shooting/"}, {"name": "Manaus, Amazonas, Brazil", "cc": "BR", "lat": -3.113, "lon": -60.025, "n": 1, "art": 10, "url": "https://emtempo.com.br/478757/opiniao/impressao-3d-transforma-estudantes-em-jovens-empreendedores-em-manaus/"}, {"name": "Ostroh, Rivnens'ka Oblast', Ukraine", "cc": "UP", "lat": 50.329, "lon": 26.514, "n": 3, "art": 10, "url": "https://news.obozrevatel.com/ukr/kiyany/u-kievi-nevidomi-pobili-aktivista-yakij-namagavsya-zahistiti-vid-znesennya-istorichnu-budivlyu-uchilischa-zvyazku-usi-podrobitsi-foto.htm"}, {"name": "Armenia", "cc": "AM", "lat": 40.0, "lon": 45.0, "n": 1, "art": 7, "url": "https://armenianweekly.com/2026/07/10/neither-empowered-nor-erased-armenian-cypriots-and-the-politics-of-recognition/"}, {"name": "Famagusta, Famagusta, Cyprus", "cc": "CY", "lat": 35.125, "lon": 33.95, "n": 1, "art": 1, "url": "https://armenianweekly.com/2026/07/10/neither-empowered-nor-erased-armenian-cypriots-and-the-politics-of-recognition/"}, {"name": "Galway City, Galway City, Ireland", "cc": "EI", "lat": 53.288, "lon": -9.05, "n": 1, "art": 10, "url": "https://www.rte.ie/news/regional/2026/0710/1582809-shantalla-protest-galway/"}, {"name": "Megali, Perifereia Notiou Aigaiou, Greece", "cc": "GR", "lat": 37.403, "lon": 25.228, "n": 1, "art": 1, "url": "https://armenianweekly.com/2026/07/10/neither-empowered-nor-erased-armenian-cypriots-and-the-politics-of-recognition/"}, {"name": "Wrzesnia, L\u00f3ie, Poland", "cc": "PL", "lat": 51.126, "lon": 19.321, "n": 1, "art": 10, "url": "https://www.antena3.ro/mediu/volkswagen-a-inlocuit-masinile-de-tuns-iarba-cu-100-de-oi-la-fabrica-din-polonia-acestea-fac-minuni-795061.html"}, {"name": "Coronel Suarez, Buenos Aires, Argentina", "cc": "AR", "lat": -37.455, "lon": -61.933, "n": 1, "art": 10, "url": "https://www.nuevodiarioweb.com.ar/el-pais/info-santiago-estero-cierra-la-ultima-fabrica-que-producia-zapatillas-nike-en-la-argentina.htm"}, {"name": "Delaware, United States", "cc": "US", "lat": 39.35, "lon": -75.515, "n": 3, "art": 7, "url": "https://www.coastalpoint.com/news/education/three-irsd-schools-win-national-stem-awards/article_beb9b74b-ae0d-4675-85af-d6a35a4dfe1e.html"}, {"name": "South Platte River, Colorado, United States", "cc": "US", "lat": 39.292, "lon": -105.209, "n": 1, "art": 6, "url": "https://rock1015.com/2026/07/10/nebraska-ag-makes-stop-in-grand-island-talks-recent-work-for-state/"}, {"name": "Grand Island, Nebraska, United States", "cc": "US", "lat": 40.925, "lon": -98.342, "n": 1, "art": 2, "url": "https://rock1015.com/2026/07/10/nebraska-ag-makes-stop-in-grand-island-talks-recent-work-for-state/"}, {"name": "Turnberry, South Ayrshire, United Kingdom", "cc": "UK", "lat": 55.333, "lon": -4.85, "n": 1, "art": 10, "url": "https://www.investimentosenoticias.com.br/noticias/politica/parlamento-europeu-interrompe-negociacoes-comerciais-com-eua-apos-comentarios-de-trump-sobre-groenlandia/"}, {"name": "Iowa, United States", "cc": "US", "lat": 42.005, "lon": -93.214, "n": 2, "art": 10, "url": "https://www.kmaland.com/ag/agri_news/usda-accepts-186-247-acres-in-iowa-through-2026-conservation-reserve-program-enrollment/article_8e595991-b02c-55a9-b2d5-3385a4d378f4.html"}, {"name": "Volyn, Ukraine (general), Ukraine", "cc": "UP", "lat": 51.0, "lon": 26.0, "n": 1, "art": 10, "url": "https://ria.ru/20260711/polsha-2104168416.html"}, {"name": "Bolivar, Valle del Cauca, Colombia", "cc": "CO", "lat": 4.339, "lon": -76.183, "n": 1, "art": 2, "url": "https://www.publimetro.co/noticias/2026/07/10/gustavo-bolivar-reacciono-a-fallo-por-muerte-de-dilan-cruz-con-pulla-a-la-policia-de-duque/"}, {"name": "Ruwais, Abu Z\u00b8aby, United Arab Emirates", "cc": "AE", "lat": 24.11, "lon": 52.731, "n": 1, "art": 10, "url": "https://www.slashgear.com/2211755/satellite-can-look-through-buildings-launched/"}, {"name": "Boca Del Rio, Veracruz-Llave, Mexico", "cc": "MX", "lat": 19.1, "lon": -96.1, "n": 1, "art": 4, "url": "https://www.eldiariodechihuahua.mx/nacional/2026/jul/10/logra-justicia-familia-de-monse-hallan-culpable-a-marlon-816362.html"}, {"name": "Maine, United States", "cc": "US", "lat": 44.607, "lon": -69.398, "n": 1, "art": 6, "url": "https://www.rstreet.org/commentary/the-maine-crisis-separating-selection-from-election/"}, {"name": "Sao Paulo, S\u00e3Paulo, Brazil", "cc": "BR", "lat": -23.533, "lon": -46.617, "n": 1, "art": 10, "url": "https://www.brasil247.com/geral/o-plano-para-derrotar-lula/"}, {"name": "Lagos State, Lagos, Nigeria", "cc": "NI", "lat": 6.583, "lon": 3.75, "n": 1, "art": 5, "url": "https://www.vanguardngr.com/2026/07/oyo-abduction-abiodun-obasa-hail-tinubu-makinde-security-agencies-over-rescue-of-pupils-teachers/"}, {"name": "Burhan, Punjab, Pakistan", "cc": "PK", "lat": 33.813, "lon": 72.587, "n": 1, "art": 2, "url": "https://slguardian.org/the-man-india-couldnt-silence/"}, {"name": "North Charleston, South Carolina, United States", "cc": "US", "lat": 32.855, "lon": -79.975, "n": 1, "art": 2, "url": "https://www.postandcourier.com/charleston_sc/abandoned-shopping-carts-ordinance-north-charleston/article_19967d5a-d4c0-43a2-8aaf-080a6decab8e.html"}, {"name": "South Carolina, United States", "cc": "US", "lat": 33.819, "lon": -80.907, "n": 1, "art": 4, "url": "https://www.postandcourier.com/charleston_sc/abandoned-shopping-carts-ordinance-north-charleston/article_19967d5a-d4c0-43a2-8aaf-080a6decab8e.html"}, {"name": "Kuwait", "cc": "KU", "lat": 29.5, "lon": 47.75, "n": 1, "art": 10, "url": "https://www.jugantor.com/tp-lastpage/1125230"}, {"name": "Jose Marti, Santiago de Cuba, Cuba", "cc": "CU", "lat": 20.317, "lon": -76.183, "n": 2, "art": 12, "url": "https://www.infobae.com/america/america-latina/2026/07/10/el-movimiento-de-militares-objetores-exige-a-los-mandos-cubanos-que-rompan-con-la-familia-castro/"}, {"name": "Tatahuicapan, Veracruz-Llave, Mexico", "cc": "MX", "lat": 17.55, "lon": -95.65, "n": 1, "art": 10, "url": "https://www.omnia.com.mx/noticia/434151/pescadores-de-veracruz-se-amparan-contra-pemex-para-exigir-reparacion-integral-p"}, {"name": "El-Bayadh, El Bayadh, Algeria", "cc": "AG", "lat": 33.683, "lon": 1.019, "n": 4, "art": 7, "url": "https://www.arabnews.com/node/2650473/world"}, {"name": "Belize", "cc": "BH", "lat": 17.25, "lon": -88.75, "n": 1, "art": 10, "url": "https://www.greaterbelize.com/bring-back-the-millions-protest-targets-briceno-government/"}, {"name": "Kaliningrad, Kaliningradskaya Oblast', Russia", "cc": "RS", "lat": 54.706, "lon": 20.511, "n": 2, "art": 5, "url": "https://foreignpolicy.com/2026/07/10/evacuating-art-from-ukraines-front-lines/"}, {"name": "Odesa, Odes'ka Oblast, Ukraine", "cc": "UP", "lat": 46.464, "lon": 30.739, "n": 1, "art": 2, "url": "https://foreignpolicy.com/2026/07/10/evacuating-art-from-ukraines-front-lines/"}]