[{"name": "Washington, District of Columbia, United States", "cc": "US", "lat": 38.895, "lon": -77.036, "n": 24, "art": 112, "url": "https://eldiariony.com/2026/07/21/administracion-trump-pide-inmunidad-judicial-para-delcy-rodriguez-en-demanda-en-florida/"}, {"name": "New York, United States", "cc": "US", "lat": 42.15, "lon": -74.938, "n": 14, "art": 77, "url": "https://www.artnews.com/art-news/news/richard-pousette-dart-foundation-donation-director-search-1234792920/"}, {"name": "Canada", "cc": "CA", "lat": 60.0, "lon": -96.0, "n": 5, "art": 30, "url": "https://westseattleblog.com/event/scottish-country-dancing-classes-in-west-seattle/?instance_id=746425"}, {"name": "Nanyuki, Rift Valley, Kenya", "cc": "KE", "lat": 0.017, "lon": 37.073, "n": 2, "art": 3, "url": "https://www.the-messenger.com/news/world/article_bc72725b-9883-5e87-ac8d-f7987d74238c.html"}, {"name": "Merseyside, United Kingdom (general), United Kingdom", "cc": "UK", "lat": 53.4, "lon": -3.083, "n": 4, "art": 72, "url": "https://jowhar.com/who-andy-burnham-has-chosen-to-serve-in-his-cabinet-team/"}, {"name": "California, United States", "cc": "US", "lat": 36.17, "lon": -119.746, "n": 8, "art": 57, "url": "https://www.eluniversal.com.mx/estados/congreso-de-sinaloa-toma-protesta-a-mirna-luz-lora-ocupara-la-curul-de-maria-teresa-guerra/"}, {"name": "Gaza, Israel (general), Israel", "cc": "IS", "lat": 31.417, "lon": 34.333, "n": 43, "art": 149, "url": "https://neviditelnypes.lidovky.cz/doupe/samanovo-doupe-zlatej-pavel-zlatej-macinka.A260721_204339_p_doupe_nef"}, {"name": "Red Sea, Djibouti (general), Djibouti", "cc": "DJ", "lat": 19.0, "lon": 39.5, "n": 3, "art": 18, "url": "https://www.bankingnews.gr/diethni/articles/889435/houthi-blockade-on-saudi-arabia-dragging-a-major-nuclear-power-into-war-new-front-in-the-middle-east%20title="}, {"name": "Nadda, Uttaranchal, India", "cc": "IN", "lat": 29.867, "lon": 78.582, "n": 42, "art": 220, "url": "https://aninews.in/news/national/general-news/no-deal-signed-yet-punjab-bjp-chief-kewal-dhillon-urges-farmers-to-remain-calm20260721215147/"}, {"name": "Osun, Nigeria (general), Nigeria", "cc": "NI", "lat": 7.533, "lon": 4.05, "n": 1, "art": 2, "url": "https://tribuneonlineng.com/osun-2026-adelekes-campaign-council-raises-alarm-over-alleged-bvas-preloading/"}, {"name": "Biddeford, Maine, United States", "cc": "US", "lat": 43.493, "lon": -70.453, "n": 3, "art": 27, "url": "https://www.nhpr.org/national/2026-07-21/biddeford-long-a-city-of-immigrants-grapples-with-shock-and-grief-after-ice-shooting"}, {"name": "Maine, United States", "cc": "US", "lat": 44.607, "lon": -69.398, "n": 4, "art": 20, "url": "https://www.pleasantonweekly.com/regional-politics/2026/07/21/anti-ice-rally-set-in-downtown-pleasanton-before-council-meeting/"}, {"name": "Kyiv, Kyyiv, Misto, Ukraine", "cc": "UP", "lat": 50.433, "lon": 30.517, "n": 39, "art": 157, "url": "https://nypost.com/2026/07/21/world-news/zelensky-fires-ukraine-military-chief-and-names-replacement-after-mass-protests/"}, {"name": "Russia", "cc": "RS", "lat": 60.0, "lon": 100.0, "n": 33, "art": 196, "url": "https://www.tu.no/nyhetsstudio/zelenskyj-bytter-ut-forsvarssjefen/125918"}, {"name": "Delhi, Delhi, India", "cc": "IN", "lat": 28.667, "lon": 77.217, "n": 261, "art": 1168, "url": "https://foreignpolicy.com/2026/07/21/india-cockroach-protests-wangchuk-hunger-strike-fast/"}, {"name": "Jammu, Jammu and Kashmir, India", "cc": "IN", "lat": 32.733, "lon": 74.867, "n": 11, "art": 40, "url": "https://kashmirreader.com/2026/07/22/er-rashid-begins-barefoot-march-from-tihar-to-parl/"}, {"name": "Bhawan, Uttar Pradesh, India", "cc": "IN", "lat": 27.615, "lon": 79.643, "n": 2, "art": 18, "url": "https://www.moneycontrol.com/news/india/tear-gas-ke-gole-bhi-protester-claims-police-fired-expired-tear-gas-shell-during-cockroach-janta-party-s-chalo-sansad-march-13978992.html"}, {"name": "Israel", "cc": "IS", "lat": 31.5, "lon": 34.75, "n": 13, "art": 84, "url": "https://www.artnews.com/art-news/news/eu-suspends-venice-biennale-grant-russia-inclusion-1234792986/"}, {"name": "Bohemian Grove, California, United States", "cc": "US", "lat": 38.465, "lon": -122.978, "n": 5, "art": 24, "url": "https://www.mercurynews.com/2026/07/20/bohemian-grove-merely-a-playground-for-male-elite-or-shrouded-retreat-with-global-reach/"}, {"name": "Bogota, Cundinamarca, Colombia", "cc": "CO", "lat": 4.6, "lon": -74.083, "n": 2, "art": 20, "url": "https://www.semana.com/politica/articulo/ministro-sanguino-califica-de-ilegal-el-bloqueo-a-la-unp-y-advierte-que-pone-en-riesgo-la-seguridad-de-congresistas-y-lideres-sociales/202606/"}, {"name": "As Iran, Az\u00afarbayjan-e Sharqi, Iran", "cc": "IR", "lat": 39.025, "lon": 47.07, "n": 2, "art": 20, "url": "https://www.afrique-asie.fr/sous-la-pression-israelienne-les-etats-unis-saisissent-les-appareils-de-max-blumenthal-a-son-retour-dun-reportage-a-teheran/"}, {"name": "Havana, Ciudad de La Habana, Cuba", "cc": "CU", "lat": 23.132, "lon": -82.364, "n": 1, "art": 10, "url": "http://www.cubadebate.cu/especiales/2026/07/20/informe-de-marco-rubio-contra-cuba-o-como-fabricar-la-amenaza-macartista/"}, {"name": "China", "cc": "CH", "lat": 35.0, "lon": 105.0, "n": 11, "art": 55, "url": "https://techmaniacs.gr/aliexpress-prostimo-550-ekatommyria-ee/"}, {"name": "New Delhi, Delhi, India", "cc": "IN", "lat": 28.6, "lon": 77.2, "n": 107, "art": 452, "url": "http://www.calcuttanews.net/news/279201967/152-paper-leaks-from-2014-resign-first-congress-mp-manickam-tagore-slams-dharmendra-pradhan"}, {"name": "Janta, Mohafazat Baalbek-Hermel, Lebanon", "cc": "LE", "lat": 33.858, "lon": 36.108, "n": 1, "art": 1, "url": "https://foreignpolicy.com/2026/07/20/houthi-blockade-saudi-iran-war-red-sea-gulf-aden-hormuz/?tpcc=recirc_trending062921"}, {"name": "Sanaa, San\u0091a', Yemen", "cc": "YM", "lat": 15.355, "lon": 44.207, "n": 5, "art": 19, "url": "https://www.globalsecurity.org/military/library/news/2026/07/mil-260720-irna01.htm"}, {"name": "Los Angeles, California, United States", "cc": "US", "lat": 34.052, "lon": -118.244, "n": 2, "art": 4, "url": "https://www.nuggetnews.com/story/2026/07/22/news/fire-suppression-system-demonstrated/39319.html"}, {"name": "Los Angeles Convention Center, California, United States", "cc": "US", "lat": 34.043, "lon": -118.27, "n": 1, "art": 8, "url": "https://mynewsla.com/business/2026/07/20/la-lines-up-13-major-conferences-for-modernized-convention-center/"}, {"name": "Espriella, Nari\u00f1O, Colombia", "cc": "CO", "lat": 1.433, "lon": -77.417, "n": 5, "art": 32, "url": "https://www.semana.com/politica/articulo/ministro-sanguino-califica-de-ilegal-el-bloqueo-a-la-unp-y-advierte-que-pone-en-riesgo-la-seguridad-de-congresistas-y-lideres-sociales/202606/"}, {"name": "Santo Domingo Chihuitan, Oaxaca, Mexico", "cc": "MX", "lat": 16.583, "lon": -95.167, "n": 3, "art": 10, "url": "https://imparcialoaxaca.mx/arte-y-cultura/la-guelaguetza-se-trata-de-dar-y-recibir-diosa-centeotl-inaugura-los-lunes-del-cerro/"}, {"name": "Shiv, Rajasthan, India", "cc": "IN", "lat": 26.183, "lon": 71.25, "n": 13, "art": 72, "url": "https://www.tribuneindia.com/news/india/parallel-protests-over-neet-leak-expose-fault-lines-in-india-bloc/"}, {"name": "New Mexico, United States", "cc": "US", "lat": 34.837, "lon": -106.237, "n": 2, "art": 12, "url": "https://tech.yahoo.com/science/articles/artemis-iii-astronauts-beam-4k-170000836.html"}, {"name": "Socorro County, New Mexico, United States", "cc": "US", "lat": 34.033, "lon": -106.884, "n": 1, "art": 8, "url": "https://www.dchieftain.com/news/spaceport-america-data-center-proposal-sparks-curiosity/3086213"}, {"name": "Samara, Samarskaya Oblast', Russia", "cc": "RS", "lat": 53.2, "lon": 50.15, "n": 1, "art": 10, "url": "https://kazpravda.kz/n/kilometry-bolshih-peremen/"}, {"name": "Nouakchott, Trarza, Mauritania", "cc": "MR", "lat": 18.119, "lon": -16.041, "n": 1, "art": 10, "url": "https://saharamedias.net/261002/"}, {"name": "Tehran, Tehran, Iran", "cc": "IR", "lat": 35.75, "lon": 51.515, "n": 22, "art": 108, "url": "http://www.em.com.br/internacional/2026/07/7465484-ultimos-acontecimentos-na-guerra-no-oriente-medio.html"}, {"name": "London, London, City of, United Kingdom", "cc": "UK", "lat": 51.5, "lon": -0.117, "n": 14, "art": 70, "url": "https://lfpress.com/news/local-news/scammer-redirects-100k-business-payment-opp"}, {"name": "Texas, United States", "cc": "US", "lat": 31.106, "lon": -97.647, "n": 2, "art": 11, "url": "https://www.houstonpublicmedia.org/articles/news/politics/immigration/2026/07/21/557669/ice-shooting-houston-witnesses-habeas-petition-deportation-texas/"}, {"name": "India", "cc": "IN", "lat": 20.0, "lon": 77.0, "n": 25, "art": 209, "url": "https://nos.nl/artikel/2623922-weer-protest-van-kakkerlakbeweging-india-oppositieleider-aangehouden"}, {"name": "Kashmir, Jammu and Kashmir, India", "cc": "IN", "lat": 33.917, "lon": 76.667, "n": 10, "art": 30, "url": "https://www.dailyexcelsior.com/omar-says-statehood-key-to-restoring-jks-special-status-hits-out-at-rivals-over-delhi-protest/"}, {"name": "Kfar Yona, HaMerkaz, Israel", "cc": "IS", "lat": 32.317, "lon": 34.935, "n": 1, "art": 10, "url": "http://www.jpost.com/israel-news/article-903120"}, {"name": "Ukraine", "cc": "UP", "lat": 49.0, "lon": 32.0, "n": 27, "art": 196, "url": "https://www.lanacion.com.ar/el-mundo/zelensky-echo-al-jefe-del-ejercito-despues-de-respaldarlo-en-una-crisis-que-sacudio-al-gobierno-y-nid21072026/"}, {"name": "Yerevan, Yerevan*, Armenia", "cc": "AM", "lat": 40.181, "lon": 44.514, "n": 5, "art": 30, "url": "https://www.panarmenian.net/eng/news/335254/"}, {"name": "Ghatkopar, Maharashtra, India", "cc": "IN", "lat": 19.083, "lon": 72.9, "n": 2, "art": 10, "url": "https://navbharattimes.indiatimes.com/metro/mumbai/politics/maharashtra-bjp-mla-ram-kadam-attacks-uddhav-thackeray-over-cji-protest-and-sonam-wangchuk-support/articleshow/132526149.cms"}, {"name": "Greater Manchester, United Kingdom (general), United Kingdom", "cc": "UK", "lat": 53.45, "lon": -2.233, "n": 6, "art": 17, "url": "https://www.lbc.co.uk/article/andy-burnham-cabinet-chancellor-5Hjddwc_2/"}, {"name": "Wilbur Cross High School, Connecticut, United States", "cc": "US", "lat": 41.325, "lon": -72.908, "n": 3, "art": 10, "url": "https://www.nbcconnecticut.com/news/local/capped-new-haven-landfill-now-generating-clean-energy-and-lease-revenue/3756759/"}, {"name": "Akoni, Nigeria (general), Nigeria", "cc": "NI", "lat": 7.283, "lon": 2.95, "n": 1, "art": 5, "url": "https://www.thisdaylive.com/2026/07/21/babalakin-cos-art-initiative-shaping-nigerias-next-generation-of-artists/"}, {"name": "Nigeria", "cc": "NI", "lat": 10.0, "lon": 8.0, "n": 4, "art": 28, "url": "https://allafrica.com/stories/202607210760.html"}, {"name": "Pretoria, Gauteng, South Africa", "cc": "SF", "lat": -25.707, "lon": 28.229, "n": 3, "art": 5, "url": "https://thesun.ng/shettima-urges-ecowas-to-confront-xenophobic-attacks-in-safrica/"}, {"name": "Bhopal, Madhya Pradesh, India", "cc": "IN", "lat": 23.267, "lon": 77.4, "n": 5, "art": 24, "url": "https://www.freepressjournal.in/bhopal/congress-protests-rahul-gandhis-arrest-mlas-stage-sit-in-on-assembly-premises"}, {"name": "United Kingdom", "cc": "UK", "lat": 54.0, "lon": -4.0, "n": 11, "art": 65, "url": "https://elpais.com/internacional/2026-07-21/burnham-anuncia-como-primera-medida-la-supresion-del-iva-en-la-factura-electrica.html"}, {"name": "Ranka, Jharkhand, India", "cc": "IN", "lat": 23.983, "lon": 83.783, "n": 1, "art": 10, "url": "https://www.dainiktribuneonline.com/news/nation/protesters-lathi-charged-stage-removed-from-jantar-mantar/"}, {"name": "Virginia, United States", "cc": "US", "lat": 37.768, "lon": -78.206, "n": 1, "art": 4, "url": "https://www.dailypress.com/2026/07/20/trump-gutted-civil-rights-agency-stifling-u-s-scrutiny-of-workplace-bias/"}, {"name": "Anantnag, Jammu and Kashmir, India", "cc": "IN", "lat": 33.733, "lon": 75.15, "n": 1, "art": 1, "url": "https://www.dailyexcelsior.com/nc-protests-for-statehood-across-jk/"}, {"name": "Baramulla, Jammu and Kashmir, India", "cc": "IN", "lat": 34.567, "lon": 74.75, "n": 1, "art": 7, "url": "https://www.dailyexcelsior.com/nc-protests-for-statehood-across-jk/"}, {"name": "Australia", "cc": "AS", "lat": -25.0, "lon": 135.0, "n": 5, "art": 32, "url": "https://www.miragenews.com/fedex-workers-begin-strike-steps-over-delivery-1714000/"}, {"name": "Kharkiv, Kharkivs'ka Oblast', Ukraine", "cc": "UP", "lat": 49.981, "lon": 36.253, "n": 10, "art": 47, "url": "https://www.aljazeera.com/news/2026/7/21/zelenskyy-replaces-ukraine-military-chief-after-protests"}, {"name": "Bakhmut, Nizhegorodskaya Oblast', Russia", "cc": "RS", "lat": 56.043, "lon": 44.752, "n": 3, "art": 14, "url": "https://www.irishtimes.com/world/europe/2026/07/21/zelenskiy-dismisses-top-army-general-amid-growing-public-protests/"}, {"name": "Moscow, Moskva, Russia", "cc": "RS", "lat": 55.752, "lon": 37.616, "n": 32, "art": 170, "url": "https://www.aljazeera.com/news/2026/7/21/zelenskyy-replaces-ukraine-military-chief-after-protests"}, {"name": "Puebla, Puebla, Mexico", "cc": "MX", "lat": 19.05, "lon": -98.2, "n": 1, "art": 10, "url": "https://sintesis.mx/2026/07/20/llama-xitlalic-ceja-a-defender-la-democracia-e-impulsar-a-las-juventudes-desde-el-pri-puebla/"}, {"name": "Odessa, Odes'ka Oblast, Ukraine", "cc": "UP", "lat": 46.464, "lon": 30.739, "n": 4, "art": 30, "url": "https://actualidad.rt.com/actualidad/618184-zelenski-nombra-nuevo-comandante-jefe"}, {"name": "Neuilly, France (general), France", "cc": "FR", "lat": 48.854, "lon": 2.549, "n": 1, "art": 10, "url": "https://www.voici.fr/celebrites/ca-me-fend-le-coeur-diane-leyre-publie-un-message-emouvant-au-sujet-de-son-ecole-maternelle-826562"}, {"name": "Caracas, Distrito Federal, Venezuela", "cc": "VE", "lat": 10.5, "lon": -66.917, "n": 1, "art": 8, "url": "https://elpais.com/america-colombia/2026-07-21/abelardo-de-la-espriella-designa-al-empresario-jorge-jaller-como-embajador-de-colombia-en-venezuela.html"}, {"name": "Connecticut, United States", "cc": "US", "lat": 41.583, "lon": -72.762, "n": 1, "art": 5, "url": "https://rollcall.com/2026/07/20/surge-in-veterans-brain-injuries-shown-in-va-records/"}, {"name": "Burlington, Massachusetts, United States", "cc": "US", "lat": 42.505, "lon": -71.196, "n": 1, "art": 6, "url": "https://www.wbur.org/news/2026/07/20/maria-rosales-ice-burlington-immigration-detention-boston"}, {"name": "Adams County, Colorado, United States", "cc": "US", "lat": 39.867, "lon": -104.384, "n": 1, "art": 2, "url": "https://www.denverpost.com/2026/07/20/protest-ice-facility-citations-obstruction/"}, {"name": "France", "cc": "FR", "lat": 46.0, "lon": 2.0, "n": 5, "art": 50, "url": "https://vz.ru/news/2026/7/21/1436640.html"}, {"name": "Morocco", "cc": "MO", "lat": 32.0, "lon": -5.0, "n": 11, "art": 89, "url": "https://dominicanrepublicpost.com/italys-meloni-slams-protesters-following-clashes-in-bologna/"}, {"name": "Sweden", "cc": "SW", "lat": 62.0, "lon": 15.0, "n": 16, "art": 116, "url": "https://www.vanguardia.com/economia/2026/07/21/crece-la-preocupacion-por-socavacion-en-la-via-bucaramanga-san-gil/"}, {"name": "Mumbai, Maharashtra, India", "cc": "IN", "lat": 18.975, "lon": 72.826, "n": 26, "art": 92, "url": "https://www.hindustantimes.com/world-news/us-news/from-michigan-to-mumbai-communities-are-asking-how-much-water-do-data-centres-use-101784206131351.html"}, {"name": "San Francisco, California, United States", "cc": "US", "lat": 37.775, "lon": -122.419, "n": 1, "art": 2, "url": "https://www.trucknews.com/features/bridgestone-introduces-two-new-tires-2/"}, {"name": "South Africa", "cc": "SF", "lat": -30.0, "lon": 26.0, "n": 2, "art": 15, "url": "https://www.businessday.co.za/news/2026-07-21-schreiber-expands-highly-successful-trusted-employer-scheme-to-cut-visa-red-tape/"}, {"name": "Spain", "cc": "SP", "lat": 40.0, "lon": -4.0, "n": 10, "art": 76, "url": "https://www.publico.es/internacional/familia-saharaui-huelga-hambre-carcel-marroqui-lleva-ocho-dias-saber-sobre-salud.html"}, {"name": "Thonon-Les-Bains, Rh\u00f4Alpes, France", "cc": "FR", "lat": 46.373, "lon": 6.487, "n": 1, "art": 8, "url": "https://www.rds.ca/cyclisme/article/un-chrono-exigeant-pour-relancer-les-machines/"}, {"name": "Canberra, Australian Capital Territory, Australia", "cc": "AS", "lat": -35.283, "lon": 149.217, "n": 2, "art": 20, "url": "https://www.smh.com.au/politics/federal/israel-accused-of-extraordinary-intervention-in-labor-politics-20260721-p60h7c.html"}, {"name": "Green Acres, Iowa, United States", "cc": "US", "lat": 41.57, "lon": -90.61, "n": 3, "art": 12, "url": "https://www.mississippivalleypublishing.com/daily_gate/daily_gate/community-support-grows-momentum-for-green-acres-project/article_950b7417-33fc-4603-b3c7-70eae8948c6e.html"}, {"name": "Iran", "cc": "IR", "lat": 32.0, "lon": 53.0, "n": 12, "art": 80, "url": "https://www.joplinglobe.com/region/ap-news-summary-at-5-54-p-m-edt/article_7ffef164-e732-57ea-8962-00974180864e.html"}, {"name": "Manhattan, New York, United States", "cc": "US", "lat": 40.783, "lon": -73.966, "n": 4, "art": 22, "url": "https://commercialobserver.com/2026/07/mt-refis-300-east-50th-street-manhattan/"}, {"name": "Gulf Of Oman, Iran (general), Iran", "cc": "IR", "lat": 25.449, "lon": 57.794, "n": 3, "art": 6, "url": "https://home.nzcity.co.nz/news/article.aspx?id=450366"}, {"name": "Peru", "cc": "PE", "lat": -10.0, "lon": -76.0, "n": 1, "art": 10, "url": "https://www.cronicaviva.com.pe/lopez-chau-keiko-debe-reunirse-primero-con-los-familiares-de-victimas-de-las-protestas/"}, {"name": "Pilastro, Emilia-Romagna, Italy", "cc": "IT", "lat": 44.339, "lon": 12.093, "n": 6, "art": 35, "url": "https://tribuneonlineng.com/protests-erupt-in-italy-after-man-dies-while-being-restrained-by-police/"}, {"name": "Perth, Western Australia, Australia", "cc": "AS", "lat": -31.933, "lon": 115.833, "n": 1, "art": 10, "url": "https://www.abc.net.au/news/2026-07-21/pauline-hanson-addresses-white-australia-policy-perth-event/106936050"}, {"name": "Manchester, Manchester, United Kingdom", "cc": "UK", "lat": 53.5, "lon": -2.217, "n": 2, "art": 10, "url": "https://yalibnan.com/2026/07/21/uks-new-prime-minister-andy-burnham-vows-to-end-years-of-instability/"}, {"name": "Rome, Lazio, Italy", "cc": "IT", "lat": 41.9, "lon": 12.483, "n": 4, "art": 32, "url": "https://thecatholicherald.com/article/illinois-bishop-sspx-basically-protestant-sect"}, {"name": "Fayetteville, North Carolina, United States", "cc": "US", "lat": 35.053, "lon": -78.878, "n": 1, "art": 10, "url": "https://www.billboard.com/music/rb-hip-hop/j-cole-bra-ontage-fall-off-tour-miami-1236298625/"}, {"name": "Nayarit, Sonora, Mexico", "cc": "MX", "lat": 31.667, "lon": -113.3, "n": 1, "art": 10, "url": "https://www.zocalo.com.mx/gobierno-federal-cancela-megaproyecto-inmobiliario-en-playa-las-cocinas-tras-protestas-en-nayarit/"}, {"name": "Rajghat, Uttar Pradesh, India", "cc": "IN", "lat": 24.837, "lon": 78.433, "n": 5, "art": 10, "url": "https://www.ibtimes.co.in/traffic-police-issue-advisory-ahead-kisan-ghat-protest-diversions-likely-key-routes-farmers-904045"}, {"name": "Suez Canal, As Suways, Egypt", "cc": "EG", "lat": 29.931, "lon": 32.563, "n": 1, "art": 10, "url": "https://www.the-messenger.com/news/world/article_8472fc3f-5ad6-59bc-8ae0-8418183260d3.html"}, {"name": "Bandar Abbas, Hormozgan, Iran", "cc": "IR", "lat": 27.186, "lon": 56.281, "n": 2, "art": 10, "url": "https://www.greanvillepost.com/us-troop-casualties-pile-up-as-iran-goes-to-town-on-us-bases/"}, {"name": "Cyprus", "cc": "CY", "lat": 35.0, "lon": 33.0, "n": 4, "art": 30, "url": "https://cyprus-mail.com/2026/07/21/elam-banner-remains-outside-ledra-palace-crossing"}, {"name": "Nicaragua", "cc": "NU", "lat": 13.0, "lon": -85.0, "n": 4, "art": 26, "url": "https://dailycaller.com/2026/07/21/nicaragua-president-daniel-ortega-election-dictator/"}, {"name": "Ciudad Juarez, M\u00e9co, Mexico", "cc": "MX", "lat": 31.733, "lon": -106.483, "n": 1, "art": 4, "url": "https://www.calibre800.com/2026/07/20/alista-pri-capacitacion-a-defensores-territoriales/"}, {"name": "Branxton, New South Wales, Australia", "cc": "AS", "lat": -32.656, "lon": 151.351, "n": 2, "art": 10, "url": "https://www.dungogchronicle.com.au/story/9313608/hunter-valley-operations-largest-coal-mine-faces-climate-fight/"}, {"name": "Narrabri, New South Wales, Australia", "cc": "AS", "lat": -30.326, "lon": 149.784, "n": 3, "art": 10, "url": "https://www.dungogchronicle.com.au/story/9313608/hunter-valley-operations-largest-coal-mine-faces-climate-fight/"}, {"name": "Haryana, Haryana, India", "cc": "IN", "lat": 29.616, "lon": 76.981, "n": 29, "art": 95, "url": "https://www.orissapost.com/farmers-march-halted-at-haryana-border/"}, {"name": "Kerala, Kerala, India", "cc": "IN", "lat": 10.0, "lon": 76.5, "n": 33, "art": 134, "url": "https://vnewsbd.com/%E0%A6%AE%E0%A7%8B%E0%A6%A6%E0%A6%BF%E0%A6%B0-%E0%A6%AC%E0%A6%BE%E0%A6%B8%E0%A6%AD%E0%A6%AC%E0%A6%A8%E0%A7%87%E0%A6%B0-%E0%A6%B8%E0%A6%BE%E0%A6%AE%E0%A6%A8%E0%A7%87-%E0%A6%95%E0%A6%82%E0%A6%97/"}, {"name": "Hindustan, India (general), India", "cc": "IN", "lat": 28.0, "lon": 76.0, "n": 5, "art": 34, "url": "https://www.moneycontrol.com/news/business/stocks/hindustan-zinc-shares-rise-2-03-to-rs-533-25-alpha-article-13979335.html"}, {"name": "Odesa, Odes'ka Oblast, Ukraine", "cc": "UP", "lat": 46.464, "lon": 30.739, "n": 4, "art": 18, "url": "https://newstodaynet.com/2026/07/21/ukraine-fires-400-drones-toward-moscow/"}, {"name": "Colorado, United States", "cc": "US", "lat": 39.065, "lon": -105.327, "n": 1, "art": 2, "url": "https://www.canoncitydailyrecord.com/2026/07/20/protest-ice-facility-citations-obstruction/"}, {"name": "Oakland, California, United States", "cc": "US", "lat": 37.804, "lon": -122.271, "n": 1, "art": 2, "url": "https://www.ktvu.com/news/oakland-city-council-city-refuge-immigrant-protections"}, {"name": "Kremlin, Moskva, Russia", "cc": "RS", "lat": 55.752, "lon": 37.616, "n": 12, "art": 61, "url": "https://www.kyivpost.com/post/80778"}, {"name": "Tokyo, Tokyo, Japan", "cc": "JA", "lat": 35.685, "lon": 139.751, "n": 8, "art": 33, "url": "https://spacedaily.com/sd-japan-is-quietly-building-a-100-satellite-sovereign-eye-in-the-sky-and-the-sensor-that-makes-it-actually-useful-is-coming-from-a-finnish-startup-nobody-in-tokyo-had-heard-of-five-years-ago/"}, {"name": "Pumwani, Nairobi Area, Kenya", "cc": "KE", "lat": -1.283, "lon": 36.85, "n": 2, "art": 10, "url": "https://www.standardmedia.co.ke/national/article/2001553300/healthcare-services-paralysed-as-workers-begin-nationwide-strike"}, {"name": "Kwara, Zamfara, Nigeria", "cc": "NI", "lat": 12.334, "lon": 6.285, "n": 1, "art": 2, "url": "https://dailytrust.com/protest-in-ondo-kwara-as-apc-uploads-govship-candidates/"}, {"name": "Bangalore, Karnataka, India", "cc": "IN", "lat": 12.983, "lon": 77.583, "n": 5, "art": 18, "url": "https://indianexpress.com/article/cities/bangalore/karnataka-cabinet-expansion-delayed-rahul-gandhi-protest-10797182/"}, {"name": "Melbourne, Victoria, Australia", "cc": "AS", "lat": -37.817, "lon": 144.967, "n": 2, "art": 38, "url": "https://www.abc.net.au/news/2026-07-22/victorian-teachers-to-strike-again-what-you-need-to-know/106941206"}, {"name": "Pioneer Village, Tennessee, United States", "cc": "US", "lat": 35.774, "lon": -84.721, "n": 3, "art": 10, "url": "http://www.thedailytimes.com/community/museum-of-appalachia-awarded-a-capital-maintenance-and-improvements-grant/article_52e28936-44e9-4ed6-96db-cc6f84548ea0.html"}, {"name": "Boston, Massachusetts, United States", "cc": "US", "lat": 42.358, "lon": -71.06, "n": 3, "art": 15, "url": "https://www.pressdemocrat.com/2026/07/21/cloverdale-bow-wowing-to-its-two-and-four-legged-residents/"}, {"name": "South Korea", "cc": "KS", "lat": 37.0, "lon": 127.5, "n": 3, "art": 25, "url": "https://finance.yahoo.com/markets/options/articles/xfunds-launches-drmy-semiconductor-etf-152419027.html"}, {"name": "Athens, Attik\u00edR, Greece", "cc": "GR", "lat": 37.983, "lon": 23.733, "n": 6, "art": 54, "url": "https://jurnalul.ro/stiri/observator/urgent-mae-alerta-incendii-grecia-romani-vacanta-2026-1039588.html"}, {"name": "San Cristobal, M\u00e9co, Mexico", "cc": "MX", "lat": 19.601, "lon": -99.052, "n": 2, "art": 20, "url": "https://www.diariolibre.com/actualidad/sucesos/2026/07/21/cronologia-caso-miguel-antonio-valenzuela/3606015"}, {"name": "Uzbekistan", "cc": "UZ", "lat": 41.708, "lon": 63.849, "n": 1, "art": 10, "url": "https://www.ddaily.co.kr:443/page/view/2026072111224632816"}, {"name": "Caoxian, Shandong, China", "cc": "CH", "lat": 34.817, "lon": 115.533, "n": 1, "art": 1, "url": "https://en.gmw.cn/2026-07/21/content_38897827.htm"}, {"name": "Shandong, Jiangsu, China", "cc": "CH", "lat": 32.979, "lon": 118.852, "n": 1, "art": 7, "url": "https://en.gmw.cn/2026-07/21/content_38897827.htm"}, {"name": "Oman", "cc": "MU", "lat": 21.0, "lon": 57.0, "n": 2, "art": 10, "url": "https://www.theguardian.com/world/2026/jul/21/us-troops-injured-killed-iran-war-attacks-pentagon"}, {"name": "Amroha, Uttar Pradesh, India", "cc": "IN", "lat": 28.917, "lon": 78.467, "n": 1, "art": 1, "url": "https://kathmandupost.com/world/2026/07/21/india-s-cockroach-movement-leaders-say-minister-promises-talks-on-demands-1784597930"}, {"name": "Milan, Lombardia, Italy", "cc": "IT", "lat": 45.467, "lon": 9.2, "n": 10, "art": 49, "url": "https://www.rediff.com/news/report/cong-shifts-strategy-challenges-pms-authority/20260721.htm"}, {"name": "Argentina", "cc": "AR", "lat": -34.0, "lon": -64.0, "n": 4, "art": 32, "url": "https://www.nuevodiarioweb.com.ar/el-mundo/info-santiago-estero-espanoles-quisieron-quemar-una-bandera-para-burlar-a-argentina-pero-todo-termino-de-la-peor-manera.htm"}, {"name": "Italy", "cc": "IT", "lat": 42.833, "lon": 12.833, "n": 27, "art": 199, "url": "https://drimble.nl/binnenlands-nieuws/107515143/tientallen-gewonde-agenten-bij-ongeregeldheden-in-bologna.html"}, {"name": "Kiev, Ukraine (general), Ukraine", "cc": "UP", "lat": 50.433, "lon": 30.517, "n": 25, "art": 174, "url": "https://investigator.org.ua/news-2/novosti-vlast/285172/"}, {"name": "Mexico", "cc": "MX", "lat": 23.0, "lon": -102.0, "n": 2, "art": 18, "url": "https://www.jornada.com.mx/2026/07/21/opinion/002a2cor"}, {"name": "Tijuana, Baja California, Mexico", "cc": "MX", "lat": 32.533, "lon": -117.017, "n": 2, "art": 20, "url": "https://www.sdpnoticias.com/estados/pan-protesta-en-tijuana-por-detencion-de-ernesto-ruffo-y-pide-su-liberacion/"}, {"name": "Kamenge, Bujumbura City, Burundi", "cc": "BY", "lat": -3.358, "lon": 29.399, "n": 1, "art": 10, "url": "https://africapresse.com/burundi-neuf-morts-dans-une-bousculade-lors-dun-rassemblement-evangelique/"}, {"name": "Gauteng, Gauteng, South Africa", "cc": "SF", "lat": -26.083, "lon": 28.25, "n": 1, "art": 10, "url": "https://www.citizen.co.za/news/south-africa/courts/high-court-orders-seizure-of-r325m-empire-tembisa-hospital-tender-tycoon-maumela/"}, {"name": "Ghazipur, Uttar Pradesh, India", "cc": "IN", "lat": 25.583, "lon": 83.567, "n": 1, "art": 10, "url": "https://ianslive.in/haryana-police-seals-shambhu-border-hundreds-of-farmers-from-punjab-stopped--20260721092031"}, {"name": "Uttar Pradesh, Uttar Pradesh, India", "cc": "IN", "lat": 27.25, "lon": 80.75, "n": 10, "art": 46, "url": "https://whbl.com/2026/07/21/analysis-india-student-protests-give-opposition-a-rare-opening-against-modi/"}, {"name": "Dnipro, Ukraine (general), Ukraine", "cc": "UP", "lat": 46.498, "lon": 32.309, "n": 2, "art": 8, "url": "https://glavred.info/war/zelenskiy-rassmatrivaet-otstavku-syrskogo-v-bloomberg-nazvali-veroyatnogo-preemnika-10782173.html"}, {"name": "Indore, Madhya Pradesh, India", "cc": "IN", "lat": 22.717, "lon": 75.833, "n": 3, "art": 20, "url": "https://www.freepressjournal.in/indore/villagers-protest-against-polluting-industrial-unit-in-mps-meghnagar"}, {"name": "Souda, Perifereia Kritis, Greece", "cc": "GR", "lat": 35.484, "lon": 24.074, "n": 1, "art": 2, "url": "https://www.wsws.org/en/articles/2026/07/20/nafg-j20.html"}, {"name": "Turkey", "cc": "TU", "lat": 39.059, "lon": 34.912, "n": 4, "art": 15, "url": "https://www.dailysabah.com/business/economy/ukrainian-drone-strikes-damage-turkish-retailers-stocks-in-russia"}, {"name": "Rawalakot, Azad Kashmir, Pakistan", "cc": "PK", "lat": 33.858, "lon": 73.76, "n": 1, "art": 10, "url": "https://www.wsws.org/en/articles/2026/07/21/tfon-j21.html"}, {"name": "Tararkhal, Azad Kashmir, Pakistan", "cc": "PK", "lat": 33.684, "lon": 73.777, "n": 2, "art": 10, "url": "https://www.wsws.org/en/articles/2026/07/21/tfon-j21.html"}, {"name": "Azad Kashmir, Azad Kashmir, Pakistan", "cc": "PK", "lat": 33.947, "lon": 73.91, "n": 1, "art": 2, "url": "https://www.wsws.org/en/articles/2026/07/21/tfon-j21.html"}, {"name": "Bangladesh", "cc": "BG", "lat": 24.0, "lon": 90.0, "n": 2, "art": 20, "url": "https://www.jugantor.com/country-news/1129985"}, {"name": "Sitsang, Xizang, China", "cc": "CH", "lat": 32.0, "lon": 90.0, "n": 1, "art": 10, "url": "https://tibet.fr/actualites/la-bataille-pour-les-morts-en-chine-des-villageois-du-guangdong-sopposent-a-un-projet-de-crematorium-et-saffrontent-avec-la-police/"}, {"name": "Heidelberg, Baden-W\u00fcberg, Germany", "cc": "GM", "lat": 48.317, "lon": 8.917, "n": 1, "art": 4, "url": "https://www.news.de/politik/859715628/demos-gegen-rechtsextremismus-gegen-afd-heute-dienstag-21-juli-2026-demonstrationen-betzdorf-celle-goettingen-osnabrueck-bremen-bonn-waren/1/"}, {"name": "Saxony, Sachsen, Germany", "cc": "GM", "lat": 51.0, "lon": 13.0, "n": 1, "art": 6, "url": "https://www.news.de/politik/859715628/demos-gegen-rechtsextremismus-gegen-afd-heute-dienstag-21-juli-2026-demonstrationen-betzdorf-celle-goettingen-osnabrueck-bremen-bonn-waren/1/"}, {"name": "Brussels, Bruxelles-Capitale, Belgium", "cc": "BE", "lat": 50.833, "lon": 4.333, "n": 5, "art": 36, "url": "https://engineeringevil.com/2012/08/18/the-case-against-europe-one-mep-reveals-the-disturbing-contempt-for-democracy-at-the-heart-of-the-eu/"}, {"name": "Bengaluru, Karnataka, India", "cc": "IN", "lat": 12.983, "lon": 77.583, "n": 3, "art": 12, "url": "https://aninews.in/news/national/politics/govt-trembling-in-fear-mallikarjun-kharge-slams-centre-as-congress-leaders-detained-for-lok-kalyan-marg-protest20260721220059/"}, {"name": "Tirana, Tirane, Albania", "cc": "AL", "lat": 41.328, "lon": 19.819, "n": 8, "art": 56, "url": "https://www.earthisland.org/journal/index.php/articles/entry/how-a-trump-family-tied-luxury-resort-sparked-albanias-flamingo-revolution"}, {"name": "Paris, France (general), France", "cc": "FR", "lat": 48.867, "lon": 2.333, "n": 4, "art": 38, "url": "https://www.semana.com/mundo/articulo/violentas-protestas-sacuden-italia-tras-la-muerte-de-un-inmigrante-marroqui-durante-una-detencion-policial/202607/"}, {"name": "Illinois, United States", "cc": "US", "lat": 40.336, "lon": -89.002, "n": 2, "art": 3, "url": "https://www.news-gazette.com/news/local/courts-police-fire/champaign-man-gets-12-years-on-weapons-charges-after-2024-shootout/article_fd9e61a0-34f9-4757-989e-d7d02baeb450.html"}, {"name": "Bongaigaon, Assam, India", "cc": "IN", "lat": 26.478, "lon": 90.557, "n": 1, "art": 10, "url": "https://www.sentinelassam.com/north-east-india-news/assam-news/assam-dyfi-aidwa-protests-in-bongaigaon-backing-sonam-wangchuk"}, {"name": "Tel Aviv, Tel Aviv, Israel", "cc": "IS", "lat": 32.067, "lon": 34.767, "n": 9, "art": 41, "url": "https://www.bostonglobe.com/2026/07/21/opinion/israel-emigrants-identity-palestine-war/"}, {"name": "Thana, Maharashtra, India", "cc": "IN", "lat": 19.2, "lon": 72.967, "n": 1, "art": 2, "url": "https://www.livemint.com/news/india/farmers-protest-in-delhi-live-updates-mahapanchayat-india-us-trade-deal-agreement-traffic-restrictions-latest-news-21-11784608353471.html"}, {"name": "Ambala, Haryana, India", "cc": "IN", "lat": 30.378, "lon": 76.781, "n": 1, "art": 6, "url": "https://www.livemint.com/news/india/farmers-protest-in-delhi-live-updates-mahapanchayat-india-us-trade-deal-agreement-traffic-restrictions-latest-news-21-11784608353471.html"}, {"name": "Mahatma, Rajasthan, India", "cc": "IN", "lat": 28.629, "lon": 75.071, "n": 2, "art": 12, "url": "https://www.livemint.com/politics/news/cjp-farmers-protest-right-to-protest-in-india-what-the-constitution-laws-and-supreme-court-say-dlehi-police-sonam-11784609328724.html"}, {"name": "Hebron, Israel (general), Israel", "cc": "IS", "lat": 31.533, "lon": 35.1, "n": 1, "art": 2, "url": "https://edition.cnn.com/2026/07/21/middleeast/sebastias-israelis-palestinians-unesco-site-fight-intl"}, {"name": "Hyderabad, Andhra Pradesh, India", "cc": "IN", "lat": 17.375, "lon": 78.474, "n": 11, "art": 53, "url": "https://www.gulte.com/shorts/422248/big-breaking-rahul-gandhi-detained"}, {"name": "Telangana, Andhra Pradesh, India", "cc": "IN", "lat": 18.0, "lon": 79.5, "n": 7, "art": 27, "url": "https://www.prokerala.com/news/articles/a1790774.html"}, {"name": "Krasilnikov, Rostovskaya Oblast', Russia", "cc": "RS", "lat": 47.683, "lon": 39.582, "n": 1, "art": 10, "url": "https://aif.ru/society/voennyy-vsu-popytalsya-otpravit-ukradennye-kovanye-vorota-po-pochte"}, {"name": "Florida, United States", "cc": "US", "lat": 27.833, "lon": -81.717, "n": 2, "art": 11, "url": "https://www.wmnf.org/tampa-immigrant-rights-coalition-protest-downtown-oppose-ice/"}, {"name": "Himachal, Uttaranchal, India", "cc": "IN", "lat": 30.0, "lon": 80.0, "n": 5, "art": 12, "url": "https://indianexpress.com/article/cities/chandigarh/protests-in-himachal-against-lathicharge-on-protesters-in-delhis-jantar-mantar-10796049/"}, {"name": "Zimbabwe", "cc": "ZI", "lat": -19.0, "lon": 29.0, "n": 7, "art": 20, "url": "https://naija247news.com/falana-urges-nigeria-ghana-to-drag-south-africa-before-african-court-over-xenophobic-attacks/"}, {"name": "Connaught Place, Delhi, India", "cc": "IN", "lat": 28.633, "lon": 77.217, "n": 5, "art": 33, "url": "https://www.thehindu.com/news/cities/Delhi/some-of-those-detained-were-not-even-at-protest-site-families-allege/article71251039.ece"}, {"name": "Yanbu, Al Madinah, Saudi Arabia", "cc": "SA", "lat": 24.089, "lon": 38.064, "n": 2, "art": 4, "url": "https://vz.ru/economy/2026/7/21/1436377.html"}, {"name": "Banaras, Uttar Pradesh, India", "cc": "IN", "lat": 25.333, "lon": 83.0, "n": 1, "art": 10, "url": "https://www.standardmedia.co.ke/world/article/2001553328/indias-cockroach-movement-vows-to-protest-until-education-minister-resigns"}, {"name": "Bundelkhand, Madhya Pradesh, India", "cc": "IN", "lat": 25.0, "lon": 79.5, "n": 2, "art": 9, "url": "https://hindi.webdunia.com/latest-deutsche-welle-news/ken-betwa-river-link-project-protest-rehabilitation-compensation-chhatarpur-126072100018_1.html"}, {"name": "Sangdong, Kyonggi-do, South Korea", "cc": "KS", "lat": 37.171, "lon": 127.182, "n": 1, "art": 2, "url": "https://stockhouse.com/opinion/contributors/2026/07/21/china-s-tungsten-grip-begins-to-loosen-almonty-industries-strengthens-defence"}, {"name": "Bundibugyo, Bundibugyo, Uganda", "cc": "UG", "lat": 0.741, "lon": 30.042, "n": 1, "art": 10, "url": "https://allafrica.com/stories/202607210070.html"}, {"name": "Tennessee, United States", "cc": "US", "lat": 35.745, "lon": -86.749, "n": 2, "art": 12, "url": "https://crisismagazine.com/opinion/truth-under-assault"}, {"name": "Sonam, Uttaranchal, India", "cc": "IN", "lat": 31.233, "lon": 79.117, "n": 4, "art": 38, "url": "https://www.bbc.com/urdu/articles/clyx7ge6kvgo"}, {"name": "United States", "cc": "US", "lat": 39.828, "lon": -98.579, "n": 27, "art": 162, "url": "https://www.pasadenastarnews.com/2026/07/21/while-the-political-circus-distracts-us-flock-builds-the-digital-police-state/"}, {"name": "Usman Khan, Sindh, Pakistan", "cc": "PK", "lat": 27.704, "lon": 67.881, "n": 1, "art": 2, "url": "https://www.pakistantoday.com.pk/2026/07/21/kp-government-denies-military-operation-in-bannu-during-assembly-session"}, {"name": "Leskaj, Gjirokast\u00ebAL, Albania", "cc": "AL", "lat": 40.246, "lon": 20.192, "n": 2, "art": 20, "url": "https://sot.com.al/opinion-editorial/protesta-qytetare-ne-diten-e-51-te-dhe-mazhoranca-ende-nuk-reagon/"}, {"name": "Grad Nis, , Serbia", "cc": "RI", "lat": 43.323, "lon": 21.894, "n": 1, "art": 10, "url": "https://www.danas.rs/vesti/drustvo/pocinje-trodnevni-protest-zbog-plana-da-zeleznicka-obilaznica-oko-nisa-prodje-kroz-grad-opozicija-negira-tvrdnje-vlasti-da-je-trasu-crtala-evropa/"}, {"name": "Citra, Jawa Barat, Indonesia", "cc": "ID", "lat": -6.396, "lon": 107.812, "n": 3, "art": 10, "url": "https://portal.sina.com.hk/finance/finance-mediaoutreachnewswire/media-outreach/2026/07/21/1860588/telkomgroup-nongsa-digital-park-and-bw-digital-strengthen-indonesias-digital-gateway-through-the-ncc-submarine-cable-system/"}, {"name": "Minderoo, Western Australia, Australia", "cc": "AS", "lat": -21.996, "lon": 115.045, "n": 1, "art": 10, "url": "https://www2.fundsforngos.org/individuals/open-call-160000-practice-in-community-grants-for-regional-australian-artists/"}, {"name": "Budapest, Budapest, Hungary", "cc": "HU", "lat": 47.5, "lon": 19.083, "n": 1, "art": 5, "url": "https://www.budapesttimes.hu/hungary/magyar-wants-a-president-who-loves-the-country-not-one-who-knows-how-to-loot-it/"}, {"name": "Pine Gap, Northern Territory, Australia", "cc": "AS", "lat": -23.817, "lon": 133.733, "n": 2, "art": 12, "url": "https://www.sbs.com.au/nitv/article/hundreds-march-on-pine-gap-military-base-led-by-arrernte-traditional-custodians/gshc9yvkr"}, {"name": "Barcelona, Comunidad Autonoma de Cataluna, Spain", "cc": "SP", "lat": 41.383, "lon": 2.183, "n": 4, "art": 34, "url": "http://www.elpuntavui.cat/politica/article/17-politica/2660946-neguen-l-amnistia-a-8-independentistes-condemnats-per-protestar-contra-societat-civil-catalana.html"}, {"name": "Maseru, Maseru, Lesotho", "cc": "LT", "lat": -29.317, "lon": 27.483, "n": 2, "art": 7, "url": "https://sundayexpress.co.ls/?p=31081"}, {"name": "Karlsruhe, Baden-W\u00fcberg, Germany", "cc": "GM", "lat": 49.005, "lon": 8.386, "n": 2, "art": 16, "url": "https://www.cross.bg/germaniya-protest-postradaliya-1801925.html"}, {"name": "Pavlikeni, Veliko Turnovo, Bulgaria", "cc": "BU", "lat": 43.243, "lon": 25.322, "n": 2, "art": 4, "url": "https://www.cross.bg/germaniya-protest-postradaliya-1801925.html"}, {"name": "Seattle, Washington, United States", "cc": "US", "lat": 47.606, "lon": -122.332, "n": 1, "art": 8, "url": "https://www.dnews.com/northwest/how-the-dems-divide-over-israel-reached-wa-5529831d"}, {"name": "Kolkata, West Bengal, India", "cc": "IN", "lat": 22.57, "lon": 88.37, "n": 3, "art": 40, "url": "https://hindi.business-standard.com/companies/bandhan-bank-q1-net-profit-rises-35-percent-to-rs-502-crore-as-npa-declines-id-538622"}, {"name": "Lviv, L'vivs'ka Oblast', Ukraine", "cc": "UP", "lat": 49.841, "lon": 24.03, "n": 2, "art": 14, "url": "https://inosmi.ru/20260721/ukraina-279373592.html"}, {"name": "Warsaw, (PL67), Poland", "cc": "PL", "lat": 52.25, "lon": 21.0, "n": 5, "art": 32, "url": "https://dzieje.pl/wiadomosci/oprawcy-na-szafocie-publiczne-egzekucje-w-polsce-po-ii-wojnie"}, {"name": "Damascus, Dimashq, Syria", "cc": "SY", "lat": 33.5, "lon": 36.3, "n": 2, "art": 12, "url": "https://www.aljazeera.net/news/2026/7/21/%D8%A5%D9%84%D8%BA%D8%A7%D8%A1-%D8%AD%D9%81%D9%84%D8%A7%D8%AA-%D9%84%D9%81%D9%86%D8%A7%D9%86%D9%8A%D9%86-%D8%A3%D9%8A%D8%AF%D9%88%D8%A7-%D9%86%D8%B8%D8%A7%D9%85-%D8%A7%D9%84%D8%A3%D8%B3%D8%AF"}, {"name": "Bears Ears, Utah, United States", "cc": "US", "lat": 37.63, "lon": -109.868, "n": 12, "art": 25, "url": "https://www.moabtimes.com/articles/motivated-by-love-utahns-find-strength-in-numbers-during-protest-of-trumps-monument-slashing/"}, {"name": "Palghar, Maharashtra, India", "cc": "IN", "lat": 19.683, "lon": 72.75, "n": 1, "art": 10, "url": "https://www.siasat.com/armed-robbers-loot-jewellery-store-in-maharashtras-palghar-3510375/"}, {"name": "Rochdale, Rochdale, United Kingdom", "cc": "UK", "lat": 53.617, "lon": -2.15, "n": 2, "art": 4, "url": "https://www.rte.ie/news/uk/2026/0721/1584324-burnham-cabinet/"}, {"name": "Salt Lake, Utah, United States", "cc": "US", "lat": 39.156, "lon": -112.691, "n": 4, "art": 20, "url": "https://www.moabtimes.com/articles/motivated-by-love-utahns-find-strength-in-numbers-during-protest-of-trumps-monument-slashing/"}, {"name": "Beijing, Beijing, China", "cc": "CH", "lat": 39.929, "lon": 116.388, "n": 7, "art": 28, "url": "https://www.newsweek.com/china-and-russia-challenge-us-allies-with-drills-in-asia-12222161"}, {"name": "Luxembourg", "cc": "LU", "lat": 49.75, "lon": 6.167, "n": 1, "art": 10, "url": "https://lequotidien.lu/editoriaux/une-balle-dans-le-pied/"}, {"name": "Algiers, Alger, Algeria", "cc": "AG", "lat": 36.763, "lon": 3.051, "n": 2, "art": 18, "url": "https://www.echoroukonline.com/%D8%A5%D8%B1%D8%A7%D8%AF%D8%A9-%D9%85%D9%86-%D8%A3%D8%B9%D9%84%D9%89-%D9%87%D8%B1%D9%85-%D8%A7%D9%84%D8%B3%D9%84%D8%B7%D8%A9-%D9%86%D8%AD%D9%88-%D8%B4%D8%B1%D8%A7%D9%83%D8%A9-%D8%A7%D8%B3%D8%AA%D8%B1"}, {"name": "Saudi Arabia", "cc": "SA", "lat": 25.0, "lon": 45.0, "n": 2, "art": 12, "url": "https://www.durangoherald.com/articles/associated-press/us-strikes-iran-for-10th-consecutive-night-as-tehran-strikes-tanker-in-the-strait-of-hormuz/"}, {"name": "Belgrade, Serbia (general),", "cc": "RB", "lat": 44.819, "lon": 20.468, "n": 1, "art": 6, "url": "https://www.slobodna-bosna.ba/vijest/496516/basara_o_sluchaju_arsenijevic_zlo_iz_devedesetih_seze_mnogo_dalje_u_proslost_od_devedesetih.html"}, {"name": "Serbia", "cc": "RI", "lat": 44.0, "lon": 21.0, "n": 1, "art": 4, "url": "https://www.slobodna-bosna.ba/vijest/496516/basara_o_sluchaju_arsenijevic_zlo_iz_devedesetih_seze_mnogo_dalje_u_proslost_od_devedesetih.html"}, {"name": "Kordofan, Shamal Kurdufan, Sudan", "cc": "SU", "lat": 13.083, "lon": 30.35, "n": 2, "art": 18, "url": "https://annabaa.org/arabic/reports/46805"}, {"name": "Norway", "cc": "NO", "lat": 62.0, "lon": 10.0, "n": 3, "art": 22, "url": "https://www.dagsavisen.no/notice/10449687"}, {"name": "Chernivtsi, Chernivets'ka Oblast', Ukraine", "cc": "UP", "lat": 48.291, "lon": 25.94, "n": 1, "art": 8, "url": "https://week.ukrainianwall.com/167387-ponad-2-200-kartonok-iz-66-mist-ukrajinskiy-dizayner-zapustiv-onlayn-arhiv-protestnih-plakativ"}, {"name": "Croatia", "cc": "HR", "lat": 45.167, "lon": 15.5, "n": 1, "art": 20, "url": "https://www.index.hr/vijesti/clanak/kovac-ukrajinci-su-u-velikom-problemu-200000-ljudi-bjezi-od-mobilizacije/2815808.aspx?index_tid=1096365&index_ref=naslovnica_vijesti_najnovije_d"}, {"name": "Antigua And Barbuda", "cc": "AC", "lat": 17.05, "lon": -61.8, "n": 1, "art": 10, "url": "https://antiguaobserver.com/dozens-benefit-from-abrcs-community-life-line-health-outreach/"}, {"name": "Villupuram, Tamil Nadu, India", "cc": "IN", "lat": 11.933, "lon": 79.483, "n": 1, "art": 5, "url": "https://newstodaynet.com/2026/07/21/over-500-c-ve-shanmugam-supporters-quit-aiadmk/"}, {"name": "Humansdorp, Eastern Cape, South Africa", "cc": "SF", "lat": -34.029, "lon": 24.769, "n": 1, "art": 3, "url": "https://stfrancischronicle.com/2026/07/21/perpretrators-of-violence-in-jbay-appear-in-court/"}, {"name": "Venezuela", "cc": "VE", "lat": 8.0, "lon": -66.0, "n": 2, "art": 18, "url": "https://www.correiobraziliense.com.br/mundo/2026/07/7464993-fui-deportado-para-o-mexico-por-erro-e-depois-de-3-meses-levado-de-volta-aos-eua.html"}, {"name": "Bukuru, Nigeria (general), Nigeria", "cc": "NI", "lat": 9.8, "lon": 8.867, "n": 1, "art": 10, "url": "https://dailytrust.com/protest-in-plateau-over-killing-of-2-women/"}, {"name": "Minneapolis, Minnesota, United States", "cc": "US", "lat": 44.98, "lon": -93.264, "n": 4, "art": 10, "url": "https://time.com/collection/time100-summit-gala/2026/jacob-frey-minneapolis-trump-immigration/"}, {"name": "Kenya", "cc": "KE", "lat": 1.0, "lon": 38.0, "n": 2, "art": 20, "url": "https://www.the-star.co.ke/news/2026-07-21-we-wont-allow-goons-to-terrorise-kenyans-ruto"}, {"name": "Mahim, Maharashtra, India", "cc": "IN", "lat": 19.65, "lon": 72.733, "n": 2, "art": 7, "url": "https://scroll.in/latest/1094429/mumbai-police-file-firs-against-over-50-persons-for-cjp-solidarity-protest"}, {"name": "Pune, Maharashtra, India", "cc": "IN", "lat": 18.533, "lon": 73.867, "n": 5, "art": 20, "url": "https://indianexpress.com/article/cities/pune/bjp-sadabhau-khot-terrorist-remark-neet-protest-delhi-outrage-10797254/"}, {"name": "Albania", "cc": "AL", "lat": 41.0, "lon": 20.0, "n": 6, "art": 55, "url": "https://sot.com.al/aktualitet/nuk-eshte-me-proteste-por-levizje-biznesmeni-opozita-ka-bere-tradhti-kombetare-berisha-duhet-te-ike-i-pari/"}, {"name": "Petersburg, Sankt-Peterburg, Russia", "cc": "RS", "lat": 59.894, "lon": 30.264, "n": 1, "art": 2, "url": "https://www.fontanka.ru/2026/07/21/76543427/"}, {"name": "Fontanka, Sakhalinskaya Oblast', Russia", "cc": "RS", "lat": 49.456, "lon": 154.703, "n": 1, "art": 8, "url": "https://www.fontanka.ru/2026/07/21/76543427/"}, {"name": "Patiala, Punjab, India", "cc": "IN", "lat": 30.327, "lon": 76.4, "n": 1, "art": 6, "url": "https://aninews.in/news/national/general-news/ambala-police-issues-traffic-advisory-suggests-alternate-routes-after-shambhu-border-sealed-amid-farmers-delhi-march20260721125103/"}, {"name": "Hawaii, United States", "cc": "US", "lat": 21.11, "lon": -157.531, "n": 1, "art": 10, "url": "https://www.mauinews.com/news/local-news/2026/07/a-milestone-in-recovery-aeo-reclassified-from-endangered-to-threatened/"}, {"name": "Seoul, Soul-t'ukpyolsi, South Korea", "cc": "KS", "lat": 37.566, "lon": 127.0, "n": 3, "art": 20, "url": "https://www.forbes.com/sites/hannahabraham/2026/07/21/newjeans-releases-first-teasers-as-four-member-group-without-danielle/"}, {"name": "Montreal, Quebec, Canada", "cc": "CA", "lat": 45.5, "lon": -73.583, "n": 2, "art": 20, "url": "https://www.lapresse.ca/actualites/2026-07-21/michael-hendricks-1941-2026/un-pionnier-des-droits-lgbtq-s-eteint.php"}, {"name": "Veliaj, Berat, Albania", "cc": "AL", "lat": 40.546, "lon": 20.034, "n": 2, "art": 8, "url": "https://www.botasot.info/shqiperia/2508807/misteri-i-nesti-angonit-rikthehet-ne-qender-te-betejes-veliaj-sfidon-spak-un-ne-gjkko-kerkon-zbardhjen-e-hellip/"}, {"name": "Switzerland", "cc": "SZ", "lat": 47.0, "lon": 8.0, "n": 1, "art": 2, "url": "https://www.botasot.info/shqiperia/2508807/misteri-i-nesti-angonit-rikthehet-ne-qender-te-betejes-veliaj-sfidon-spak-un-ne-gjkko-kerkon-zbardhjen-e-hellip/"}, {"name": "Amritsar, Punjab, India", "cc": "IN", "lat": 31.633, "lon": 74.866, "n": 3, "art": 6, "url": "https://www.tribuneindia.com/news/comment/from-ai-to-investing-teen-charts-his-own-path/"}, {"name": "Ambala Cantonment, Haryana, India", "cc": "IN", "lat": 30.35, "lon": 76.833, "n": 4, "art": 4, "url": "https://economictimes.indiatimes.com/news/india/punjab-farmers-stopped-by-haryana-police-as-protests-against-india-us-trade-deal-intensify/articleshow/132532122.cms"}, {"name": "Kakamega, Western, Kenya", "cc": "KE", "lat": 0.284, "lon": 34.752, "n": 1, "art": 1, "url": "https://www.the-star.co.ke/news/2026-07-21-sifuna-ill-tour-47-counties-before-deciding-on-2027-bid"}, {"name": "Nairobi, Nairobi Area, Kenya", "cc": "KE", "lat": -1.283, "lon": 36.817, "n": 2, "art": 11, "url": "https://www.riotimesonline.com/africa-intelligence-brief-tuesday-july-21-2026/"}, {"name": "Lavra, Kirovskaya Oblast', Russia", "cc": "RS", "lat": 57.929, "lon": 49.02, "n": 1, "art": 8, "url": "https://tsn.ua/ukrayina/novi-vyroky-u-spravakh-maydanu-iak-sud-pokarav-ekskomandyra-berkuta-spilnykiv-i-titushok-3132098.html"}, {"name": "Bahadurgarh, Haryana, India", "cc": "IN", "lat": 28.683, "lon": 76.917, "n": 2, "art": 4, "url": "https://www.dainiktribuneonline.com/liveblog/chandigarh/farmers-delhi-march-shambhu-border-kaithal-expressway-jam/"}, {"name": "Fatehgarh Sahib, Punjab, India", "cc": "IN", "lat": 30.533, "lon": 75.717, "n": 1, "art": 6, "url": "https://www.dainiktribuneonline.com/liveblog/chandigarh/farmers-delhi-march-shambhu-border-kaithal-expressway-jam/"}, {"name": "Santiago, Regi\u00f3etropolitana, Chile", "cc": "CI", "lat": -33.45, "lon": -70.667, "n": 2, "art": 20, "url": "https://www.volynnews.com/news/all/duzhe-khotiv-pobachyty-syna-na-viyni-zahynuv-vidomyy-ukrayinskyy-aktor/"}, {"name": "Renasterea, Romania (general), Romania", "cc": "RO", "lat": 44.35, "lon": 26.383, "n": 1, "art": 5, "url": "https://www.romania-insider.com/iasi-county-gambling-halls-ban-july-2026"}, {"name": "Hollywood, California, United States", "cc": "US", "lat": 34.098, "lon": -118.327, "n": 1, "art": 2, "url": "https://www.routesonline.com/suppliers/12/asm-global-route-development/news/299666634/winning-new-air-services-requires-more-than-demand-it-demands-strategy/"}, {"name": "Kiribati", "cc": "KR", "lat": -5.0, "lon": -170.0, "n": 2, "art": 2, "url": "https://pina.com.fj/2026/07/13/pacific-islands-reject-missile-test-in-blue-continent/"}, {"name": "Oslo, Oslo, Norway", "cc": "NO", "lat": 59.917, "lon": 10.75, "n": 1, "art": 5, "url": "https://www.ncr-iran.org/en/news/iran-news-in-brief-news/iran-news-in-brief-july-21-2026/"}, {"name": "Otranto, Albania (general), Albania", "cc": "AL", "lat": 40.0, "lon": 19.0, "n": 1, "art": 10, "url": "https://www.zazoom.it/2026-07-21/lo-scrittore-albanese-lubonja-tra-i-volti-della-rivoluzione-dei-fenicotteri/19484729/"}, {"name": "Rivne, Rivnens'ka Oblast', Ukraine", "cc": "UP", "lat": 50.623, "lon": 26.227, "n": 1, "art": 10, "url": "https://ogo.ua/na-dubenshhyni-patrulni-zupynyly-netverezogo-mopedysta-yakyj-pyanym-za-kermo-siv-udruge-za-rik/"}, {"name": "Lake Geneva, Switzerland (general), Switzerland", "cc": "SZ", "lat": 46.444, "lon": 6.542, "n": 1, "art": 5, "url": "https://www.swissinfo.ch/eng/swiss-ai/swiss-researchers-push-to-make-ai-data-centres-more-sustainable/91757049"}, {"name": "Karnataka, Karnataka, India", "cc": "IN", "lat": 13.5, "lon": 76.0, "n": 27, "art": 102, "url": "https://www.oneindia.com/india/we-will-fight-till-our-last-breath-karnataka-cm-dk-shivakumar-detained-in-delhi-exclusive-8153177.html"}, {"name": "Clacton, Essex, United Kingdom", "cc": "UK", "lat": 51.783, "lon": 1.167, "n": 5, "art": 10, "url": "https://www.rte.ie/brainstorm/2026/0721/1584151-nigel-farage-reform-uk-count-binface-clacton-bye-election-2026/"}, {"name": "Tembisa, Gauteng, South Africa", "cc": "SF", "lat": -26.01, "lon": 28.228, "n": 4, "art": 12, "url": "https://www.sanews.gov.za/south-africa/minister-welcomes-seizure-tembisa-hospital-corruption-linked-assets"}, {"name": "Jerusalem, Israel (general), Israel", "cc": "IS", "lat": 31.767, "lon": 35.233, "n": 4, "art": 8, "url": "http://www.jpost.com/israel-news/article-903171"}, {"name": "Beit Shemesh, Yerushalayim, Israel", "cc": "IS", "lat": 31.75, "lon": 34.989, "n": 2, "art": 2, "url": "http://www.jpost.com/israel-news/article-903171"}, {"name": "Japan", "cc": "JA", "lat": 36.0, "lon": 138.0, "n": 1, "art": 2, "url": "https://jewishworldreview.com/0726/male_duds.php"}, {"name": "Guadeloupe", "cc": "GP", "lat": 16.25, "lon": -61.583, "n": 1, "art": 10, "url": "https://www.eluniversal.com.mx/nacion/exigen-libertad-de-ernesto-ruffo-appel/"}, {"name": "Nepal", "cc": "NP", "lat": 28.0, "lon": 84.0, "n": 4, "art": 18, "url": "https://www.independent.co.uk/asia/india/delhi-cockroach-janta-party-cjp-protest-abhijeet-dipke-jantar-mantar-violence-b3018739.html"}, {"name": "Lopan, Permskiy Kray, Russia", "cc": "RS", "lat": 59.606, "lon": 54.857, "n": 2, "art": 10, "url": "https://ria.ru/20260721/severodonetsk-2106010837.html"}, {"name": "Kaduna, Kaduna, Nigeria", "cc": "NI", "lat": 10.523, "lon": 7.44, "n": 1, "art": 10, "url": "https://saharareporters.com/2026/07/20/workers-group-backs-nigerian-nurses-strike-demands-removal-kaduna-hospital-director"}, {"name": "Osogbo, Osun, Nigeria", "cc": "NI", "lat": 7.767, "lon": 4.567, "n": 1, "art": 10, "url": "https://theeagleonline.com.ng/osun-police-restore-normalcy-after-nurtw-clash/"}, {"name": "Zubin Potok, Komuna e Zubin Potokut, Kosovo", "cc": "KV", "lat": 42.914, "lon": 20.69, "n": 1, "art": 10, "url": "https://www.evropaelire.org/a/haxhiu-lirimi-i-prokuroreve-serbe-nga-detyra/33808849.html"}, {"name": "Buenos Aires, Distrito Federal, Argentina", "cc": "AR", "lat": -34.587, "lon": -58.672, "n": 1, "art": 8, "url": "https://www.vetogate.com/5697538"}, {"name": "Armenia", "cc": "AM", "lat": 40.0, "lon": 45.0, "n": 1, "art": 4, "url": "https://vz.ru/news/2026/7/21/1436516.html"}, {"name": "Piedmont, Piemonte, Italy", "cc": "IT", "lat": 45.0, "lon": 8.0, "n": 3, "art": 30, "url": "https://www.zazoom.it/2026-07-22/ok-alle-pre-intese-protesta-dellopposizione/19487149/"}, {"name": "Andalusia, Spain (general), Spain", "cc": "SP", "lat": 37.6, "lon": -4.5, "n": 1, "art": 10, "url": "https://kaosenlared.net/ii-republica-el-golpe-de-estado-de-reaccionarios-y-fascistas-90-anos-despues-2/"}, {"name": "Boankra, Ghana (general), Ghana", "cc": "GH", "lat": 6.692, "lon": -1.405, "n": 1, "art": 10, "url": "https://thechronicle.com.gh/boankra-inland-port-dispute-law-lords-dismiss-aspls-33-3m-claim-against-justmoh-construction/"}, {"name": "Burnham, Somerset, United Kingdom", "cc": "UK", "lat": 51.242, "lon": -2.995, "n": 2, "art": 7, "url": "https://www.nbcnews.com/world/united-kingdom/uks-burnham-targets-lower-energy-bills-first-move-pm-rcna588496"}, {"name": "Prague, Praha, Hlavn\u00edesto, Czech Republic", "cc": "EZ", "lat": 50.083, "lon": 14.467, "n": 1, "art": 10, "url": "https://www.novinky.cz/clanek/ekonomika-lasak-nastoupi-do-cela-letiste-praha-uz-v-srpnu-zmena-se-uspisila-40589027"}, {"name": "Nuoro, Sardegna, Italy", "cc": "IT", "lat": 40.317, "lon": 9.35, "n": 1, "art": 4, "url": "https://www.iltempo.it/attualita/2026/07/21/news/scioperi-settimana-di-passione-inizia-easyjet-poi-aeroporti-treni-navi-e-bus-48621270/"}, {"name": "Sassari, Sardegna, Italy", "cc": "IT", "lat": 40.727, "lon": 8.56, "n": 2, "art": 6, "url": "https://www.iltempo.it/attualita/2026/07/21/news/scioperi-settimana-di-passione-inizia-easyjet-poi-aeroporti-treni-navi-e-bus-48621270/"}, {"name": "Ottawa, Ontario, Canada", "cc": "CA", "lat": 45.417, "lon": -75.7, "n": 2, "art": 20, "url": "https://leaderpost.com/press-releases/business-wire/queensway-carleton-to-eliminate-101-jobs-as-ontario-hospital-funding-cuts-continue/"}, {"name": "Chennai, Tamil Nadu, India", "cc": "IN", "lat": 13.083, "lon": 80.283, "n": 5, "art": 35, "url": "https://www.thehindu.com/newsletter/tamil-nadu-today/here-are-the-big-stories-from-tamil-nadu-today/article71249899.ece"}, {"name": "Jaipur, Rajasthan, India", "cc": "IN", "lat": 26.917, "lon": 75.817, "n": 1, "art": 6, "url": "https://www.indiablooms.com/news/as-neet-protests-intensify-pm-modi-defends-govt-action-calls-for-foolproof-education-system/details"}, {"name": "Pompeii, Campania, Italy", "cc": "IT", "lat": 40.75, "lon": 14.483, "n": 1, "art": 10, "url": "https://www.bankingnews.gr/ta-paraksena/articles/889441/anatropi-aionon-stin-pompiia-to-profanes-stoixeio-pou-perase-aparatirito-den-pethanan-oloi"}, {"name": "Gaurnadi, Bangladesh (general), Bangladesh", "cc": "BG", "lat": 22.967, "lon": 90.233, "n": 1, "art": 10, "url": "http://www.sachalayatan.com/guest_writer/54791"}, {"name": "Orissa, Orissa, India", "cc": "IN", "lat": 20.5, "lon": 84.417, "n": 4, "art": 18, "url": "https://www.orissapost.com/students-return-to-jantar-mantar-day-after-parliament-march/"}, {"name": "Gambia", "cc": "GA", "lat": 13.5, "lon": -15.5, "n": 2, "art": 6, "url": "http://www.notiziegeopolitiche.net/mauritania-naufragio-sulla-rotta-atlantica-lunhcr-144-morti-o-dispersi/"}, {"name": "Macedonia", "cc": "MK", "lat": 41.833, "lon": 22.0, "n": 2, "art": 20, "url": "https://www.902.gr/eidisi/topiki-dioikisi/425264/dyt-makedonia-prasino-fos-tis-diadyma-gia-tin-karkinogona-kaysi"}, {"name": "Northern Territory, Northern Territory, Australia", "cc": "AS", "lat": -20.0, "lon": 134.0, "n": 1, "art": 10, "url": "https://www.abc.net.au/listen/programs/pm/protests-flare-over-nt-child-protection-laws/106941838"}, {"name": "South China Sea, Brunei (general), Brunei", "cc": "BX", "lat": 15.0, "lon": 115.0, "n": 2, "art": 3, "url": "https://www.nature.com/articles/d41586-026-02232-x"}, {"name": "Lingshui, Liaoning, China", "cc": "CH", "lat": 38.869, "lon": 121.517, "n": 2, "art": 2, "url": "https://www.nature.com/articles/d41586-026-02232-x"}, {"name": "Kashmir, North-West Frontier, Pakistan", "cc": "PK", "lat": 34.796, "lon": 72.15, "n": 2, "art": 12, "url": "https://dailythepatriot.com/kashmir-elections-the-other-side-of-the-picture/"}, {"name": "Vouliagmeni, Perifereia Attikis, Greece", "cc": "GR", "lat": 37.817, "lon": 23.783, "n": 1, "art": 6, "url": "https://www.inewsgr.com/383/kokkino-stous-dromous-tis-athinas-388-kameres-tha-katagrafoun-tis-paraviaseis---pou-bainei-i-techniti-noimosyni.htm"}, {"name": "Jauhar, Uttar Pradesh, India", "cc": "IN", "lat": 26.534, "lon": 79.89, "n": 1, "art": 5, "url": "https://www.prokerala.com/news/articles/a1790606.html"}, {"name": "Paynesville, Montserrado, Liberia", "cc": "LI", "lat": 6.276, "lon": -10.718, "n": 1, "art": 7, "url": "https://www.thenewdawnliberia.com/chaotic-weekend/"}, {"name": "Brazil", "cc": "BR", "lat": -10.0, "lon": -55.0, "n": 4, "art": 40, "url": "https://arede.info/ponta-grossa/662395/pg-registra-crescimento-de-111-na-abertura-de-empresas-no-primeiro-semestre-de-2026"}, {"name": "Germany", "cc": "GM", "lat": 51.5, "lon": 10.5, "n": 5, "art": 32, "url": "https://www.jns.org/opinion/michael-freund/crete-where-jewish-worlds-met"}, {"name": "New Jersey, United States", "cc": "US", "lat": 40.314, "lon": -74.509, "n": 2, "art": 9, "url": "https://www.rttnews.com/3668834/novo-nordisk-files-lawsuit-against-lilly-over-glp-1-advertising.aspx"}, {"name": "Slupsk, Pomorskie, Poland", "cc": "PL", "lat": 54.468, "lon": 17.027, "n": 1, "art": 2, "url": "https://radiogdansk.pl/wiadomosci/region/slupsk/2026/07/21/chinskie-autobusy-elektryczne-w-slupsku/"}, {"name": "Ankara, Ankara, Turkey", "cc": "TU", "lat": 39.927, "lon": 32.864, "n": 5, "art": 20, "url": "https://nportal.novosti.rs/vest/135492/vesti/planeta/ko-je-jevgenij-hmara-novi-ministar-odbrane-ukrajine-koga-je-imenovao-zelenski"}, {"name": "Istanbul, Istanbul, Turkey", "cc": "TU", "lat": 41.019, "lon": 28.965, "n": 3, "art": 22, "url": "https://www.finanznachrichten.de/nachrichten-2026-07/69083781-istanbul-technical-university-becomes-turkiye-s-top-ranked-university-in-qs-world-university-rankings-2027-200.htm"}, {"name": "Emilia-Romagna, Emilia-Romagna, Italy", "cc": "IT", "lat": 44.75, "lon": 11.0, "n": 1, "art": 8, "url": "https://www.umbriajournal.com/cronaca/morto-bologna-tgr-associazione-stampa-umbria-si-unisce-alla-protesta-per-il-servizio-non-trasmesso-646076/"}, {"name": "Konstantinovka, Odes'ka Oblast, Ukraine", "cc": "UP", "lat": 46.952, "lon": 29.971, "n": 2, "art": 12, "url": "https://aif.ru/politics/world/esli-zapad-razreshit-na-ukraine-zreet-bunt-lyudi-gotovy-linchevat-voenkomov"}, {"name": "Jersey", "cc": "JE", "lat": 49.217, "lon": -2.117, "n": 1, "art": 4, "url": "https://www.lopinion.fr/international/geopolitique-fiction-1-etats-unis-2027-vers-la-guerre-civile"}, {"name": "Philippines", "cc": "RP", "lat": 13.0, "lon": 122.0, "n": 4, "art": 32, "url": "https://www.antaranews.com/berita/5659584/china-personel-filipina-terdampar-ilegal-di-laut-china-selatan"}, {"name": "Luis Acatlan, Guanajuato, Mexico", "cc": "MX", "lat": 16.8, "lon": -98.917, "n": 1, "art": 6, "url": "https://www.jornada.com.mx/2026/07/21/estados/025n1est"}, {"name": "Belize", "cc": "BH", "lat": 17.25, "lon": -88.75, "n": 1, "art": 6, "url": "https://www.ilfattoquotidiano.it/2026/07/21/bruciano-sud-e-isole-in-calabria-fuoco-sul-pollino-e-a-catanzaro-scatta-linterrogazione-m5s-sulle-poche-risorse/8454700/"}, {"name": "Madhya Pradesh, Madhya Pradesh, India", "cc": "IN", "lat": 23.5, "lon": 78.5, "n": 7, "art": 29, "url": "https://www.freepressjournal.in/indore/nsui-protests-against-student-lathi-charge-in-mps-khandwa"}, {"name": "Kurukshetra, Haryana, India", "cc": "IN", "lat": 30.0, "lon": 76.75, "n": 4, "art": 4, "url": "https://www.orissapost.com/farmers-march-halted-at-haryana-border/"}, {"name": "Pinellas County, Florida, United States", "cc": "US", "lat": 27.896, "lon": -82.708, "n": 1, "art": 2, "url": "https://www.kasu.org/education-and-community-culture/2026-07-21/catch-the-devil-is-a-work-of-true-crime-that-indicts-the-justice-system"}, {"name": "Limassol, Limassol, Cyprus", "cc": "CY", "lat": 34.675, "lon": 33.033, "n": 1, "art": 10, "url": "https://kibrisgazetesi.com/mahkumlar-dunya-kupasi-finalini-izleyemedikleri-icin-yangin-cikarmis/"}, {"name": "Greece", "cc": "GR", "lat": 39.0, "lon": 22.0, "n": 6, "art": 56, "url": "https://www.sbctv.gr/2026/07/%CF%80%CE%B9%CE%BB%CE%BF%CF%84%CE%B9%CE%BA%CE%B1-%CF%81%CE%BF%CE%BC%CF%80%CE%BF%CF%84%CE%B1%CE%BE%CE%B9-tesla/"}, {"name": "Carevic, Macedonia (general), Macedonia", "cc": "MK", "lat": 41.356, "lon": 21.772, "n": 2, "art": 10, "url": "https://novamakedonija.com.mk/makedonija/besposhteden-borec-za-slobodata-i-za-makedonskite-nacionalni-vrednosti/"}, {"name": "Chisinau, Chisinau, Moldova", "cc": "MD", "lat": 47.006, "lon": 28.858, "n": 9, "art": 50, "url": "https://www.arabnews.com/node/2651772/world"}, {"name": "Khot, Haryana, India", "cc": "IN", "lat": 29.383, "lon": 76.167, "n": 1, "art": 8, "url": "https://economictimes.indiatimes.com/news/india/bjp-claims-opposition-is-fueling-terrorism-like-unrest-amid-protests-in-delhi/articleshow/132535726.cms"}, {"name": "Devonport, Plymouth, United Kingdom", "cc": "UK", "lat": 50.367, "lon": -4.183, "n": 1, "art": 10, "url": "https://www.proactiveinvestors.co.uk/companies/news/1095764/healy-appointment-lifts-the-defence-sector-and-the-footsie-1095764.html"}, {"name": "Abadan, Khuzestan, Iran", "cc": "IR", "lat": 30.339, "lon": 48.304, "n": 1, "art": 2, "url": "https://www.middle-east-online.com/en/trump-not-tehran-bears-brunt-anger-irans-bombed-south"}, {"name": "Iraq", "cc": "IZ", "lat": 33.0, "lon": 44.0, "n": 2, "art": 8, "url": "https://www.middle-east-online.com/en/trump-not-tehran-bears-brunt-anger-irans-bombed-south"}, {"name": "White House, District of Columbia, United States", "cc": "US", "lat": 38.895, "lon": -77.036, "n": 3, "art": 14, "url": "https://www.bakersfield.com/ap/national/ap-news-summary-at-4-41-p-m-edt/article_1d5178ea-58b5-5eda-95a6-8ec67f430f08.html"}, {"name": "Huelva, Andaluc\u00edSP, Spain", "cc": "SP", "lat": 37.271, "lon": -6.949, "n": 1, "art": 8, "url": "https://www.huelvainformacion.es/provincia/poesia-comprometida-vuelve-citarse-moguer-voces-extremo_0_2007546863.html"}, {"name": "Belarus", "cc": "BO", "lat": 53.0, "lon": 28.0, "n": 3, "art": 10, "url": "https://www.madhyamam.com/india/rapper-arivu-detained-over-neet-protest-in-chennai-1539236"}, {"name": "Ciuc, Romania (general), Romania", "cc": "RO", "lat": 46.217, "lon": 25.75, "n": 1, "art": 10, "url": "https://www.antena3.ro/politica/nicusor-dan-ii-cheama-miercuri-la-cotroceni-pe-liderii-partidelor-din-fosta-coalitie-pentru-legea-salarizarii-796417.html"}, {"name": "Tete, Tete, Mozambique", "cc": "MZ", "lat": -16.156, "lon": 33.587, "n": 1, "art": 10, "url": "https://allafrica.com/stories/202607210529.html"}, {"name": "Northern Ireland, Craigavon, United Kingdom", "cc": "UK", "lat": 54.5, "lon": -6.5, "n": 1, "art": 5, "url": "https://www.4ni.co.uk/northern-ireland-news/332635/ni-set-to-surpass-one-million-jobs-by-2032-ulster-university-outlook-says"}, {"name": "Bong County, Bong, Liberia", "cc": "LI", "lat": 7.0, "lon": -9.667, "n": 1, "art": 2, "url": "https://allafrica.com/stories/202607210391.html"}, {"name": "Minnesota, United States", "cc": "US", "lat": 45.733, "lon": -93.92, "n": 4, "art": 15, "url": "https://www.medicaldaily.com/canadian-wildfire-smoke-air-quality-alerts-midwest-northeast-july-2026-476208"}, {"name": "Angola", "cc": "AO", "lat": -12.5, "lon": 18.5, "n": 2, "art": 10, "url": "https://fr.allafrica.com/stories/202607210505.html"}, {"name": "Berlin, Berlin, Germany", "cc": "GM", "lat": 52.517, "lon": 13.4, "n": 1, "art": 10, "url": "https://iz.ru/2136064/2026-07-21/germaniia-i-velikobritaniia-razrabotaiut-dalnoboinuiu-krylatuiu-raketu-k-2034-godu"}, {"name": "Kashar, Tirane, Albania", "cc": "AL", "lat": 41.35, "lon": 19.71, "n": 1, "art": 10, "url": "https://abcnews.al/kanye-gonxhja-garantuam-eventin-me-te-madh-koncerti-solli-mbi-60-mije-spektatore-nga-80-vende-te-botes/"}, {"name": "Mancherial, Andhra Pradesh, India", "cc": "IN", "lat": 18.867, "lon": 79.433, "n": 1, "art": 10, "url": "https://timesofindia.indiatimes.com/city/hyderabad/congress-betrayed-every-section-of-the-society-ktr/articleshow/132536102.cms"}, {"name": "Padma, Barisal, Bangladesh", "cc": "BG", "lat": 22.021, "lon": 90.022, "n": 1, "art": 5, "url": "https://www.bssnews.net/district/407671"}, {"name": "Nettuno, Lazio, Italy", "cc": "IT", "lat": 41.45, "lon": 12.65, "n": 4, "art": 18, "url": "https://www.thelocal.it/20260721/meloni-urges-truth-after-death-of-moroccan-during-arrest"}, {"name": "East Java, Jawa Timur, Indonesia", "cc": "ID", "lat": -7.739, "lon": 112.51, "n": 2, "art": 18, "url": "https://beritajatim.com/gedung-kejati-jatim-digrebek-ratusan-mahasiswa-karangan-bunga-bikin-gejolak-soal-orang-istana"}, {"name": "Warangal, Andhra Pradesh, India", "cc": "IN", "lat": 18.0, "lon": 79.583, "n": 2, "art": 4, "url": "https://www.siasat.com/congress-not-el-nino-caused-drought-in-telangana-harish-rao-3510620/"}, {"name": "Katunayake, Western, Sri Lanka", "cc": "CE", "lat": 7.164, "lon": 79.876, "n": 3, "art": 10, "url": "https://www.globalcement.com/news/21017-local-residents-protest-proposed-grinding-plant-in-katunayake"}, {"name": "Vilnius, Vilniaus Apskritis, Lithuania", "cc": "LH", "lat": 54.683, "lon": 25.317, "n": 1, "art": 10, "url": "https://www.lrytas.lt/lietuvosdiena/aktualijos/2026/07/21/news/paaiskejo-kokiu-veiksmu-lietuva-imsis-del-baltarusijoje-esancio-a-kandroto-celofano-43211243/"}, {"name": "Veneto, Veneto, Italy", "cc": "IT", "lat": 45.699, "lon": 12.226, "n": 3, "art": 20, "url": "https://www.zazoom.it/2026-07-22/ok-alle-pre-intese-protesta-dellopposizione/19487149/"}, {"name": "Mitrovica, Mitrovica, Kosovo", "cc": "KV", "lat": 42.883, "lon": 20.867, "n": 1, "art": 10, "url": "https://www.slobodnaevropa.org/a/kosovo-srpski-tuzioci-ostavke/33808866.html"}, {"name": "Sirhind, Punjab, India", "cc": "IN", "lat": 30.646, "lon": 76.382, "n": 1, "art": 10, "url": "https://www.siasat.com/punjab-farmers-march-towards-delhi-against-india-us-deal-stopped-3510557/"}, {"name": "Tampa, Florida, United States", "cc": "US", "lat": 27.948, "lon": -82.458, "n": 3, "art": 15, "url": "https://www.wmnf.org/tampa-immigrant-rights-coalition-protest-downtown-oppose-ice/"}, {"name": "Madyar, Tatarstan, Russia", "cc": "RS", "lat": 55.957, "lon": 53.026, "n": 1, "art": 1, "url": "https://www.kyivpost.com/post/80764"}, {"name": "Skelya, Luhans'ka Oblast', Ukraine", "cc": "UP", "lat": 48.489, "lon": 38.424, "n": 3, "art": 4, "url": "https://www.kyivpost.com/post/80764"}, {"name": "Michigan, United States", "cc": "US", "lat": 43.35, "lon": -84.56, "n": 6, "art": 32, "url": "https://www.oann.com/newsroom/sen-warren-endorses-abdul-el-sayed-a-progressive-for-mich-u-s-senate-race/"}, {"name": "Philippine, Benguet, Philippines", "cc": "RP", "lat": 16.45, "lon": 120.55, "n": 1, "art": 1, "url": "https://www.globalsecurity.org/military/library/news/2026/07/mil-260721-globaltimes02.htm"}, {"name": "Riyadh, Ar Riya?, Saudi Arabia", "cc": "SA", "lat": 24.641, "lon": 46.773, "n": 2, "art": 10, "url": "https://www.jpost.com/middle-east/article-903216"}, {"name": "Sicily, Sicilia, Italy", "cc": "IT", "lat": 37.75, "lon": 14.25, "n": 1, "art": 10, "url": "https://www.tempostretto.it/news/vigili-del-fuoco-il-caso-messina-e-il-paradosso-dei-posti-zero.html"}, {"name": "Vienna, Wien, Austria", "cc": "AU", "lat": 48.2, "lon": 16.367, "n": 2, "art": 18, "url": "https://silver.ru/news/posol-moldavii-vyzvan-v-rossiyskiy-mid/"}, {"name": "East Timor", "cc": "TT", "lat": -8.833, "lon": 125.75, "n": 1, "art": 10, "url": "https://kupang.tribunnews.com/provinsi-ntt/972637/usai-konsultasi-kemendagri-bk-dprd-ttu-minta-pendapat-tiga-ahli-hukum"}, {"name": "Alexandria, Al Iskandariyah, Egypt", "cc": "EG", "lat": 31.198, "lon": 29.919, "n": 2, "art": 12, "url": "https://www.oann.com/newsroom/sen-warren-endorses-abdul-el-sayed-a-progressive-for-mich-u-s-senate-race/"}, {"name": "Highbury, Islington, United Kingdom", "cc": "UK", "lat": 51.55, "lon": -0.1, "n": 3, "art": 10, "url": "https://lfpress.com/news/local-news/major-london-road-closed-in-both-directions-after-crash-police"}, {"name": "Lebanon", "cc": "LE", "lat": 33.833, "lon": 35.833, "n": 6, "art": 30, "url": "https://www.rp.pl/polityka/art44848551-niemiecka-dyskusja-o-granicach-krytyki-panstwa-izrael"}, {"name": "Manila, Manila, Philippines", "cc": "RP", "lat": 14.604, "lon": 120.982, "n": 1, "art": 10, "url": "https://rg.ru/2026/07/21/talantov-mnogo-a-smert-odna.html"}, {"name": "Hadramaut, ?a?ramawt, Yemen", "cc": "YM", "lat": 15.0, "lon": 50.0, "n": 1, "art": 10, "url": "https://alwahdawi.net/news-38641"}, {"name": "Mahendragarh, Haryana, India", "cc": "IN", "lat": 28.283, "lon": 76.15, "n": 1, "art": 6, "url": "https://www.freepressjournal.in/india/haryana-govt-suspends-school-principal-after-students-sonam-wangchuk-protest-inquiry-finds-no-staff-role"}, {"name": "Sri Lanka", "cc": "CE", "lat": 7.0, "lon": 81.0, "n": 6, "art": 13, "url": "http://www.jpost.com/international/article-903187"}, {"name": "Managua, Managua, Nicaragua", "cc": "NU", "lat": 12.151, "lon": -86.268, "n": 2, "art": 20, "url": "https://www.infobae.com/panama/2026/07/21/gobierno-de-panama-llama-a-consultas-a-su-embajador-en-nicaragua-tras-declaraciones-de-ortega/"}, {"name": "Poland", "cc": "PL", "lat": 52.0, "lon": 20.0, "n": 1, "art": 1, "url": "https://24tv.ua/history/orden-bilogo-orla-yak-zyavilasya-nayvishha-nagoroda-polshhi_n3109108"}, {"name": "Kosovo", "cc": "KV", "lat": 42.583, "lon": 21.0, "n": 1, "art": 10, "url": "https://www.kosovarja-ks.com/arrestohet-nje-zyrtar-ne-prishtine-dyshohet-per-keqperdorim-detyre-dhe-falsifikim-dokumentesh/"}, {"name": "Casablanca, Grand Casablanca, Morocco", "cc": "MO", "lat": 33.59, "lon": -7.61, "n": 1, "art": 6, "url": "https://viajar.elperiodico.com/viajeros/refugio-grison-pueblo-jaen-medieval-abuelo-padre-madrid-132662343"}, {"name": "Madrid, Madrid, Spain", "cc": "SP", "lat": 40.4, "lon": -3.683, "n": 1, "art": 4, "url": "https://viajar.elperiodico.com/viajeros/refugio-grison-pueblo-jaen-medieval-abuelo-padre-madrid-132662343"}, {"name": "Cape Town, Western Cape, South Africa", "cc": "SF", "lat": -33.917, "lon": 18.417, "n": 4, "art": 20, "url": "https://www.sowetan.co.za/opinion/columnists/2026-07-21-malaika-mahlatsi-the-mandela-day-corporate-performance-that-demands-reflection/"}, {"name": "Peterborough, Peterborough, United Kingdom", "cc": "UK", "lat": 52.583, "lon": -0.25, "n": 1, "art": 10, "url": "https://www.aol.co.uk/articles/family-farm-tax-starmers-biggest-131700000.html"}, {"name": "Hooghly, West Bengal, India", "cc": "IN", "lat": 22.896, "lon": 88.403, "n": 1, "art": 10, "url": "https://www.prokerala.com/news/articles/a1790646.html"}, {"name": "Georgia, United States", "cc": "US", "lat": 32.987, "lon": -83.649, "n": 3, "art": 23, "url": "http://www.prnewswire.com/news-releases/park-street-homes-builds-on-the-legacy-of-juneteenth-with-groundbreaking-of-legacy-oaks-community-302831191.html"}, {"name": "Koltsovo, Sverdlovskaya Oblast', Russia", "cc": "RS", "lat": 56.775, "lon": 60.825, "n": 3, "art": 10, "url": "https://sib.fm:443/news/2026/07/21/iz-novolugovogo-v-koltsovo-zapustili-novuyu-marshrutku"}, {"name": "Bihar, Bihar, India", "cc": "IN", "lat": 25.183, "lon": 85.517, "n": 4, "art": 12, "url": "https://moneylife.in/article/dont-drag-court-into-this-delhi-hc-on-plea-alleging-use-of-excessive-force-by-police-against-cjp-protestors/81119.html"}, {"name": "Frankfurt, Brandenburg, Germany", "cc": "GM", "lat": 52.35, "lon": 14.55, "n": 1, "art": 2, "url": "https://www.presstv.ir/Detail/2026/07/21/772702/Germany-represses-dissent-targets-activists"}, {"name": "Zelenskiy, Astrakhanskaya Oblast', Russia", "cc": "RS", "lat": 48.291, "lon": 46.504, "n": 4, "art": 12, "url": "https://aif.ru/politics/world/zelenskiy-proigral-drapatyy-glavkom-vsu-fedorov-vozvrashchaetsya"}, {"name": "Lac Leman, Switzerland (general), Switzerland", "cc": "SZ", "lat": 46.444, "lon": 6.542, "n": 1, "art": 8, "url": "https://www.lequipe.fr/Cyclisme-sur-route/Actualites/Un-chrono-pour-specialistes-les-favoris-du-general-a-la-lutte-le-lac-leman-en-toile-de-fond-les-3-raisons-de-suivre-la-16e-etape-du-tour-de-france/1706110"}, {"name": "Mohanganj, Bangladesh (general), Bangladesh", "cc": "BG", "lat": 24.9, "lon": 90.983, "n": 2, "art": 10, "url": "https://dailyinqilab.com/bangladesh/news/919173"}, {"name": "Shoreditch, Hackney, United Kingdom", "cc": "UK", "lat": 51.533, "lon": -0.083, "n": 1, "art": 3, "url": "https://www.dazeddigital.com/fashion/article/70676/1/pure-sex-england-photos-relaunch-cult-80s-goth-brand-batcave-boy-london"}, {"name": "Roorkee, Uttaranchal, India", "cc": "IN", "lat": 29.867, "lon": 77.883, "n": 1, "art": 1, "url": "https://www.ibtimes.co.in/amid-cjp-protests-iit-roorkee-asks-students-staff-not-take-part-political-activity-904067"}, {"name": "Baku, Baki*, Azerbaijan", "cc": "AJ", "lat": 40.395, "lon": 49.882, "n": 1, "art": 10, "url": "https://vesti.az/socium/skoraya-pomoshh-stanet-bystree-na-ulicy-baku-vyezzayut-motobrigady-skoroi-foto-606029"}, {"name": "Sebastiao Goncalves, Minas Gerais, Brazil", "cc": "BR", "lat": -16.917, "lon": -41.733, "n": 1, "art": 10, "url": "https://www.gazetadigital.com.br/variedades/variedades/senac-celebra-formatura-da-primeira-turma-de-aprendizagem-formada-por-pessoas-com-deficiencia-em-sinop/853832"}, {"name": "Sofia, Sofiya-Grad, Bulgaria", "cc": "BU", "lat": 42.683, "lon": 23.317, "n": 2, "art": 20, "url": "https://neweasterneurope.eu/2026/07/21/bulgarias-radev-is-a-sovereigntist-but-still-an-atlanticist/"}, {"name": "Gandhinagar, Gujarat, India", "cc": "IN", "lat": 23.217, "lon": 72.683, "n": 1, "art": 3, "url": "https://organiser.org/2026/07/21/370981/bharat/bharat-beyond-western-lens-how-science-tech-education-defence-infrastructure-progress-are-powering-nations-rise/"}, {"name": "Lithuania", "cc": "LH", "lat": 56.0, "lon": 24.0, "n": 2, "art": 2, "url": "https://organiser.org/2026/07/21/370981/bharat/bharat-beyond-western-lens-how-science-tech-education-defence-infrastructure-progress-are-powering-nations-rise/"}, {"name": "Hong Kong", "cc": "HK", "lat": 22.25, "lon": 114.167, "n": 1, "art": 2, "url": "https://organiser.org/2026/07/21/370958/bharat/china-and-tibet-immolation-of-imposed-unity/"}, {"name": "Taiwan", "cc": "TW", "lat": 24.0, "lon": 121.0, "n": 1, "art": 8, "url": "https://organiser.org/2026/07/21/370958/bharat/china-and-tibet-immolation-of-imposed-unity/"}, {"name": "Huancan, Huanuco, Peru", "cc": "PE", "lat": -10.014, "lon": -76.334, "n": 1, "art": 10, "url": "https://diariocorreo.pe/opinion/veloces-como-tortugas-columna-de-paola-lazarte-noticia/"}, {"name": "Myanmar", "cc": "BM", "lat": 22.0, "lon": 98.0, "n": 1, "art": 1, "url": "https://havanatimes.org/news/international-news-briefs-for-tuesday-july-21-2026/"}, {"name": "Cairo, Al Qahirah, Egypt", "cc": "EG", "lat": 30.05, "lon": 31.25, "n": 1, "art": 10, "url": "https://www.agronews.gr/traveling/topikes-eidiseis/230298/apozimioseis-kai-hamiles-times-vrethikan-sto-epikedro-panelladikis-suskepsis-gia-rodakina-kai-kerasia/"}, {"name": "Taipei, T'ai-pei, Taiwan", "cc": "TW", "lat": 25.048, "lon": 121.532, "n": 1, "art": 10, "url": "https://www.securitylab.ru/news/575108.php"}, {"name": "Chad", "cc": "CD", "lat": 15.0, "lon": 19.0, "n": 1, "art": 10, "url": "https://www.alwihdainfo.com/tchad-adetic-renforce-la-police-nationale-avec-un-don-informatique-majeur/"}, {"name": "Kalyan, Maharashtra, India", "cc": "IN", "lat": 19.25, "lon": 73.15, "n": 1, "art": 6, "url": "https://www.sahilonline.net/neet-protest-rahul-gandhi-akhilesh-yadav-detained-outside-pms-residence"}, {"name": "Benin", "cc": "BN", "lat": 9.5, "lon": 2.25, "n": 2, "art": 16, "url": "https://www.theguardian.com/science/2026/jul/21/zendaya-faces-backlash-for-wearing-ancient-iranian-jewellery-at-odyssey-event"}, {"name": "Tamil Nadu, Tamil Nadu, India", "cc": "IN", "lat": 11.0, "lon": 78.0, "n": 5, "art": 38, "url": "http://www.calcuttanews.net/news/279201967/152-paper-leaks-from-2014-resign-first-congress-mp-manickam-tagore-slams-dharmendra-pradhan"}, {"name": "Dublin, Dublin, Ireland", "cc": "EI", "lat": 53.333, "lon": -6.249, "n": 2, "art": 10, "url": "https://www.chronicle.lu/category/business/62506-amnesty-international-urges-luxembourg-to-reject-new-israeli-bonds-prospectus"}, {"name": "Chang Gung Memorial Hospital, Taoyuan Xian, Taiwan", "cc": "TW", "lat": 25.062, "lon": 121.367, "n": 2, "art": 6, "url": "https://phnompenhpost.com/uncategorized/taiwan-healthcare-delegation-eyes-long-term-partnerships-with-cambodia-through-medical-innovation/"}, {"name": "Linkou, Tainan Municipality, Taiwan", "cc": "TW", "lat": 23.136, "lon": 120.488, "n": 2, "art": 4, "url": "https://phnompenhpost.com/uncategorized/taiwan-healthcare-delegation-eyes-long-term-partnerships-with-cambodia-through-medical-innovation/"}, {"name": "Palau", "cc": "PS", "lat": 6.0, "lon": 134.0, "n": 3, "art": 10, "url": "https://www.levante-emv.com/comunitat-valenciana/2026/07/21/cadena-humana-protesta-social-presupuestos-132669874.html"}, {"name": "Venelin, Varna, Bulgaria", "cc": "BU", "lat": 43.05, "lon": 27.667, "n": 2, "art": 10, "url": "https://dnes.dir.bg/politika/deputati-prieha-samoletite-na-sasht-v-bezmer-ministar-shte-uspokoyava-kmetovete-v-yambolsko"}, {"name": "Goiania, Goi\u00e1BR, Brazil", "cc": "BR", "lat": -16.667, "lon": -49.267, "n": 1, "art": 10, "url": "https://www.conjur.com.br/2026-jul-21/risco-acentuado-de-choque-da-direito-a-adicional-de-periculosidade/"}, {"name": "Monaghan, Monaghan, Ireland", "cc": "EI", "lat": 54.25, "lon": -6.967, "n": 2, "art": 10, "url": "https://www.anglocelt.ie/2026/07/21/irelands-largest-rooftop-solar-installation-underway-in-cavan/"}, {"name": "Valikamam North, Northern, Sri Lanka", "cc": "CE", "lat": 9.794, "lon": 80.039, "n": 2, "art": 8, "url": "https://www.tamilguardian.com/content/valikamam-north-residents-continue-protest-return-sri-lankan-military-occupied-lands"}, {"name": "Asabri, Jawa Timur, Indonesia", "cc": "ID", "lat": -7.636, "lon": 111.327, "n": 1, "art": 10, "url": "https://www.tempo.co/hukum/6-tuntutan-mahasiswa-ke-jaksa-soal-kasus-febrie-adriansyah-2277344"}, {"name": "Dadar, Sakha (Yakutiya), Russia", "cc": "RS", "lat": 62.917, "lon": 134.3, "n": 1, "art": 1, "url": "https://scroll.in/latest/1094427/rush-hour-congress-says-its-leaders-detained-outside-pm-house-punjab-farmers-march-halted-more"}, {"name": "Sydney, New South Wales, Australia", "cc": "AS", "lat": -33.883, "lon": 151.217, "n": 2, "art": 11, "url": "https://www.hindustantimes.com/world-news/us-news/from-michigan-to-mumbai-communities-are-asking-how-much-water-do-data-centres-use-101784206131351.html"}, {"name": "Reno, Nevada, United States", "cc": "US", "lat": 39.53, "lon": -119.814, "n": 2, "art": 10, "url": "https://www.reviewjournal.com/business/casinos-gaming/las-vegas-hospitality-braces-for-ai-but-automation-leads-the-way-3852921/"}, {"name": "Zaragoza, Baja California, Mexico", "cc": "MX", "lat": 32.533, "lon": -117.017, "n": 4, "art": 20, "url": "https://www.lavanguardia.com/cultura/20260721/11597832/cancons-grec-concierto-50-bonet.html"}, {"name": "Makhachkala, Dagestan, Russia", "cc": "RS", "lat": 42.976, "lon": 47.502, "n": 1, "art": 10, "url": "https://vm.ru/accidents/1344096-poluchal-vzyatki-kvartirami-za-chto-zaderzhali-eks-mera-kaspijska-goncova"}, {"name": "Louisiana, United States", "cc": "US", "lat": 31.18, "lon": -91.875, "n": 2, "art": 20, "url": "https://www.wbrz.com/news/louisiana-is-testing-a-new-voting-system-and-the-public-can-see-it-in-action-july-29"}, {"name": "Koura, S\u00e9u, Mali", "cc": "ML", "lat": 13.052, "lon": -4.388, "n": 1, "art": 8, "url": "https://sarabic.ae/20260721/1115376407.html"}, {"name": "Lajas, Pinar del R\u00edCU, Cuba", "cc": "CU", "lat": 22.583, "lon": -83.467, "n": 1, "art": 10, "url": "https://www.cubaheadlines.com/articles/335712"}, {"name": "Champaign, Illinois, United States", "cc": "US", "lat": 40.116, "lon": -88.243, "n": 1, "art": 4, "url": "https://www.news-gazette.com/news/local/courts-police-fire/champaign-man-gets-12-years-on-weapons-charges-after-2024-shootout/article_fd9e61a0-34f9-4757-989e-d7d02baeb450.html"}, {"name": "Ladakh, Jammu and Kashmir, India", "cc": "IN", "lat": 34.5, "lon": 77.5, "n": 4, "art": 10, "url": "https://www.tribuneindia.com/news/india/parallel-protests-over-neet-leak-expose-fault-lines-in-india-bloc/"}, {"name": "Geneva, Gen\u00e8, Switzerland", "cc": "SZ", "lat": 46.196, "lon": 6.148, "n": 1, "art": 10, "url": "https://latele.ch/articles/plus-de-3200-signatures-pour-bannir-les-nasses-policieres-a-geneve"}, {"name": "Legnica, Dolnoslaskie, Poland", "cc": "PL", "lat": 51.21, "lon": 16.162, "n": 1, "art": 8, "url": "https://fakty.ua/475630-v-polshe-zhencshina-izbila-dvuh-13-letnih-ukrainok-iz-za-ukrainskogo-yazyka"}, {"name": "Vancouver, British Columbia, Canada", "cc": "CA", "lat": 49.25, "lon": -123.133, "n": 2, "art": 14, "url": "https://www.christianitydaily.com:443/news/canadian-coptic-church-begins-new-chapter-after-devastating-arson.html"}, {"name": "Long Island Sound, New York, United States", "cc": "US", "lat": 41.097, "lon": -72.881, "n": 1, "art": 8, "url": "https://nypost.com/2026/07/21/us-news/top-doctor-lived-in-california-for-20-years-then-he-was-linked-to-a-truly-wicked-attack-3000-miles-away/"}, {"name": "Rhode Island, United States", "cc": "US", "lat": 41.677, "lon": -71.51, "n": 1, "art": 2, "url": "https://nypost.com/2026/07/21/us-news/top-doctor-lived-in-california-for-20-years-then-he-was-linked-to-a-truly-wicked-attack-3000-miles-away/"}, {"name": "Wesleyan University, Connecticut, United States", "cc": "US", "lat": 41.556, "lon": -72.656, "n": 1, "art": 2, "url": "https://thepienews.com/long-read-finding-international-student-scholarships-in-the-us-and-when-to-look-elsewhere/"}, {"name": "Patna, Bihar, India", "cc": "IN", "lat": 25.6, "lon": 85.117, "n": 2, "art": 16, "url": "https://timesofindia.indiatimes.com/city/patna/sanitation-workers-threaten-statewide-strike-on-july-30/articleshow/132541435.cms"}, {"name": "Priyanka, Ryazanskaya Oblast', Russia", "cc": "RS", "lat": 53.847, "lon": 40.109, "n": 3, "art": 8, "url": "https://www.dw.com/en/india-police-forcibly-remove-rahul-gandhi-from-protest-outside-modi-residence/live-78043926"}, {"name": "New Port Richey, Florida, United States", "cc": "US", "lat": 28.244, "lon": -82.719, "n": 2, "art": 8, "url": "https://www.newsweek.com/republican-bill-aims-to-stop-americans-footing-bill-for-data-centers-12222677"}, {"name": "Nijmegen, Gelderland, Netherlands", "cc": "NL", "lat": 51.833, "lon": 5.867, "n": 1, "art": 10, "url": "https://www.nrc.nl/nieuws/2026/07/21/voor-defensie-is-de-vierdaagse-ook-een-militaire-oefening-je-hebt-echte-mensen-je-hebt-bloed-en-je-hebt-massa-a4932966"}, {"name": "Noisy-Sur-Ecole, \u00cee-de-France, France", "cc": "FR", "lat": 48.367, "lon": 2.508, "n": 1, "art": 10, "url": "https://www.huffingtonpost.fr/france/article/ce-triste-record-temoigne-de-l-ampleur-des-feux-cet-ete-en-france_292353.html"}, {"name": "Jakarta, Jakarta Raya, Indonesia", "cc": "ID", "lat": -6.174, "lon": 106.829, "n": 4, "art": 20, "url": "https://media.sindonews.com/foto/view/73559/1/pameran-propak-indonesia-2026-hadirkan-inovasi-produksi-dan-kemasan"}, {"name": "Hancock County, Maine, United States", "cc": "US", "lat": 44.533, "lon": -68.4, "n": 1, "art": 6, "url": "https://www.thenation.com/article/politics/troy-jackson-maine-delegates-democratic-nomination-senate/"}, {"name": "Chile", "cc": "CI", "lat": -30.0, "lon": -71.0, "n": 1, "art": 8, "url": "https://www.elcaribe.com.do/opiniones/al-borde-del-caos/balaguer-promete-respetar-los-resultados-electorales/"}, {"name": "Almoradi, Valenciana, Spain", "cc": "SP", "lat": 38.109, "lon": -0.792, "n": 1, "art": 10, "url": "https://www.esdiario.com/castilla-la-mancha/260721/193787/aviso-hijo-destapa-confirma-crimen-machista-alameda-sagra-dio-voz-alarma-apunalamiento.html"}, {"name": "Josefina, Anzo\u00e1gui, Venezuela", "cc": "VE", "lat": 8.983, "lon": -63.7, "n": 1, "art": 10, "url": "https://www.elcaribe.com.do/opiniones/al-borde-del-caos/balaguer-promete-respetar-los-resultados-electorales/"}, {"name": "Cambodia", "cc": "CB", "lat": 13.0, "lon": 105.0, "n": 1, "art": 8, "url": "https://www.eurasiareview.com/21072026-telecommunication-fraud-china-is-a-victim-not-the-villain-oped/"}, {"name": "Thailand", "cc": "TH", "lat": 15.0, "lon": 100.0, "n": 1, "art": 2, "url": "https://www.eurasiareview.com/21072026-telecommunication-fraud-china-is-a-victim-not-the-villain-oped/"}, {"name": "Kyoto, Kyoto, Japan", "cc": "JA", "lat": 35.0, "lon": 135.75, "n": 1, "art": 10, "url": "https://www.lesinrocks.com/cinema/sous-le-ciel-de-kyoto-de-akiko-ohku-un-film-delicat-et-melancolique-sur-labsence-699704-21-07-2026/"}, {"name": "Ousmane, Kolda, Senegal", "cc": "SG", "lat": 12.85, "lon": -14.667, "n": 1, "art": 10, "url": "https://www.senenews.com/actualites/comment-diomaye-a-ete-trahi-ces-revelations-surprenantes-du-capitaine-toure_594301.html"}, {"name": "Abuja, Abuja Federal Capital Territory, Nigeria", "cc": "NI", "lat": 9.083, "lon": 7.533, "n": 3, "art": 21, "url": "https://blueprint.ng/labour-party-reaffirms-confidence-in-presidential-candidate-running-mate/"}, {"name": "Federal Capital Territory, Abuja Federal Capital Territory, Nigeria", "cc": "NI", "lat": 8.833, "lon": 7.167, "n": 3, "art": 4, "url": "https://blueprint.ng/2027-tinubus-re-election-a-done-deal-north-central-agenda-declares/"}, {"name": "Nagpur, Maharashtra, India", "cc": "IN", "lat": 21.15, "lon": 79.1, "n": 4, "art": 13, "url": "https://timesofindia.indiatimes.com/city/nagpur/protest-cases-to-be-dropped-if-no-chargesheet-filed-by-july-31/articleshow/132546512.cms"}, {"name": "Livorno, Toscana, Italy", "cc": "IT", "lat": 43.55, "lon": 10.317, "n": 1, "art": 10, "url": "https://www.ilgiorno.it/milano/cronaca/manifestazione-morte-fakir-b710a5jw"}, {"name": "Calcutta, West Bengal, India", "cc": "IN", "lat": 22.57, "lon": 88.37, "n": 1, "art": 10, "url": "https://deon.pl/wiara/salony-czy-tradycja-gdzie-w-tym-wszystkim-jest-ewangelia,3492283"}, {"name": "Yemen", "cc": "YM", "lat": 15.5, "lon": 47.5, "n": 2, "art": 10, "url": "https://vermelho.org.br/2026/07/21/escalada-dos-eua-contra-o-ira-abre-nova-frente-no-mar-vermelho/"}, {"name": "Afghanistan", "cc": "AF", "lat": 33.0, "lon": 66.0, "n": 1, "art": 2, "url": "https://pjmedia.com/catherinesalgado/2026/07/21/trump-calls-out-dems-for-helping-iran-savages-punishing-us-citizens-n4955286"}, {"name": "Metropolitan Museum Of Art, New York, United States", "cc": "US", "lat": 40.779, "lon": -73.963, "n": 1, "art": 1, "url": "https://www.artnews.com/art-news/news/richard-pousette-dart-foundation-donation-director-search-1234792920/"}, {"name": "Kunlunshan, Guangdong, China", "cc": "CH", "lat": 24.145, "lon": 116.875, "n": 2, "art": 10, "url": "https://www.globaltimes.cn/page/202607/1366476.shtml"}, {"name": "Mahipal, India (general), India", "cc": "IN", "lat": 25.5, "lon": 88.483, "n": 1, "art": 3, "url": "https://www.siasat.com/hyderabad-organisations-condemn-delhi-police-crackdown-on-students-3510804/"}, {"name": "Zvernec, Vlore, Albania", "cc": "AL", "lat": 40.515, "lon": 19.417, "n": 1, "art": 8, "url": "https://albeu.com/lajme/dita-e-52-te-e-protestes-qytetaret-zbresin-serish-ne-shesh-kerkohet-doreheqja-e-kryeministrit-rama/936875/"}, {"name": "Dhaka, Dhaka, Bangladesh", "cc": "BG", "lat": 23.723, "lon": 90.409, "n": 6, "art": 9, "url": "https://marxist.com/india-s-cockroaches-won-t-be-so-easily-crushed.htm"}, {"name": "Oregon, United States", "cc": "US", "lat": 44.567, "lon": -122.127, "n": 1, "art": 5, "url": "http://www.powelltribune.com/stories/groups-sue-over-administrations-intentions-to-strip-habitat-protections,176358"}, {"name": "Kaifan, Kuwait (general), Kuwait", "cc": "KU", "lat": 29.341, "lon": 47.963, "n": 1, "art": 2, "url": "http://www.arabherald.com/news/279201764/kuwait-lodges-formal-protest-with-iran-over-tanker-attack-ministry-says-power-station-fires-contained"}, {"name": "Roma, Lazio, Italy", "cc": "IT", "lat": 41.9, "lon": 12.483, "n": 1, "art": 12, "url": "http://www.bignewsnetwork.com/news/279201653/violence-erupts-in-italy-after-moroccan-man-killed-like-a-dog"}, {"name": "Imamoglu, Kastamonu, Turkey", "cc": "TU", "lat": 41.294, "lon": 34.384, "n": 1, "art": 2, "url": "https://www.bssnews.net/international/407756"}, {"name": "Ajmer City, Rajasthan, India", "cc": "IN", "lat": 26.45, "lon": 74.633, "n": 1, "art": 10, "url": "https://www.tarunmitra.in/state/rajasthan/ajmer-congress-protest-in-support-of-delhi-student-movement-effigy/article-154003"}, {"name": "Ciaotou, Tainan Municipality, Taiwan", "cc": "TW", "lat": 23.078, "lon": 120.278, "n": 2, "art": 10, "url": "https://www.taipeitimes.com/News/taiwan/archives/2026/07/22/2003861175"}, {"name": "Pawleys Island, South Carolina, United States", "cc": "US", "lat": 33.433, "lon": -79.121, "n": 1, "art": 2, "url": "https://www.dailykos.com/stories/2026/7/21/800072823/community/sc-pastor-facing-charges-for-allowing-a-registered-sex-offender-to/"}, {"name": "South Carolina, United States", "cc": "US", "lat": 33.819, "lon": -80.907, "n": 1, "art": 3, "url": "https://www.dailykos.com/stories/2026/7/21/800072823/community/sc-pastor-facing-charges-for-allowing-a-registered-sex-offender-to/"}, {"name": "Nariman Point, Maharashtra, India", "cc": "IN", "lat": 18.924, "lon": 72.819, "n": 3, "art": 18, "url": "https://www.freepressjournal.in/education/protests-grow-stonger-in-mumbai-on-second-day-as-over-1000-gather-at-shivaji-park-police-book-over-900-protesters-under-12-firs"}, {"name": "Mysuru, Karnataka, India", "cc": "IN", "lat": 12.307, "lon": 76.65, "n": 3, "art": 20, "url": "https://timesofindia.indiatimes.com/city/mysuru/students-protest-over-neet-irregularities-demand-ministers-resignation/articleshow/132543022.cms"}, {"name": "West Bank", "cc": "WE", "lat": 31.667, "lon": 35.25, "n": 1, "art": 2, "url": "https://www.pilotonline.com/2026/07/21/mohsen-mahdawi-appeals-court-decision/"}, {"name": "Konkan, Maharashtra, India", "cc": "IN", "lat": 18.083, "lon": 73.417, "n": 1, "art": 2, "url": "https://www.freepressjournal.in/analysis/left-or-right-exactly-what-path-will-the-opposition-alliance-take-in-maharashtra"}, {"name": "Abidjan, Lagunes, Cote D'ivoire", "cc": "IV", "lat": 5.341, "lon": -4.028, "n": 1, "art": 2, "url": "https://www.riotimesonline.com/africa-intelligence-brief-tuesday-july-21-2026/"}, {"name": "Neuquen, Neuqu\u00e9AR, Argentina", "cc": "AR", "lat": -38.952, "lon": -68.059, "n": 1, "art": 10, "url": "https://www.elimparcial.com/mundo/2026/07/21/tres-muertos-y-casi-20-heridos-durante-la-final-del-mundial-2026-asi-ocurrieron-los-incidentes-tras-la-derrota-de-argentina-ante-espana/"}, {"name": "Shanghai, Shanghai, China", "cc": "CH", "lat": 31.222, "lon": 121.458, "n": 1, "art": 8, "url": "https://www.unian.ua/techno/robota-kentavra-vpershe-u-sviti-prodemonstruvali-na-waic-2026-u-shanhaji-13447593.html"}, {"name": "Osmania University, Andhra Pradesh, India", "cc": "IN", "lat": 17.412, "lon": 78.525, "n": 2, "art": 10, "url": "https://www.punjabkesari.com/india-news/hindi-hyderabad-police-stop-protesting-students-from-marching-towards-lok-bhavan/"}, {"name": "Walvis Bay, Erongo, Namibia", "cc": "WA", "lat": -22.957, "lon": 14.505, "n": 1, "art": 10, "url": "https://www.namibtimes.net/wfs-opens-modern-office-extension/"}, {"name": "Alizz, Al Mintaqah ash Sharqiyah, Oman", "cc": "MU", "lat": 22.554, "lon": 58.686, "n": 4, "art": 8, "url": "https://www.omanobserver.om/article/1193237/business/islamic-banking-hits-19-of-omans-banking-assets-sp"}, {"name": "Utah, United States", "cc": "US", "lat": 40.114, "lon": -111.854, "n": 3, "art": 17, "url": "https://www.moabtimes.com/articles/motivated-by-love-utahns-find-strength-in-numbers-during-protest-of-trumps-monument-slashing/"}, {"name": "Salt Lake City, Utah, United States", "cc": "US", "lat": 40.761, "lon": -111.891, "n": 1, "art": 2, "url": "https://www.moabtimes.com/articles/motivated-by-love-utahns-find-strength-in-numbers-during-protest-of-trumps-monument-slashing/"}, {"name": "Entre Rios, Salta, Argentina", "cc": "AR", "lat": -23.3, "lon": -64.3, "n": 4, "art": 20, "url": "https://www.aimdigital.com.ar/politica/organizaciones-sociales-y-sindicales-confluirn-en-una-jornada-nacional-de-lucha-en-paran.htm"}, {"name": "Tulcea, Tulcea, Romania", "cc": "RO", "lat": 45.167, "lon": 28.8, "n": 1, "art": 10, "url": "https://stirileprotv.ro/stiri/actualitate/animatie-scenariul-catastrofal-luat-in-calcul-daca-explodeaza-petrolierul-cu-propan-de-langa-sfantu-gheorghe-ce-este-fenome.html"}, {"name": "Cloverdale, Oregon, United States", "cc": "US", "lat": 43.925, "lon": -122.967, "n": 1, "art": 4, "url": "https://www.nuggetnews.com/story/2026/07/22/news/fire-suppression-system-demonstrated/39319.html"}, {"name": "Himachal Pradesh, Himachal Pradesh, India", "cc": "IN", "lat": 31.917, "lon": 77.25, "n": 6, "art": 10, "url": "https://aninews.in/news/national/politics/after-court-directed-hospital-transfer-wangchuk-continues-fast-amid-ongoing-protests20260721231942/"}, {"name": "Libertad, Ciudad de La Habana, Cuba", "cc": "CU", "lat": 23.05, "lon": -82.267, "n": 2, "art": 10, "url": "https://www.cubaheadlines.com/articles/335744"}, {"name": "Dallas, Texas, United States", "cc": "US", "lat": 32.783, "lon": -96.807, "n": 1, "art": 2, "url": "https://www.sunjournal.com/2026/07/21/rangeley-logging-festival-returns-with-weekend-of-logging-forestry-events/"}, {"name": "Philadelphia, Pennsylvania, United States", "cc": "US", "lat": 39.952, "lon": -75.164, "n": 2, "art": 4, "url": "https://www.pakistanlink.org/Headlines/July26/17/04.htm"}, {"name": "Georgetown University, District of Columbia, United States", "cc": "US", "lat": 38.907, "lon": -77.073, "n": 1, "art": 6, "url": "https://www.pakistanlink.org/Headlines/July26/17/04.htm"}, {"name": "Poonch, Azad Kashmir, Pakistan", "cc": "PK", "lat": 33.817, "lon": 73.825, "n": 2, "art": 10, "url": "https://www.pakistanlink.org/Headlines/July26/17/08.htm"}, {"name": "Houston, Texas, United States", "cc": "US", "lat": 29.763, "lon": -95.363, "n": 3, "art": 14, "url": "https://www.sacurrent.com/news/judge-blocks-feds-from-deporting-witness-to-houston-ice-shooting/"}, {"name": "Mauritania", "cc": "MR", "lat": 20.0, "lon": -12.0, "n": 1, "art": 6, "url": "http://www.notiziegeopolitiche.net/mauritania-naufragio-sulla-rotta-atlantica-lunhcr-144-morti-o-dispersi/"}, {"name": "Madlanga, Eastern Cape, South Africa", "cc": "SF", "lat": -30.982, "lon": 29.263, "n": 1, "art": 10, "url": "https://www.dailymaverick.co.za/article/2026-07-21-npa-deciding-my-fate-over-feroz-khan-accusations-idac-boss-andrea-johnson/"}, {"name": "Vasil Levski, Dobrich, Bulgaria", "cc": "BU", "lat": 43.417, "lon": 28.167, "n": 1, "art": 5, "url": "https://www.novinite.com/articles/239749/Bulgaria:+Defense+Committee+Approves+Deployment+of+8+US+Tanker+Aircraft+at+Bezmer+Base"}, {"name": "Dominican Republic", "cc": "DR", "lat": 19.0, "lon": -70.667, "n": 4, "art": 15, "url": "https://dominicanrepublicpost.com/police-arrest-indian-opposition-leader-gandhi-as-protests-continue-to-grow/"}, {"name": "Wadala, Maharashtra, India", "cc": "IN", "lat": 20.383, "lon": 73.983, "n": 1, "art": 10, "url": "https://www.freepressjournal.in/education/protests-grow-stonger-in-mumbai-on-second-day-as-over-1000-gather-at-shivaji-park-police-book-over-900-protesters-under-12-firs"}, {"name": "Vermont, United States", "cc": "US", "lat": 44.041, "lon": -72.709, "n": 1, "art": 2, "url": "https://www.theepochtimes.com/us/appeals-court-blocks-release-of-palestinian-student-in-vermont-6065179"}, {"name": "Great Lakes, Michigan, United States", "cc": "US", "lat": 45.688, "lon": -84.438, "n": 1, "art": 5, "url": "https://www.newsweek.com/data-centers-ai-prompt-locations-response-12223903"}, {"name": "Grenada", "cc": "GJ", "lat": 12.117, "lon": -61.667, "n": 2, "art": 15, "url": "https://grenadachronicle.com/police-arrest-indian-opposition-leader-gandhi-as-protests-continue-to-grow/"}, {"name": "Kherson, Khersons'ka Oblast', Ukraine", "cc": "UP", "lat": 46.656, "lon": 32.618, "n": 3, "art": 16, "url": "https://zn.ua/ukr/war/sirskoho-zvilnili-z-posadi-holovkoma.html"}, {"name": "Bhinga, Uttar Pradesh, India", "cc": "IN", "lat": 27.717, "lon": 81.933, "n": 1, "art": 10, "url": "https://timesofindia.indiatimes.com/city/lucknow/shravasti-court-sentences-man-two-sons-to-life-for-neighbours-murder-over-land-row/articleshow/132546520.cms"}, {"name": "Sallins, Kildare, Ireland", "cc": "EI", "lat": 53.249, "lon": -6.666, "n": 1, "art": 4, "url": "https://www.hotpress.com/opinion/osgur-breatnach-granted-miscarriage-of-justice-certificate-over-sallins-mail-train-robbery-conviction-23153246"}, {"name": "Stockholm, Stockholm, Sweden", "cc": "SW", "lat": 59.333, "lon": 18.05, "n": 2, "art": 8, "url": "http://www.jpost.com/diaspora/antisemitism/article-903219"}, {"name": "Ushuaia, Tierra del Fuego, Ant\u00e1ida e Islas del Atl\u00e1ico Sur, Argentina", "cc": "AR", "lat": -54.8, "lon": -68.3, "n": 1, "art": 8, "url": "https://nuevodia.com.ve/raton-colilargo-el-animal-vinculado-a-la-cepa-andina-del-hantavirus/"}, {"name": "Bahraich, Uttar Pradesh, India", "cc": "IN", "lat": 27.583, "lon": 81.6, "n": 1, "art": 5, "url": "https://timesofindia.indiatimes.com/city/lucknow/new-up-will-not-accept-fair-memorials-for-invaders-yogi/articleshow/132546591.cms"}, {"name": "Heraklion, Perifereia Kritis, Greece", "cc": "GR", "lat": 35.325, "lon": 25.131, "n": 2, "art": 7, "url": "https://www.jns.org/opinion/michael-freund/crete-where-jewish-worlds-met"}, {"name": "Gortyna, Perifereia Kritis, Greece", "cc": "GR", "lat": 35.078, "lon": 25.013, "n": 1, "art": 2, "url": "https://www.jns.org/opinion/michael-freund/crete-where-jewish-worlds-met"}, {"name": "Bucharest, Bucuresti, Romania", "cc": "RO", "lat": 44.433, "lon": 26.1, "n": 1, "art": 10, "url": "https://ziare.com/turism-evenimente/alexandru-nazare-stie-poate-deveni-romania-destinatie-turism-evenimente-2025531"}, {"name": "Muscogee County, Georgia, United States", "cc": "US", "lat": 32.501, "lon": -84.867, "n": 1, "art": 5, "url": "https://www.gpb.org/news/2026/07/21/group-gathers-in-downtown-columbus-rally-against-data-centers-lack-of-transparency"}, {"name": "Edneyville, North Carolina, United States", "cc": "US", "lat": 35.394, "lon": -82.341, "n": 4, "art": 9, "url": "https://www.hendersonvillelightning.com/four-seasons-politics/16205-at-a-campaign-stop-in-edneyville-whatley-vows-to-work-for-farmers.html"}, {"name": "Henderson County, North Carolina, United States", "cc": "US", "lat": 35.35, "lon": -82.466, "n": 2, "art": 4, "url": "https://www.hendersonvillelightning.com/four-seasons-politics/16205-at-a-campaign-stop-in-edneyville-whatley-vows-to-work-for-farmers.html"}, {"name": "Agrinio, Perifereia Dytikis Elladas, Greece", "cc": "GR", "lat": 38.621, "lon": 21.408, "n": 1, "art": 10, "url": "https://www.aixmi-news.gr/megali-kinitopoiisi-sti-raina-skoutesiadas-gia-tin-prostasia-tou-fysikou-perivallontos/"}, {"name": "Kursk, Kurskaya Oblast', Russia", "cc": "RS", "lat": 51.737, "lon": 36.187, "n": 7, "art": 19, "url": "https://globalnews.ca/news/11974902/ukraine-zelenskyy-army-chief-replaced/"},