[{"name": "Ankara, Ankara, Turkey", "cc": "TU", "lat": 39.927, "lon": 32.864, "n": 27, "art": 185, "url": "https://bianet.org/haber/ankara-summit-set-to-shape-nato-3-0-transformation-321228"}, {"name": "Washington, District of Columbia, United States", "cc": "US", "lat": 38.895, "lon": -77.036, "n": 22, "art": 128, "url": "https://blackamericaweb.com/2026/07/06/dl-hughley-ged-section-white-nationalism-independence-day/"}, {"name": "Gaza, Israel (general), Israel", "cc": "IS", "lat": 31.417, "lon": 34.333, "n": 14, "art": 56, "url": "https://www.arabnews.com/node/2649874"}, {"name": "Istanbul, Istanbul, Turkey", "cc": "TU", "lat": 41.019, "lon": 28.965, "n": 15, "art": 112, "url": "https://www.elmundo.es/internacional/2026/07/07/6a4a8d54fc6c839f198b458c.html"}, {"name": "Karbala, Karbala', Iraq", "cc": "IZ", "lat": 32.598, "lon": 44.017, "n": 2, "art": 20, "url": "https://www.echoroukonline.com/le-cercueil-de-lancien-guide-supreme-iranien-ali-khamenei-porte-lors-de-la-procession-funeraire-a-teheran"}, {"name": "Tehran, Tehran, Iran", "cc": "IR", "lat": 35.75, "lon": 51.515, "n": 31, "art": 201, "url": "https://www.ibtimes.co.in/kill-trump-iranians-chant-throw-stones-his-photo-during-khamenei-funeral-903614"}, {"name": "Turkey", "cc": "TU", "lat": 39.059, "lon": 34.912, "n": 16, "art": 142, "url": "https://www.ara.cat/internacional/europa/rutte-amenaca-noves-maneres-convencer-espanya-perque-gasti-mes-defensa_1_5790799.html"}, {"name": "Virginia, United States", "cc": "US", "lat": 37.768, "lon": -78.206, "n": 12, "art": 46, "url": "https://www.uol.com.br/splash/noticias/2026/07/06/jendal-tranca-kenia-em-cela-e-deixa-a-filha-por-um-triz-em-a-nobreza-do-amor.ghtm"}, {"name": "Iran", "cc": "IR", "lat": 32.0, "lon": 53.0, "n": 9, "art": 51, "url": "https://politicalwire.com/2026/07/06/iran-begins-funeral-procession-for-supreme-leader/"}, {"name": "Abuja, Abuja Federal Capital Territory, Nigeria", "cc": "NI", "lat": 9.083, "lon": 7.533, "n": 4, "art": 18, "url": "https://blueprint.ng/how-ismail-abba-yusuf-delivered-a-remarkable-2026-hajj-operations/"}, {"name": "Shiv, Rajasthan, India", "cc": "IN", "lat": 26.183, "lon": 71.25, "n": 10, "art": 37, "url": "https://timesofindia.indiatimes.com/city/mumbai/maharashtra-legislature-closes-early-owing-to-heavy-rainfall/articleshow/132220473.cms"}, {"name": "Ebenezer Baptist Church, District of Columbia, United States", "cc": "US", "lat": 38.911, "lon": -77.011, "n": 2, "art": 10, "url": "https://lancasteronline.com/news/local/lancaster-residents-give-public-reading-of-frederick-douglasss-response-to-july-4/article_db1a3db9-115f-497f-8627-08d091088d97.html"}, {"name": "Mount Rushmore, South Dakota, United States", "cc": "US", "lat": 43.88, "lon": -103.459, "n": 2, "art": 3, "url": "https://www.mitchellrepublic.com/news/south-dakota/no-protesters-appear-for-trumps-mount-rushmore-fireworks-six-years-after-clash-resulted-in-arrests"}, {"name": "Mumbai, Maharashtra, India", "cc": "IN", "lat": 18.975, "lon": 72.826, "n": 6, "art": 28, "url": "https://www.freepressjournal.in/mumbai/mumbai-municipal-engineers-union-protests-suspension-of-bmc-engineers-over-monsoon-related-incidents-seeks-revocation-of-action"}, {"name": "Moscow, Moskva, Russia", "cc": "RS", "lat": 55.752, "lon": 37.616, "n": 26, "art": 140, "url": "https://thefrontierpost.com/britain-sanctions-russian-scientists-behind-chemical-attacks/"}, {"name": "Teberda, Karachayevo-Cherkesiya, Russia", "cc": "RS", "lat": 43.446, "lon": 41.745, "n": 1, "art": 6, "url": "https://www.eng.kavkaz-uzel.eu/articles/76694"}, {"name": "Nukulau, Western, Fiji", "cc": "FJ", "lat": -17.65, "lon": 178.133, "n": 1, "art": 10, "url": "https://fijisun.com.fj:443/news/politics/opinion-rethink-fijis-democracy-model"}, {"name": "Morelos, M\u00e9co, Mexico", "cc": "MX", "lat": 19.601, "lon": -99.052, "n": 3, "art": 20, "url": "https://guerrero.quadratin.com.mx/le-gritan-violador-y-asesino-al-cuau-y-vandalizan-su-camioneta/"}, {"name": "Bolivia", "cc": "BL", "lat": -17.0, "lon": -65.0, "n": 2, "art": 20, "url": "https://dialogosdosul.operamundi.uol.com.br/7-semanas-de-protestos-aliado-de-evo-ve-renuncia-de-paz-como-saida-para-crise-boliviana/"}, {"name": "Kashmir, North-West Frontier, Pakistan", "cc": "PK", "lat": 34.796, "lon": 72.15, "n": 10, "art": 39, "url": "https://thefrontierpost.com/protest-leaders-say-fresh-clashes-in-azad-kashmir-kill-two-as-police-contest-claim/"}, {"name": "Islamabad, Islamabad, Pakistan", "cc": "PK", "lat": 33.7, "lon": 73.167, "n": 4, "art": 19, "url": "https://ianslive.in/rights-groups-stage-protest-over-increasing-sexual-harassment-cases-in-pakistan--20260706125040"}, {"name": "Muzaffarabad, Punjab, Pakistan", "cc": "PK", "lat": 30.134, "lon": 71.368, "n": 1, "art": 8, "url": "http://www.heraldglobe.com/news/279169128/extend-full-solidarity-with-pojk-people-j-k-activist-javed-ahmad-beigh-amid-protest-against-pak-tyranny"}, {"name": "Syria", "cc": "SY", "lat": 35.0, "lon": 38.0, "n": 5, "art": 18, "url": "https://www.newsit.gr/kosmos/synodos-nato-frourio-i-agkyra-gia-ton-tramp-1-000-atoma-stin-amerikaniki-apostoli-elegxoi-me-aktines-x-sto-ksenodoxeio-opou-tha-menei/4721798/"}, {"name": "Hollywood, California, United States", "cc": "US", "lat": 34.098, "lon": -118.327, "n": 3, "art": 15, "url": "https://www.telerama.fr/cinema/films/coup-de-foudre-a-notting-hill,46934.php"}, {"name": "Tangkak, Johor, Malaysia", "cc": "MY", "lat": 2.267, "lon": 102.545, "n": 1, "art": 10, "url": "https://www.thestar.com.my/metro/metro-news/2026/07/06/better-healthcare-financial-share-for-tangkaks-welfare"}, {"name": "Tirana, Tirane, Albania", "cc": "AL", "lat": 41.328, "lon": 19.819, "n": 24, "art": 245, "url": "https://www.syri.net/politike/901473/protesta-e-37-te-qytetare-protestuesit-nisin-marshimin-ne-rruget-e-tiranes-rama-jepe-doreheqjen/"}, {"name": "La Paz, La Paz, Bolivia", "cc": "BL", "lat": -16.5, "lon": -68.15, "n": 2, "art": 20, "url": "https://www.infobae.com/america/america-latina/2026/07/06/fiscalia-de-bolivia-pide-seis-meses-de-prision-preventiva-para-uno-de-los-lideres-de-los-bloqueos/"}, {"name": "Seoul, Soul-t'ukpyolsi, South Korea", "cc": "KS", "lat": 37.566, "lon": 127.0, "n": 5, "art": 43, "url": "https://www.koreatimes.co.kr/southkorea/society/20260707/one-doctor-one-nicu-100-hour-workweeks-koreas-neonatal-care-crisis"}, {"name": "France", "cc": "FR", "lat": 46.0, "lon": 2.0, "n": 15, "art": 110, "url": "https://www.sudouest.fr/societe/presomption-d-usage-des-armes-par-les-forces-de-l-ordre-le-debat-s-intensifie-a-l-assemblee-29826319.php"}, {"name": "Sydney, New South Wales, Australia", "cc": "AS", "lat": -33.883, "lon": 151.217, "n": 1, "art": 8, "url": "https://brobible.com/culture/article/parmesan-cheese-microwave-puffs/"}, {"name": "Kano, Kano, Nigeria", "cc": "NI", "lat": 11.996, "lon": 8.517, "n": 1, "art": 2, "url": "https://theshout.com.au/central-otago-crowns-young-wine-talent/"}, {"name": "Bendigo, New Zealand (general), New Zealand", "cc": "NZ", "lat": -44.917, "lon": 169.35, "n": 2, "art": 8, "url": "https://theshout.com.au/central-otago-crowns-young-wine-talent/"}, {"name": "Santa Clara, Villa Clara, Cuba", "cc": "CU", "lat": 22.167, "lon": -79.767, "n": 1, "art": 5, "url": "https://www.cubaheadlines.com/articles/334291"}, {"name": "Prague, Praha, Hlavn\u00edesto, Czech Republic", "cc": "EZ", "lat": 50.083, "lon": 14.467, "n": 2, "art": 15, "url": "https://www.express.co.uk/travel/articles/2225701/spain-warning-ryanair-7-worst-airports-delays"}, {"name": "Catia La Mar, Vargas, Venezuela", "cc": "VE", "lat": 10.604, "lon": -67.03, "n": 3, "art": 5, "url": "https://www.cubaheadlines.com/articles/334288"}, {"name": "White House, District of Columbia, United States", "cc": "US", "lat": 38.895, "lon": -77.036, "n": 5, "art": 30, "url": "https://ipowerrichmond.com/4568574/patriot-front-marches-around-us-capitol/"}, {"name": "Missouri, United States", "cc": "US", "lat": 38.462, "lon": -92.302, "n": 2, "art": 8, "url": "https://fox4beaumont.com/news/connect-to-congress/hawley-defends-decision-to-object-saying-he-would-not-bow-to-a-lawless-mob"}, {"name": "Durres, Qarku i Durresit, Albania", "cc": "AL", "lat": 41.323, "lon": 19.441, "n": 2, "art": 8, "url": "https://telegraf.al/dosier/jovan-bizhyti-prifti-me-kobure-i-llenges-partizani-qe-pas-clirimit-drejtoi-komitetin-ekzekutiv-te-pogradecit-i-veshur-me-kamillaf-dhe-veladonin-e-klerikut/"}, {"name": "New Delhi, Delhi, India", "cc": "IN", "lat": 28.6, "lon": 77.2, "n": 5, "art": 40, "url": "https://www.livehindustan.com/business/cochin-shipyard-ofs-government-sells-5-04-pc-stake-share-price-1400-check-details-201783359113980.html"}, {"name": "Israel", "cc": "IS", "lat": 31.5, "lon": 34.75, "n": 21, "art": 176, "url": "https://www.9tv.co.il/item/256333"}, {"name": "Beijing, Beijing, China", "cc": "CH", "lat": 39.929, "lon": 116.388, "n": 13, "art": 60, "url": "https://index.hu/kulfold/2026/07/06/kina-ballisztikus-raketa-atomtengeralattjaro-teszt-csendes-ocean/"}, {"name": "Malaca, Pangasinan, Philippines", "cc": "RP", "lat": 15.833, "lon": 120.378, "n": 1, "art": 3, "url": "https://asianews.network/philippine-vp-sara-dutertes-political-future-at-stake-as-trial-opens/"}, {"name": "Manila, Manila, Philippines", "cc": "RP", "lat": 14.604, "lon": 120.982, "n": 4, "art": 20, "url": "https://www.manilatimes.net/2026/07/06/news/protesters-to-senator-judges-the-people-are-watching/2378796"}, {"name": "Philippine, Benguet, Philippines", "cc": "RP", "lat": 16.45, "lon": 120.55, "n": 1, "art": 2, "url": "https://asianews.network/philippine-vp-sara-dutertes-political-future-at-stake-as-trial-opens/"}, {"name": "Texas, United States", "cc": "US", "lat": 31.106, "lon": -97.647, "n": 2, "art": 14, "url": "https://theintercept.com/2026/07/03/antifa-prairieland-protests-terrorism-conspiracy/"}, {"name": "Fort Worth, Texas, United States", "cc": "US", "lat": 32.725, "lon": -97.321, "n": 1, "art": 1, "url": "https://theintercept.com/2026/07/03/antifa-prairieland-protests-terrorism-conspiracy/"}, {"name": "Brattleboro, Vermont, United States", "cc": "US", "lat": 42.851, "lon": -72.558, "n": 1, "art": 4, "url": "https://www.reformer.com/business/over-the-horizon-bdcc-to-host-regional-leadership-forum-on-vermont-s-fiscal-future/article_24dce980-16d9-4f3f-a7e9-fc195c7e6ace.html"}, {"name": "Vermont, United States", "cc": "US", "lat": 44.041, "lon": -72.709, "n": 5, "art": 24, "url": "https://www.centralmaine.com/2026/07/06/maine-women-accuses-graham-platner-of-rape-politico-reports-story-tk/"}, {"name": "Thomas Academy, Washington, United States", "cc": "US", "lat": 47.35, "lon": -122.23, "n": 1, "art": 8, "url": "https://www.catholicworldreport.com/2026/07/05/12-catholic-americans-who-helped-shape-the-united-states/"}, {"name": "Ireland", "cc": "EI", "lat": 53.0, "lon": -8.0, "n": 2, "art": 12, "url": "https://www2.fundsforngos.org/cat/nominations-open-gsk-impact-award-2027-united-kingdom/"}, {"name": "Italy", "cc": "IT", "lat": 42.833, "lon": 12.833, "n": 3, "art": 22, "url": "https://www.anconatoday.it/politica/italia-viva-critica-no-bus-navetta-borghi-portonovo-2026.html"}, {"name": "Amaravati, Tamil Nadu, India", "cc": "IN", "lat": 10.017, "lon": 78.783, "n": 1, "art": 1, "url": "https://www.thehindubusinessline.com/specials/emerging-entrepreneurs/biz-built-at-quantum-computing-speed/article71186750.ece"}, {"name": "Bengaluru, Karnataka, India", "cc": "IN", "lat": 12.983, "lon": 77.583, "n": 1, "art": 4, "url": "https://www.thehindubusinessline.com/specials/emerging-entrepreneurs/biz-built-at-quantum-computing-speed/article71186750.ece"}, {"name": "Vadodara, Gujarat, India", "cc": "IN", "lat": 22.3, "lon": 73.2, "n": 1, "art": 5, "url": "https://indianexpress.com/article/political-pulse/manjalpur-bypoll-yogesh-patel-bjp-gujarat-10772980/"}, {"name": "Shanghai, Shanghai, China", "cc": "CH", "lat": 31.222, "lon": 121.458, "n": 1, "art": 8, "url": "https://www.wsws.org/en/articles/2026/07/06/rypq-j06.html"}, {"name": "Prinkipo, Istanbul, Turkey", "cc": "TU", "lat": 40.868, "lon": 29.133, "n": 1, "art": 2, "url": "https://www.wsws.org/en/articles/2026/07/06/rypq-j06.html"}, {"name": "Hefei, Anhui, China", "cc": "CH", "lat": 31.864, "lon": 117.281, "n": 1, "art": 10, "url": "http://english.anhuinews.com/newscenter/headline/202607/t20260706_9370594.html"}, {"name": "Albania", "cc": "AL", "lat": 41.0, "lon": 20.0, "n": 16, "art": 150, "url": "https://sot.com.al/aktualitet/rama-nuk-e-genjen-dot-nje-popull-te-tere-i-riu-nga-diaspora-i-bashkohet-protestes-naltmadhnia-flet-ne-bruksel/"}, {"name": "Shifa, Ha?afon, Israel", "cc": "IS", "lat": 32.45, "lon": 35.533, "n": 1, "art": 2, "url": "https://imemc.org/article/gaza-israeli-attacks-health-system-breakdown-and-stalled-ceasefire/"}, {"name": "California, United States", "cc": "US", "lat": 36.17, "lon": -119.746, "n": 11, "art": 51, "url": "https://www.kalw.org/bay-area-news/2026-07-06/environmentalist-rally-against-changes-to-states-greenhouse-emissions-program"}, {"name": "Lagos State, Lagos, Nigeria", "cc": "NI", "lat": 6.583, "lon": 3.75, "n": 1, "art": 4, "url": "https://thenationonlineng.net/ikosi-isheri-youths-stage-solidarity-walk-for-tinubu-hamzat/"}, {"name": "Ibadan, Oyo, Nigeria", "cc": "NI", "lat": 7.388, "lon": 3.896, "n": 4, "art": 14, "url": "https://pmnewsnigeria.com/2026/07/06/oyo-abductees-peter-obi-asks-tinubu-to-resign-or-not-to-seek-reelection/"}, {"name": "Pakistan", "cc": "PK", "lat": 30.0, "lon": 70.0, "n": 4, "art": 24, "url": "https://www.deccanchronicle.com/nation/shah-will-complete-pending-caa-work-1968862"}, {"name": "Russia", "cc": "RS", "lat": 60.0, "lon": 100.0, "n": 14, "art": 84, "url": "https://www.ng.ru/politics/2026-07-06/1_9531_elections.html"}, {"name": "Mosalla, Khorasan-e Ra?avi, Iran", "cc": "IR", "lat": 36.198, "lon": 57.698, "n": 1, "art": 3, "url": "https://jp.ibtimes.com/death-america-chants-trump-killing-call-khamenei-funeral-new-leader-hides-102404"}, {"name": "Suzhou, Jiangsu, China", "cc": "CH", "lat": 31.311, "lon": 120.618, "n": 1, "art": 2, "url": "http://www.bjreview.com.cn/Business/202607/t20260701_800440936.html"}, {"name": "Macedonia", "cc": "MK", "lat": 41.833, "lon": 22.0, "n": 3, "art": 24, "url": "https://lajmi.net/fermeret-protestojne-para-ministrise-se-bujqesise-kerkojne-ndalimin-e-importeve-dhe-rifillimin-e-grumbullimit-te-qumeshtit/"}, {"name": "Nigeria", "cc": "NI", "lat": 10.0, "lon": 8.0, "n": 10, "art": 46, "url": "https://www.politicsweb.co.za/news/blaming-israel-will-not-protect-a-single-migrant-sazf"}, {"name": "Tshwane, Limpopo, South Africa", "cc": "SF", "lat": -25.18, "lon": 28.113, "n": 1, "art": 1, "url": "https://dailytrust.com/xenophobia-fg-kicks-over-killing-of-2-nigerians-in-safrica/"}, {"name": "Western Province, Luapula, Zambia", "cc": "ZA", "lat": -13.0, "lon": 28.0, "n": 2, "art": 10, "url": "https://www.maravipost.com/can-zambias-fragmented-opposition-unseat-mighty-hichilema-on-august-13-polls/"}, {"name": "Athens, Attik\u00edR, Greece", "cc": "GR", "lat": 37.983, "lon": 23.733, "n": 5, "art": 46, "url": "https://www.skai.gr/news/greece/i-kinisi-stous-dromous-tis-athinas-115"}, {"name": "Australia", "cc": "AS", "lat": -25.0, "lon": 135.0, "n": 5, "art": 21, "url": "https://index.hu/kulfold/2026/07/06/kina-ballisztikus-raketa-atomtengeralattjaro-teszt-csendes-ocean/"}, {"name": "Kalkallo, Victoria, Australia", "cc": "AS", "lat": -37.533, "lon": 144.95, "n": 1, "art": 10, "url": "https://www.miragenews.com/council-hails-pledge-to-finish-donnybrook-1705042/"}, {"name": "Nouadhibou, Dakhlet Nouadhibou, Mauritania", "cc": "MR", "lat": 20.9, "lon": -17.034, "n": 1, "art": 10, "url": "https://www.aqlame.com/node/43167"}, {"name": "Paris, France (general), France", "cc": "FR", "lat": 48.867, "lon": 2.333, "n": 3, "art": 15, "url": "https://www.albawaba.com/business/jewels-worth-about-45-million-stolen-1632257"}, {"name": "Greece", "cc": "GR", "lat": 39.0, "lon": 22.0, "n": 6, "art": 55, "url": "https://www.thetoc.gr/diethni/article/kenua-o-anthropos-pouli-tou-nairompi-exei-prokalesei-salo---giati-anisuxei-i-iatriki-koinotita/"}, {"name": "Havana, Ciudad de La Habana, Cuba", "cc": "CU", "lat": 23.132, "lon": -82.364, "n": 6, "art": 26, "url": "https://www.butlereagle.com/20260706/total-power-grid-failure-leaves-cuba-in-darkness-amid-growing-crisis-and-protests/"}, {"name": "Sofia, Sofiya-Grad, Bulgaria", "cc": "BU", "lat": 42.683, "lon": 23.317, "n": 4, "art": 10, "url": "https://www.actualno.com/society/6-uli-umira-stefan-stambolov-news_2609185.html"}, {"name": "Botev, Plovdiv, Bulgaria", "cc": "BU", "lat": 42.717, "lon": 24.917, "n": 1, "art": 10, "url": "https://www.actualno.com/society/6-uli-umira-stefan-stambolov-news_2609185.html"}, {"name": "Indore, Madhya Pradesh, India", "cc": "IN", "lat": 22.717, "lon": 75.833, "n": 2, "art": 10, "url": "https://www.freepressjournal.in/indore/congress-to-launch-statewide-stir"}, {"name": "Germany", "cc": "GM", "lat": 51.5, "lon": 10.5, "n": 12, "art": 55, "url": "http://www.jpost.com/diaspora/antisemitism/article-901660"}, {"name": "Ekaterinburg, Sverdlovskaya Oblast', Russia", "cc": "RS", "lat": 56.858, "lon": 60.612, "n": 1, "art": 10, "url": "https://1prime.ru/20260706/rostehi-871312930.html"}, {"name": "Lobito, Benguela, Angola", "cc": "AO", "lat": -12.348, "lon": 13.546, "n": 1, "art": 5, "url": "https://www.tanzanianewsreports.com/trafigura-joins-african-energy-week-2026-as-silver-sponsor-boosts-energy-security-and-investment/"}, {"name": "Mozambique", "cc": "MZ", "lat": -18.25, "lon": 35.0, "n": 4, "art": 11, "url": "https://www.politicsweb.co.za/news/blaming-israel-will-not-protect-a-single-migrant-sazf"}, {"name": "Jerusalem, Israel (general), Israel", "cc": "IS", "lat": 31.767, "lon": 35.233, "n": 6, "art": 38, "url": "http://www.jpost.com/israel-news/article-901658"}, {"name": "Talwandi Sabo, Punjab, India", "cc": "IN", "lat": 29.983, "lon": 75.083, "n": 1, "art": 10, "url": "https://navbharattimes.indiatimes.com/business/share-market/share-news/vedanta-power-shares-fall-over-4-percent-despite-jump-in-sales-know-the-reason/articleshow/132207679.cms"}, {"name": "Phoenix, Arizona, United States", "cc": "US", "lat": 33.448, "lon": -112.074, "n": 5, "art": 50, "url": "https://dailyinqilab.com/national/article/913399"}, {"name": "Hawaii, United States", "cc": "US", "lat": 21.11, "lon": -157.531, "n": 2, "art": 14, "url": "https://www.conjur.com.br/2026-jul-06/suprema-corte-dos-eua-proibe-estados-de-restringir-armas-em-locais-privados-abertos/"}, {"name": "Uttar Pradesh, Uttar Pradesh, India", "cc": "IN", "lat": 27.25, "lon": 80.75, "n": 3, "art": 8, "url": "https://hindi.webdunia.com/national-hindi-news/bjp-president-nitin-naveen-hanuman-controversy-kejriwal-126070600040_1.html"}, {"name": "Bahadurabad, Punjab, Pakistan", "cc": "PK", "lat": 30.533, "lon": 72.831, "n": 1, "art": 10, "url": "https://dunyanews.tv/en/Pakistan/961002-mqmp-decides-to-protest-during-next-federal-cabinet-meeting"}, {"name": "Petersburg, Sankt-Peterburg, Russia", "cc": "RS", "lat": 59.894, "lon": 30.264, "n": 3, "art": 26, "url": "https://www.eng.kavkaz-uzel.eu/articles/76699"}, {"name": "Zimbabwe", "cc": "ZI", "lat": -19.0, "lon": 29.0, "n": 4, "art": 33, "url": "https://insiderzim.com/mnangagwas-independence-day-speech/"}, {"name": "Saxony, Sachsen, Germany", "cc": "GM", "lat": 51.0, "lon": 13.0, "n": 3, "art": 40, "url": "https://www.dw.com/mk/afd-najavuva-prezemane-na-vlasta-vo-germanija-alis-vajdel-ja-zacvrsti-kontrolata-vrz-partijata/a-77845150"}, {"name": "Kosovo", "cc": "KV", "lat": 42.583, "lon": 21.0, "n": 6, "art": 70, "url": "https://sot.com.al/rajoni/fermeret-e-qumeshtit-ne-proteste-ne-kosove-zbrazin-cisternat-para-ministrise-se-bujqesise/"}, {"name": "Kiev, Ukraine (general), Ukraine", "cc": "UP", "lat": 50.433, "lon": 30.517, "n": 20, "art": 112, "url": "https://www.boursorama.com/actualite-economique/actualites/ukraine-des-bombardements-russes-font-au-moins-24-morts-a-kiev-et-dans-sa-region-5f4fe3a40f0732b50af3ebe16c4bea82"}, {"name": "Wellington, New Zealand (general), New Zealand", "cc": "NZ", "lat": -41.3, "lon": 174.783, "n": 1, "art": 5, "url": "https://www.scoop.co.nz/stories/AK2607/S00200/more-than-460-new-zealanders-unite-for-children-at-inaugural-barnardos-foundation-gala-dinner.htm"}, {"name": "United States", "cc": "US", "lat": 39.828, "lon": -98.579, "n": 8, "art": 62, "url": "https://www.inewsgr.com/184/iran-stin-kom-eftase-i-soros-tou-agiatolach-ali-chamene---oi-diadilotes-orkizontan-ekdikisi-gia-ton-thanato-tou-igeti-tous.htm"}, {"name": "Pretoria, Gauteng, South Africa", "cc": "SF", "lat": -25.707, "lon": 28.229, "n": 12, "art": 39, "url": "https://www.politicsweb.co.za/news/blaming-israel-will-not-protect-a-single-migrant-sazf"}, {"name": "Bajaur, North-West Frontier, Pakistan", "cc": "PK", "lat": 34.833, "lon": 71.917, "n": 1, "art": 8, "url": "https://www.pakistantoday.com.pk/2026/07/06/rallies-held-across-malakand-division-against-new-taxes"}, {"name": "Malakand, North-West Frontier, Pakistan", "cc": "PK", "lat": 34.566, "lon": 71.93, "n": 1, "art": 2, "url": "https://www.pakistantoday.com.pk/2026/07/06/rallies-held-across-malakand-division-against-new-taxes"}, {"name": "Tinubu, Lagos, Nigeria", "cc": "NI", "lat": 6.517, "lon": 3.367, "n": 1, "art": 2, "url": "https://allafrica.com/stories/202607060083.html"}, {"name": "Indiana, United States", "cc": "US", "lat": 39.865, "lon": -86.26, "n": 2, "art": 20, "url": "https://www.insideindianabusiness.com/articles/navigating-the-spacex-hype-what-history-teaches-us-about-mega-ipos"}, {"name": "Michigan, United States", "cc": "US", "lat": 43.35, "lon": -84.56, "n": 1, "art": 3, "url": "https://www.journalgazette.net/opinion/columnists/childcare-spending-worthy-investment-in-of-state-treasure/article_e6c21540-199e-48b5-934d-2a2daf5d75cb.html"}, {"name": "Brussels, Bruxelles-Capitale, Belgium", "cc": "BE", "lat": 50.833, "lon": 4.333, "n": 5, "art": 40, "url": "https://www.ilgiornale.it/news/interni/lasse-terrore-celebra-khamenei-loccidente-stavolta-diserta-2689748.html"}, {"name": "Kemal, Edirne, Turkey", "cc": "TU", "lat": 41.736, "lon": 26.396, "n": 1, "art": 20, "url": "http://mignews.com/news/politic/protesty-v-turcii-kommunisty-vyshli-protiv-nato-v-preddverii-sammita.html"}, {"name": "Slovak Republic", "cc": "LO", "lat": 48.667, "lon": 19.5, "n": 1, "art": 10, "url": "https://www.fakt.pl/wydarzenia/polska/warszawa/awaria-metra-w-warszawie-wylaczono-fragment-linii-utrudnienia-na-m1/dqs9ch1"}, {"name": "Yerevan, Yerevan*, Armenia", "cc": "AM", "lat": 40.181, "lon": 44.514, "n": 2, "art": 10, "url": "https://arka.am:443/en/news/politics/there-will-be-no-repeat-parliamentary-elections-in-armenia-the-constitutional-court-upheld-the-resul/"}, {"name": "Lahore, Punjab, Pakistan", "cc": "PK", "lat": 31.55, "lon": 74.344, "n": 1, "art": 5, "url": "https://tribune.com.pk/story/2616723/social-media-hacking-extortion-loot-users"}, {"name": "Shahid Ali, Balochistan, Pakistan", "cc": "PK", "lat": 29.191, "lon": 64.376, "n": 1, "art": 5, "url": "https://tribune.com.pk/story/2616723/social-media-hacking-extortion-loot-users"}, {"name": "Santa Ursula, Michoac\u00e1de Ocampo, Mexico", "cc": "MX", "lat": 19.75, "lon": -102.567, "n": 1, "art": 4, "url": "https://aristeguinoticias.com/0507/mexico/cuauhtemoc-blanco-es-increpado-manifestantes-le-gritan-asesino-y-pintan-su-camioneta/"}, {"name": "Sweden", "cc": "SW", "lat": 62.0, "lon": 15.0, "n": 6, "art": 46, "url": "https://blogs.elespectador.com/filosofia-y-coyuntura-2/la-superinteligencia-artificial-y-el-asalto-al-intelecto-general/"}, {"name": "Heidelberg, Baden-W\u00fcberg, Germany", "cc": "GM", "lat": 48.317, "lon": 8.917, "n": 1, "art": 4, "url": "https://www.news.de/politik/859715628/anti-afd-demos-gegen-rechtsextremismus-heute-montag-6-juli-2026-demonstrationen-gera-dresden-goerlitz-osnabrueck-muenchen-dinslaken/1/"}, {"name": "Granada, Andaluc\u00edSP, Spain", "cc": "SP", "lat": 37.178, "lon": -3.599, "n": 2, "art": 10, "url": "https://kaosenlared.net/boletin-de-luchas-obreras-del-6-al-12-de-julio-de-2026/"}, {"name": "Bethlehem, West Bank (general), West Bank", "cc": "WE", "lat": 31.705, "lon": 35.204, "n": 1, "art": 8, "url": "https://www.reporter.gr/eidhseis/epicheirhseis/toyrismos/679840-tourismos-i-prasini-symmaxia-me-simaia-to-oropedio-lasithiou-gia-tin-anagennitiki-georgia"}, {"name": "Tibet, Xizang, China", "cc": "CH", "lat": 32.0, "lon": 90.0, "n": 5, "art": 26, "url": "https://www.eastbaytimes.com/2026/07/06/tibetan-protester-who-set-himself-on-fire-outside-manhattans-united-nations-livestreamed-his-death/"}, {"name": "China", "cc": "CH", "lat": 35.0, "lon": 105.0, "n": 7, "art": 41, "url": "https://allafrica.com/stories/202607060785.html"}, {"name": "Mpumalanga, KwaZulu-Natal, South Africa", "cc": "SF", "lat": -27.882, "lon": 31.534, "n": 1, "art": 10, "url": "https://allafrica.com/stories/202607060113.html"}, {"name": "United Nations Headquarters, New York, United States", "cc": "US", "lat": 40.749, "lon": -73.968, "n": 2, "art": 3, "url": "https://tibet.net/kashags-statement-on-the-91st-birthday-celebration-of-his-holiness-the-great-14th-dalai-lama/"}, {"name": "Mtwara, Mtwara, Tanzania", "cc": "TZ", "lat": -10.267, "lon": 40.183, "n": 2, "art": 16, "url": "https://allafrica.com/stories/202607060025.html"}, {"name": "Agua Grande, S\u00e3Tom\u00e9S, Sao Tome And Principe", "cc": "TP", "lat": 0.35, "lon": 6.733, "n": 1, "art": 10, "url": "https://jtm.com.mo/actual/campanha-para-presidenciais-arrancou-apelo-clima-de-paz/"}, {"name": "Tokyo, Tokyo, Japan", "cc": "JA", "lat": 35.685, "lon": 139.751, "n": 8, "art": 40, "url": "https://sol.iol.pt/internacional/noticias/kremlin-defende-teste-de-missil-da-china-e-rejeita-criticas-da-australia-e-do-japao/20260706/6a4bb7760cf27cac6fcf6f0d"}, {"name": "Dharampur, Gujarat, India", "cc": "IN", "lat": 20.533, "lon": 73.183, "n": 1, "art": 10, "url": "https://www.thehindu.com/sci-tech/science/why-isnt-one-antivenom-enough-for-india-explained/article71188060.ece"}, {"name": "Xinjiang, Jiangxi, China", "cc": "CH", "lat": 27.748, "lon": 116.274, "n": 1, "art": 10, "url": "https://www.prokerala.com/news/articles/a1784298.html"}, {"name": "Sardinia, Sardegna, Italy", "cc": "IT", "lat": 40.0, "lon": 9.0, "n": 1, "art": 10, "url": "https://www.cagliaripad.it/674284/cagliari-e-olbia-piu-vicine-test-sul-treno-veloce-per-ridurre-i-tempi-e-le-distanze/"}, {"name": "Kyiv, Kyyiv, Misto, Ukraine", "cc": "UP", "lat": 50.433, "lon": 30.517, "n": 5, "art": 29, "url": "https://week.ukrainianwall.com/166407-avtobus-78-zminiv-marshrut-cherez-perekrittya-maksimovicha-ruh-do-tred-1"}, {"name": "Philadelphia, Pennsylvania, United States", "cc": "US", "lat": 39.952, "lon": -75.164, "n": 2, "art": 10, "url": "https://www.wsws.org/en/articles/2026/07/06/dmcg-j06.html"}, {"name": "Caracas, Distrito Federal, Venezuela", "cc": "VE", "lat": 10.5, "lon": -66.917, "n": 3, "art": 21, "url": "https://www.elcolombiano.com/internacional/delcy-rodriguez-descarta-estallido-social-tras-los-terremotos-venezuela-PM38521952"}, {"name": "Croatia", "cc": "HR", "lat": 45.167, "lon": 15.5, "n": 1, "art": 30, "url": "https://lajmi.net/protesta-per-clirimtaret-ne-kroaci-gucati-shtetet-evropiane-mos-ta-financojne-gjykaten-speciale/"}, {"name": "Poland", "cc": "PL", "lat": 52.0, "lon": 20.0, "n": 3, "art": 24, "url": "https://zaxid.net/uchorashnya_zupa_vona_y_zavtrashnya_tezh_n1640903"}, {"name": "Benin", "cc": "BN", "lat": 9.5, "lon": 2.25, "n": 3, "art": 38, "url": "https://www.gouv.bj:443/article/3579/olympiades-nationales-intelligence-artificielle-laureats-distingues/"}, {"name": "Seychelles", "cc": "SE", "lat": -4.583, "lon": 55.667, "n": 1, "art": 10, "url": "https://nation.sc/articles/31393/seychelles-demonstrates-commitment-to-sustainable-tourism"}, {"name": "Armenia", "cc": "AM", "lat": 40.0, "lon": 45.0, "n": 1, "art": 10, "url": "https://news.mail.ru/society/71529267/"}, {"name": "Johannesburg, Gauteng, South Africa", "cc": "SF", "lat": -26.2, "lon": 28.083, "n": 8, "art": 27, "url": "https://www.wsws.org/en/articles/2026/07/06/bunb-j06.html"}, {"name": "Lagos, Lagos, Nigeria", "cc": "NI", "lat": 6.453, "lon": 3.396, "n": 1, "art": 2, "url": "https://techcabal.com/2026/07/06/%F0%9F%91%A8%F0%9F%8F%BF%F0%9F%9A%80techcabal-daily-foodcourt-pauses-operations/"}, {"name": "Puebla, Puebla, Mexico", "cc": "MX", "lat": 19.05, "lon": -98.2, "n": 3, "art": 10, "url": "https://sintesis.mx/2026/07/05/poblanos-sufren-la-salida-del-tri-del-mundial-2026/"}, {"name": "Mashhad, (IR30), Iran", "cc": "IR", "lat": 36.297, "lon": 59.606, "n": 3, "art": 16, "url": "https://www.sarayanews.com/article/1091877/%D8%A5%D9%8A%D8%B1%D8%A7%D9%86-%D9%86%D8%B9%D8%B4-%D8%AE%D8%A7%D9%85%D9%86%D8%A6%D9%8A-%D9%8A%D8%B5%D9%84-%D8%A5%D9%84%D9%89-%D9%82%D9%85-%D8%A8%D8%B9%D8%AF"}, {"name": "Belogorsk, Kemerovskaya Oblast', Russia", "cc": "RS", "lat": 55.018, "lon": 88.49, "n": 1, "art": 10, "url": "https://asn24.ru/news/society/sekundy-spasshie-zhizn-vrach-iz-belogorska-reanimiroval-cheloveka-v-moskovskom-metro-foto-06-07-2026/"}, {"name": "Philippines", "cc": "RP", "lat": 13.0, "lon": 122.0, "n": 2, "art": 20, "url": "https://www.philstar.com/business/2026/07/07/2540273/accountability-design-how-digital-tools-can-close-procurement-gap"}, {"name": "Lebanon", "cc": "LE", "lat": 33.833, "lon": 35.833, "n": 7, "art": 45, "url": "https://ambergristoday.com/news/2026/07/06/residents-protest-call-justice/"}, {"name": "Bouteldja, El Tarf, Algeria", "cc": "AG", "lat": 36.787, "lon": 8.198, "n": 1, "art": 10, "url": "https://www.tsa-algerie.com/pasteques-en-algerie-entre-rumeurs-et-surproduction-le-marche-seffondre/"}, {"name": "Spain", "cc": "SP", "lat": 40.0, "lon": -4.0, "n": 8, "art": 51, "url": "https://rpp.pe/mundo/venezuela/terremoto-en-venezuela-colapso-en-cementerios-cobros-de-hasta-400-dolares-por-entierros-y-un-reporte-de-50-mil-desaparecidos-noticia-1696117"}, {"name": "Ladi, Siirt, Turkey", "cc": "TU", "lat": 37.652, "lon": 42.062, "n": 2, "art": 6, "url": "https://www.haber7.com/guncel/haber/3641098-imamoglunun-bugun-3-davasi-var"}, {"name": "Bangladesh", "cc": "BG", "lat": 24.0, "lon": 90.0, "n": 5, "art": 40, "url": "https://www.dailynayadiganta.com/economy/banking-insurance/AstyDwK3n7hH"}, {"name": "Mithi, Haryana, India", "cc": "IN", "lat": 28.708, "lon": 75.589, "n": 1, "art": 3, "url": "https://www.prokerala.com/news/articles/a1784331.html"}, {"name": "Federal Capital Territory, Abuja Federal Capital Territory, Nigeria", "cc": "NI", "lat": 8.833, "lon": 7.167, "n": 2, "art": 3, "url": "https://blueprint.ng/why-bottom-up-policy-formulation-is-delivering-better-results-in-fct/"}, {"name": "Balochistan, Balochistan, Pakistan", "cc": "PK", "lat": 28.479, "lon": 65.644, "n": 3, "art": 12, "url": "https://aninews.in/news/world/asia/pakistani-forces-accused-of-enforced-disappearances-extrajudicial-killings-as-five-men-found-dead-in-balochistan20260706124725/"}, {"name": "Niger", "cc": "NG", "lat": 16.0, "lon": 8.0, "n": 2, "art": 20, "url": "https://blueprint.ng/kwara-apc-holds-unity-rally-in-ilorin/"}, {"name": "Perifereia Kritis, Perifereia Kritis, Greece", "cc": "GR", "lat": 35.167, "lon": 25.0, "n": 1, "art": 4, "url": "https://www.inewsgr.com/364/oloklirothike-to-5o-festival-vivliou-chanion.htm"}, {"name": "Gwadar, Balochistan, Pakistan", "cc": "PK", "lat": 25.122, "lon": 62.325, "n": 2, "art": 3, "url": "https://aninews.in/news/world/asia/pakistani-forces-accused-of-enforced-disappearances-extrajudicial-killings-as-five-men-found-dead-in-balochistan20260706124725/"}, {"name": "Abdul Haq, Sindh, Pakistan", "cc": "PK", "lat": 25.41, "lon": 69.577, "n": 4, "art": 5, "url": "https://aninews.in/news/world/asia/pakistani-forces-accused-of-enforced-disappearances-extrajudicial-killings-as-five-men-found-dead-in-balochistan20260706124725/"}, {"name": "Keppapulavu, Northern, Sri Lanka", "cc": "CE", "lat": 9.275, "lon": 80.755, "n": 2, "art": 5, "url": "https://www.tamilguardian.com/content/keppapulavu-residents-continue-protest-demanding-return-military-occupied-lands-12th"}, {"name": "Kwazulu, Eastern Cape, South Africa", "cc": "SF", "lat": -31.29, "lon": 29.455, "n": 2, "art": 3, "url": "https://www.news24.com/southafrica/news/kzn-counts-economic-cost-as-ntuli-condemns-looting-after-anti-illegal-migration-marches-20260702-0820"}, {"name": "Beitbridge, Zimbabwe (general), Zimbabwe", "cc": "ZI", "lat": -22.217, "lon": 30.0, "n": 1, "art": 4, "url": "https://www.namibian.com.na/the-other-violence-while-south-africa-watched-the-marches-the-state-built-a-camp/"}, {"name": "Japan", "cc": "JA", "lat": 36.0, "lon": 138.0, "n": 2, "art": 20, "url": "https://www.dagospia.com/business/zio-sam-e-indebitato-collo-pagheremo-conto-il-debito-pubblico-usa-sfiora-479661"}, {"name": "Palmyra, ?ims, Syria", "cc": "SY", "lat": 34.561, "lon": 38.281, "n": 2, "art": 7, "url": "https://www.middleeasteye.net/news/after-frontlines-palmyra-fight-cultural-economic-revival"}, {"name": "Caspian Sea, Oceans (general), Oceans", "cc": "OS", "lat": 42.0, "lon": 50.0, "n": 1, "art": 10, "url": "https://serqqapisi.az/butun-xeberler/yasil-enerji-dehlizi-azerbaycan-avropa-elaqelerinde-yeni-inkisaf-merhelesinin-esasini-yaradacaq"}, {"name": "Delhi, Delhi, India", "cc": "IN", "lat": 28.667, "lon": 77.217, "n": 8, "art": 54, "url": "https://thenorthlines.com/twist-and-turns-in-bangladesh-turkiye-political-and-defence-ties/"}, {"name": "Darfur, Gharb Darfur, Sudan", "cc": "SU", "lat": 13.5, "lon": 23.5, "n": 1, "art": 8, "url": "https://mondafrique.com/dossiers/lor-du-bouclier-nubien-serie-1-5-des-pharaons-noirs-aux-seigneurs-de-guerre/"}, {"name": "Khartoum, Al Khartum, Sudan", "cc": "SU", "lat": 15.588, "lon": 32.534, "n": 1, "art": 2, "url": "https://mondafrique.com/dossiers/lor-du-bouclier-nubien-serie-1-5-des-pharaons-noirs-aux-seigneurs-de-guerre/"}, {"name": "London, London, City of, United Kingdom", "cc": "UK", "lat": 51.5, "lon": -0.117, "n": 15, "art": 71, "url": "https://www.wlrn.org/news-in-brief/2026-07-06/delray-beachs-coco-gauff-punched-her-ticket-to-the-wimbledon-quarterfinals-for-the-first-time"}, {"name": "Durban, KwaZulu-Natal, South Africa", "cc": "SF", "lat": -29.85, "lon": 31.017, "n": 10, "art": 49, "url": "https://www.news24.com/politics/ramaphosa-deploys-army-to-help-with-law-and-order-at-anti-immigrant-protests-across-sa-20260706-0711"}, {"name": "Hamirpur, Uttar Pradesh, India", "cc": "IN", "lat": 25.95, "lon": 80.15, "n": 1, "art": 10, "url": "https://indianexpress.com/article/cities/lucknow/up-hamirpur-man-wrongfully-detained-police-assault-allegation-10773813/"}, {"name": "Kashmiri, Punjab, Pakistan", "cc": "PK", "lat": 32.039, "lon": 73.751, "n": 5, "art": 27, "url": "https://www.ibtimes.co.in/kashmiri-diaspora-stages-massive-protest-london-against-brutality-pak-forces-pok-903596"}, {"name": "Rome, Lazio, Italy", "cc": "IT", "lat": 41.9, "lon": 12.483, "n": 4, "art": 30, "url": "https://www.farodiroma.it/trump-fa-il-bullo-con-giorgia-perche-la-casa-bianca-vuole-fare-cadere-la-meloni-c-meier/"}, {"name": "Greenland", "cc": "GL", "lat": 72.0, "lon": -40.0, "n": 1, "art": 10, "url": "https://24tv.ua/geopolitics/ru/ssha-hotjat-zahvatit-grenlandiju-pochemu-vashingtone-vnov-vernulis_n3100582"}, {"name": "Syros, Perifereia Notiou Aigaiou, Greece", "cc": "GR", "lat": 37.45, "lon": 24.933, "n": 1, "art": 6, "url": "https://www.lifo.gr/now/world/elliniko-nisi-poy-xehorizei-diethnos-gia-tin-arhitektoniki-toy"}, {"name": "Lucknow, Uttar Pradesh, India", "cc": "IN", "lat": 26.85, "lon": 80.917, "n": 1, "art": 4, "url": "https://hindi.webdunia.com/national-hindi-news/bjp-president-nitin-naveen-hanuman-controversy-kejriwal-126070600040_1.html"}, {"name": "Incheon, Inch'on-gwangyoksi, South Korea", "cc": "KS", "lat": 37.454, "lon": 126.732, "n": 1, "art": 10, "url": "https://www.wikitree.co.kr/articles/1145034"}, {"name": "Kolkata, West Bengal, India", "cc": "IN", "lat": 22.57, "lon": 88.37, "n": 3, "art": 10, "url": "https://morungexpress.com/mamata-banerjee-holds-candlelight-procession-against-baruipur-incident"}, {"name": "Jammu, Jammu and Kashmir, India", "cc": "IN", "lat": 32.733, "lon": 74.867, "n": 1, "art": 8, "url": "https://www.newkerala.com/news/a/dr-mookerjee-left-enduring-imprint-indias-educational-political-661.htm"}, {"name": "Netherlands", "cc": "NL", "lat": 52.5, "lon": 5.75, "n": 2, "art": 4, "url": "https://themedialine.org/headlines/ngo-monitor-anti-semitism-anti-israel-bias-pervade-doctors-without-borders/"}, {"name": "Uganda", "cc": "UG", "lat": 2.0, "lon": 33.0, "n": 2, "art": 6, "url": "http://www.tennesseedaily.com/news/279170328/as-the-ebola-epidemic-spreads-nanoviricides-advances-towards-a-phase-ii-clinical-trial-of-nv-387-oral-gummies-as-a-treatment-for-ebola-in-dr-congo"}, {"name": "Mullaitivu, Northern, Sri Lanka", "cc": "CE", "lat": 9.268, "lon": 80.815, "n": 1, "art": 10, "url": "https://icsf.net/newss/in-sri-lanka-renewed-protests-over-ancestral-lands-occupied-by-military-forces-for-over-17-years/"}, {"name": "Kwara, Zamfara, Nigeria", "cc": "NI", "lat": 12.334, "lon": 6.285, "n": 1, "art": 2, "url": "https://www.nigerianeye.com/2026/07/kwara-apc-faces-showdown-as-g15.html"}, {"name": "New York, United States", "cc": "US", "lat": 42.15, "lon": -74.938, "n": 8, "art": 50, "url": "https://www.advocate.com/politics/advocacy/victoria-cruz-dead"}, {"name": "Lviv, L'vivs'ka Oblast', Ukraine", "cc": "UP", "lat": 49.841, "lon": 24.03, "n": 1, "art": 6, "url": "https://galinfo.com.ua/news/medicus_jazz_band_vystupyt_na_blagodiynomu_vechori_do_dnya_narodzhennya_fotomuzeyu_u_lvovi_450705"}, {"name": "Puntland, Somalia (general), Somalia", "cc": "SO", "lat": 9.0, "lon": 49.0, "n": 2, "art": 8, "url": "https://wardheernews.com/the-strategic-myopia-of-mogadishu-why-the-u-s-termination-of-military-aid-to-somalia-is-a-rational-consequence/"}, {"name": "Burundi", "cc": "BY", "lat": -3.5, "lon": 30.0, "n": 1, "art": 10, "url": "https://www.iwacu-burundi.org/sopebu-entre-crise-petroliere-et-aventure-miniere/"}, {"name": "Stockholm, Stockholm, Sweden", "cc": "SW", "lat": 59.333, "lon": 18.05, "n": 11, "art": 52, "url": "https://life.ru/p/1896461"}, {"name": "Belgium", "cc": "BE", "lat": 50.833, "lon": 4.0, "n": 1, "art": 10, "url": "https://zpravy.tiscali.cz/hlava-v-jednom-state-nohy-v-jinem-mesto-kde-statni-hranice-bizarne-prochazi-primo-skrz-obyvaky-698114"}, {"name": "Bahia, Bahia, Brazil", "cc": "BR", "lat": -12.983, "lon": -38.517, "n": 2, "art": 7, "url": "https://www.hellenicshippingnews.com/us-lng-exports-to-latin-america-surge-to-three-year-high/"}, {"name": "Barcelona, Comunidad Autonoma de Cataluna, Spain", "cc": "SP", "lat": 41.383, "lon": 2.183, "n": 3, "art": 6, "url": "https://www.dailymail.com/travel/article-15955941/Mallorca-Magaluf-anti-tourism-protest-local-Spain.html"}, {"name": "India", "cc": "IN", "lat": 20.0, "lon": 77.0, "n": 8, "art": 63, "url": "https://timesofindia.indiatimes.com/india/indian-diplomat-protests-wrong-depiction-of-jk-at-dhaka-seminar/articleshow/132227734.cms"}, {"name": "Mamandur, Tamil Nadu, India", "cc": "IN", "lat": 12.75, "lon": 79.667, "n": 1, "art": 3, "url": "https://www.thehindubusinessline.com/companies/vayona-energy-begins-blade-manufacturing-operations-at-its-nellore-facility-in-ap/article71188723.ece"}, {"name": "Canary Islands, Spain (general), Spain", "cc": "SP", "lat": 28.0, "lon": -15.5, "n": 1, "art": 10, "url": "https://www.dailymail.com/travel/article-15955941/Mallorca-Magaluf-anti-tourism-protest-local-Spain.html"}, {"name": "Jackson County, Michigan, United States", "cc": "US", "lat": 42.251, "lon": -84.417, "n": 1, "art": 2, "url": "https://wtvbam.com/2026/07/06/weekend-storms-reek-havoc-across-branch-county-and-southern-michigan/"}, {"name": "Mutapa, Central, Zambia", "cc": "ZA", "lat": -9.133, "lon": 30.4, "n": 1, "art": 4, "url": "https://it-online.co.za/2026/07/06/powertel-and-paratus-zimbabwe-switch-on-new-fibre-corridor/"}, {"name": "Chicago, Illinois, United States", "cc": "US", "lat": 41.85, "lon": -87.65, "n": 1, "art": 10, "url": "https://kaltim.tribunnews.com/kalimantan-utara/1155763/spmb-2026-malinau-diprotes-warga-yang-tinggal-dekat-sman-1-gagal-lolos-jalur-domisili"}, {"name": "Raqqa, Ar Raqqah, Syria", "cc": "SY", "lat": 35.95, "lon": 39.017, "n": 1, "art": 10, "url": "https://www.vol.at/vienna-torture-trial-verdict-against-two-former-assad-officials-expected/10301438"}, {"name": "Accra, Greater Accra, Ghana", "cc": "GH", "lat": 5.55, "lon": -0.217, "n": 1, "art": 4, "url": "https://theheraldghana.com/phd-mentorship-the-impactful-contributions-of-prof-raymond-dziwornu/"}, {"name": "Venezuela", "cc": "VE", "lat": 8.0, "lon": -66.0, "n": 3, "art": 15, "url": "https://www.dw.com/es/los-lectores-de-dw-viva-per%C3%BA-viva-la-democracia/a-77855703"}, {"name": "Taipei, T'ai-pei, Taiwan", "cc": "TW", "lat": 25.048, "lon": 121.532, "n": 2, "art": 12, "url": "https://www.globalsecurity.org/wmd/library/news/taiwan/2026/taiwan-260705-cna01.htm"}, {"name": "Buckingham Palace, Westminster, United Kingdom", "cc": "UK", "lat": 51.5, "lon": -0.133, "n": 4, "art": 4, "url": "https://www.walesonline.co.uk/news/uk-news/prince-harrys-invite-stay-buckingham-34242492"}, {"name": "Anambra, Nigeria (general), Nigeria", "cc": "NI", "lat": 7.267, "lon": 7.4, "n": 4, "art": 9, "url": "https://pmnewsnigeria.com/2026/07/06/oyo-abductees-peter-obi-asks-tinubu-to-resign-or-not-to-seek-reelection/"}, {"name": "Oyo State, Oyo, Nigeria", "cc": "NI", "lat": 8.0, "lon": 4.0, "n": 1, "art": 4, "url": "https://dailypost.ng/2026/07/06/peter-obi-asks-tinubu-to-resign-or-drop-2027-re-election-bid-over-insecurity/"}, {"name": "Nebraska, United States", "cc": "US", "lat": 41.129, "lon": -98.288, "n": 1, "art": 6, "url": "https://www.thegardenisland.com/2026/07/06/lifestyles/isabel-gampon-brynn-lee-hirata-earn-ywca-scholarships/"}, {"name": "Kansas, United States", "cc": "US", "lat": 38.511, "lon": -96.8, "n": 1, "art": 6, "url": "https://www.walesonline.co.uk/lifestyle/tv/little-house-prairie-2026-netflix-34243225"}, {"name": "United Kingdom", "cc": "UK", "lat": 54.0, "lon": -4.0, "n": 10, "art": 35, "url": "https://www.sott.net/article/507287-Report-says-UK-police-must-give-up-woke-culture-wars-and-start-fighting-crime"}, {"name": "Creighton University, Nebraska, United States", "cc": "US", "lat": 41.265, "lon": -95.948, "n": 1, "art": 4, "url": "https://www.thegardenisland.com/2026/07/06/lifestyles/isabel-gampon-brynn-lee-hirata-earn-ywca-scholarships/"}, {"name": "Mauritania", "cc": "MR", "lat": 20.0, "lon": -12.0, "n": 1, "art": 10, "url": "https://planeteafrique.com/Actualites/index.asp?affiche=News_Display.asp&ID=16748"}, {"name": "Nouakchott, Trarza, Mauritania", "cc": "MR", "lat": 18.119, "lon": -16.041, "n": 1, "art": 10, "url": "https://planeteafrique.com/Actualites/index.asp?affiche=News_Display.asp&ID=16746"}, {"name": "Moxico, Moxico, Angola", "cc": "AO", "lat": -11.85, "lon": 20.033, "n": 1, "art": 10, "url": "https://fr.allafrica.com/stories/202607060233.html"}, {"name": "Baruipur, West Bengal, India", "cc": "IN", "lat": 22.35, "lon": 88.439, "n": 10, "art": 51, "url": "https://www.siasat.com/bengal-minor-rape-case-3-arrested-ncw-seeks-report-from-police-3502259/"}, {"name": "Chibok, Borno, Nigeria", "cc": "NI", "lat": 10.866, "lon": 12.847, "n": 1, "art": 3, "url": "https://punchng.com/resign-or-shelve-re-election-bid-over-insecurity-peter-obi-tells-tinubu/"}, {"name": "Iceland", "cc": "IC", "lat": 65.0, "lon": -18.0, "n": 1, "art": 6, "url": "https://www.freemalaysiatoday.com/category/world/2026/07/06/uk-fighters-intercept-russian-plane-near-aircraft-carrier"}, {"name": "Norwegian Sea, Oceans (general), Oceans", "cc": "OS", "lat": 70.0, "lon": 5.0, "n": 1, "art": 2, "url": "https://www.freemalaysiatoday.com/category/world/2026/07/06/uk-fighters-intercept-russian-plane-near-aircraft-carrier"}, {"name": "Salento, Campania, Italy", "cc": "IT", "lat": 40.25, "lon": 15.183, "n": 1, "art": 10, "url": "https://www.teatronaturale.it/tracce/italia/48655-lollobrigida-lancia-il-suo-appello-scegliamo-l-olio-italiano-intensificati-i-controlli-anti-sofisticazione.htm"}, {"name": "Iraq", "cc": "IZ", "lat": 33.0, "lon": 44.0, "n": 5, "art": 22, "url": "https://www.sarayanews.com/article/1091877/%D8%A5%D9%8A%D8%B1%D8%A7%D9%86-%D9%86%D8%B9%D8%B4-%D8%AE%D8%A7%D9%85%D9%86%D8%A6%D9%8A-%D9%8A%D8%B5%D9%84-%D8%A5%D9%84%D9%89-%D9%82%D9%85-%D8%A8%D8%B9%D8%AF"}, {"name": "Vietnam, Republic Of", "cc": "VM", "lat": 16.167, "lon": 107.833, "n": 1, "art": 8, "url": "https://www.wosu.org/show/all-sides/2026-07-06/the-untold-story-of-black-patriots-protests-to-end-the-vietnam-war"}, {"name": "Uruguay", "cc": "UY", "lat": -33.0, "lon": -56.0, "n": 1, "art": 2, "url": "https://www.diariocambio.com.uy/detuvieron-un-hombre-tras-un-hurto-domiciliario-en-la-zona-este"}, {"name": "Cuba", "cc": "CU", "lat": 22.0, "lon": -79.5, "n": 6, "art": 30, "url": "https://www.cubaheadlines.com/articles/334340"}, {"name": "Silivri, Istanbul, Turkey", "cc": "TU", "lat": 41.08, "lon": 28.226, "n": 1, "art": 10, "url": "https://www.dw.com/tr/avrupadan-nato-zirvesi-%C3%B6ncesi-ekrem-i%CC%87mamo%C4%9Flu-%C3%A7a%C4%9Fr%C4%B1s%C4%B1/a-77850331"}, {"name": "Ukraine", "cc": "UP", "lat": 49.0, "lon": 32.0, "n": 4, "art": 34, "url": "https://ch10.co.il/news/1084820/"}, {"name": "Minsk, Belarus (general), Belarus", "cc": "BO", "lat": 53.9, "lon": 27.567, "n": 1, "art": 8, "url": "https://week.ukrainianwall.com/166392-vstup-bilorusi-u-viynu-lukashenko-zrobiv-terminovu-zayavu"}, {"name": "Ficksburg, Free State, South Africa", "cc": "SF", "lat": -28.874, "lon": 27.881, "n": 2, "art": 16, "url": "https://www.dailymaverick.co.za/opinionista/2026-07-06-death-in-ratanda-as-sas-dangerous-water-crisis-enters-new-phase/"}, {"name": "Bulgaria", "cc": "BU", "lat": 43.0, "lon": 25.0, "n": 2, "art": 20, "url": "https://duma.bg/nyama-hora-protestite-sreshtu-pravitelstvoto-se-otlagat-za-esenta-n321796"}, {"name": "Serbia", "cc": "RI", "lat": 44.0, "lon": 21.0, "n": 3, "art": 30, "url": "https://www.danas.rs/vesti/politika/bratina-teheran-sahrana-hamneija/"}, {"name": "Sonargaon, Bangladesh (general), Bangladesh", "cc": "BG", "lat": 23.65, "lon": 90.617, "n": 1, "art": 10, "url": "https://www.ntvbd.com/bangladesh/news-1766773"}, {"name": "Kabylia, Bordj Bou Arr\u00e9dj, Algeria", "cc": "AG", "lat": 36.25, "lon": 5.0, "n": 2, "art": 10, "url": "https://www.lnr-dz.com/2026/07/06/lannee-ou-la-double-menace-transforme-lalgerie-en-etat-de-combat/"}, {"name": "Mauritius", "cc": "MP", "lat": 16.0, "lon": 146.0, "n": 1, "art": 10, "url": "https://www.lemauricien.com/actualites/societe/situation-preoccupante-mauritius-post-ltd-au-bord-du-gouffre-financier/711892/"}, {"name": "Gaza Strip", "cc": "GZ", "lat": 31.425, "lon": 34.373, "n": 2, "art": 10, "url": "https://www.aljazeera.net/news/2026/7/6/%D9%85%D8%A7%D9%84%D9%8A%D8%B2%D9%8A%D8%A7-%D8%AA%D8%AD%D9%82%D9%82-%D9%81%D9%8A-%D8%B5%D9%81%D9%82%D8%A9-%D9%85%D8%B9%D8%A7%D8%AF%D9%86-%D9%86%D8%A7%D8%AF%D8%B1%D8%A9"}, {"name": "Utah, United States", "cc": "US", "lat": 40.114, "lon": -111.854, "n": 1, "art": 5, "url": "https://www.latimes.com/opinion/story/2026-07-06/midterm-election-interference-hypothetical-responses"}, {"name": "Pennsylvania, United States", "cc": "US", "lat": 40.577, "lon": -77.264, "n": 1, "art": 10, "url": "https://newrepublic.com/article/211259/unions-higher-education-labor-organizing"}, {"name": "Cambridge, Cambridgeshire, United Kingdom", "cc": "UK", "lat": 52.2, "lon": 0.117, "n": 1, "art": 1, "url": "https://www.aol.co.uk/articles/baptism-record-manchester-cathedral-offers-080021000.html"}, {"name": "Peja, Opstina Pec, Kosovo", "cc": "KV", "lat": 42.66, "lon": 20.292, "n": 1, "art": 10, "url": "https://24-ore.com/rrahja-e-te-moshuares-ne-orenda-aurona-pelaj-denohet-me-2-vjet-e-3-muaj-burgim/"}, {"name": "Ilia, Perifereia Stereas Elladas, Greece", "cc": "GR", "lat": 38.85, "lon": 23.117, "n": 1, "art": 8, "url": "https://www.patrisnews.com/dytiki-ellada-ayxisi-sta-trochaia-atychimata-alla-meiosi-ton-thanaton-ton-ioynio-toy-2026-ti-deichnoyn-ta-stoicheia-tis-el-as/"}, {"name": "Baku, Baki*, Azerbaijan", "cc": "AJ", "lat": 40.395, "lon": 49.882, "n": 4, "art": 20, "url": "https://unn.ua/ru/news/baku-vruchil-poslu-rf-notu-protesta-iz-za-udara-po-azs-azerbaidzhana-v-ukraine"}, {"name": "Tiananmen Square, Beijing, China", "cc": "CH", "lat": 39.904, "lon": 116.391, "n": 3, "art": 6, "url": "https://www.christianpost.com/news/pastor-ezra-jin-freed-from-chinese-prison-after-trumps-request.html"}, {"name": "Winifred, Montana, United States", "cc": "US", "lat": 47.558, "lon": -109.375, "n": 1, "art": 3, "url": "https://matr.net/news/your-school-districts-are-unappreciated-economic-development-engines-just-ask-winifred-montana/"}, {"name": "Malawi", "cc": "MI", "lat": -13.5, "lon": 34.0, "n": 2, "art": 10, "url": "https://www.ecr.co.za/news/news/home-affairs-additional-300-immigration-officers/"}, {"name": "Boliden, Vasterbotten, Sweden", "cc": "SW", "lat": 64.867, "lon": 20.383, "n": 1, "art": 10, "url": "https://www.juniorminingnetwork.com/junior-miner-news/press-releases/2030-tsx-venture/han/206701-hannan-completes-maiden-drill-program-at-high-grade-gold-project-stavatraesk-in-sweden-and-tsxv-accepts-acquisition-for-filing.html"}, {"name": "Dhaka, Dhaka, Bangladesh", "cc": "BG", "lat": 23.723, "lon": 90.409, "n": 4, "art": 22, "url": "https://www.albayan.ae/opinions/articles/1485917"}, {"name": "Hong Kong", "cc": "HK", "lat": 22.25, "lon": 114.167, "n": 2, "art": 12, "url": "https://www.pravda.ru/news/districts/2367996-vladivostok-traffic-collapse-august/"}, {"name": "Espriella, Nari\u00f1O, Colombia", "cc": "CO", "lat": 1.433, "lon": -77.417, "n": 4, "art": 34, "url": "https://www.semana.com/semana-tv/semana-el-debate/articulo/mindefensa-de-abelardo-de-la-espriella-anticipo-como-actuaria-ante-eventuales-protestas-en-el-pais-la-primera-advertencia/202635/"}, {"name": "Bejucal, Cuba (general), Cuba", "cc": "CU", "lat": 22.929, "lon": -82.389, "n": 1, "art": 10, "url": "https://diariodecuba.com/derechos-humanos/1783336768_67834.html"}, {"name": "Dar Es Salaam, Dar es Salaam, Tanzania", "cc": "TZ", "lat": -6.8, "lon": 39.283, "n": 5, "art": 16, "url": "https://www.africanews.com/2026/07/06/tanzania-arrests-dozens-as-security-tightens-ahead-of-planned-protests/"}, {"name": "Kabul, Kabol, Afghanistan", "cc": "AF", "lat": 34.517, "lon": 69.183, "n": 2, "art": 10, "url": "https://www.newsweek.com/the-taliban-just-won-in-brussels-but-nobody-is-calling-it-that-opinion-12146211"}, {"name": "Milan, Lombardia, Italy", "cc": "IT", "lat": 45.467, "lon": 9.2, "n": 3, "art": 26, "url": "https://www.deccanchronicle.com/nation/shah-will-complete-pending-caa-work-1968862"}, {"name": "New Haven, Connecticut, United States", "cc": "US", "lat": 41.308, "lon": -72.928, "n": 1, "art": 4, "url": "https://www.newhavenindependent.org/2026/07/05/5-department-heads-seek-residency-requirement-waivers/"}, {"name": "West Haven, Connecticut, United States", "cc": "US", "lat": 41.271, "lon": -72.947, "n": 1, "art": 4, "url": "https://www.newhavenindependent.org/2026/07/05/5-department-heads-seek-residency-requirement-waivers/"}, {"name": "Ion Creanga, S\u00eeerei, Moldova", "cc": "MD", "lat": 47.593, "lon": 28.211, "n": 1, "art": 10, "url": "https://www.moldpres.md/rom/societate/elevii-care-au-obtinut-media-10-la-bacalaureat-premiati-pentru-performantele-exceptionale-in-educatie"}, {"name": "Shenzhen, Guangdong, China", "cc": "CH", "lat": 22.2, "lon": 111.117, "n": 1, "art": 10, "url": "https://www.thepresidency.gov.za/remarks-deputy-president-paul-mashatile-during-visit-south-africa-commodity-china-exhibition-and"}, {"name": "Odesa, Odes'ka Oblast, Ukraine", "cc": "UP", "lat": 46.464, "lon": 30.739, "n": 2, "art": 6, "url": "https://aa.com.tr/en/eurasia/azerbaijan-summons-russia-s-ambassador-over-attack-on-socar-fuel-station-in-southern-ukraine/3987636"}, {"name": "Tiberias, Ha?afon, Israel", "cc": "IS", "lat": 32.792, "lon": 35.531, "n": 1, "art": 2, "url": "https://www.israelnationalnews.com/news/429719"}, {"name": "Belgorod, Belgorodskaya Oblast', Russia", "cc": "RS", "lat": 50.611, "lon": 36.58, "n": 1, "art": 10, "url": "https://www.kommersant.ru/doc/8797366"}, {"name": "Romania", "cc": "RO", "lat": 46.0, "lon": 25.0, "n": 5, "art": 36, "url": "https://agerpres.ro/social/2026/07/06/pislaru-cazul-de-la-bihor-demonstreaza-ca-statul-roman-este-in-multe-cazuri-incapabil-sa-ii-ajute-pe--1573663"}, {"name": "Vilnius, Vilniaus Apskritis, Lithuania", "cc": "LH", "lat": 54.683, "lon": 25.317, "n": 2, "art": 10, "url": "https://www.baltictimes.com/on_the_occasion_of_the_us_250th_anniversary__vmu_celebrates_the_idea_of_freedom_and_academic_partnership/"}, {"name": "Fu Jian, Fujian, China", "cc": "CH", "lat": 26.545, "lon": 117.843, "n": 1, "art": 6, "url": "https://spacedaily.com/k-the-eastern-jin-army-was-outnumbered-by-more-than-five-to-one-at-the-fei-river-in-383-ad-yet-won-in-a-single-afternoon-by-triggering-one-moment-of-panic-in-the-invading-force-and-the-result-decided/"}, {"name": "Khammam, Andhra Pradesh, India", "cc": "IN", "lat": 17.25, "lon": 80.15, "n": 1, "art": 3, "url": "https://www.thehindu.com/news/national/telangana/sfi-protests-marred-by-police-leaders-demand-withdrawal-of-cases/article71189264.ece"}, {"name": "Davao, Davao City, Philippines", "cc": "RP", "lat": 7.073, "lon": 125.613, "n": 1, "art": 2, "url": "https://mindanews.com/top-stories/2026/07/davao-groups-call-for-conviction-of-vp-sara-in-impeachment-case/"}, {"name": "Hamburg, Hamburg, Germany", "cc": "GM", "lat": 53.55, "lon": 10.0, "n": 1, "art": 10, "url": "https://www.t-online.de/finanzen/energie/id_101330310/haushalt-regierung-pluendert-einnahmen-der-co2-steuer.html"}, {"name": "Karnataka, Karnataka, India", "cc": "IN", "lat": 13.5, "lon": 76.0, "n": 3, "art": 18, "url": "https://www.deccanchronicle.com/southern-states/telangana/indias-first-private-orbital-rocket-skyroots-vikram-1-to-carry-multiple-test-payloads-1968940"}, {"name": "Ratanda, Gauteng, South Africa", "cc": "SF", "lat": -26.552, "lon": 28.327, "n": 4, "art": 14, "url": "https://allafrica.com/stories/202607060489.html"}, {"name": "Gauteng, Gauteng, South Africa", "cc": "SF", "lat": -26.083, "lon": 28.25, "n": 1, "art": 2, "url": "https://allafrica.com/stories/202607060489.html"}, {"name": "Ayacucho, Ayacucho, Peru", "cc": "PE", "lat": -13.158, "lon": -74.224, "n": 1, "art": 6, "url": "https://www.redpepper.org.uk/global-politics/latin-america/the-political-battle-for-peru/"}, {"name": "South Korea", "cc": "KS", "lat": 37.0, "lon": 127.5, "n": 1, "art": 2, "url": "https://africabusiness.com/2026/07/06/the-continent-is-not-waiting-africas-creators-are-already-building-the-economy/"}, {"name": "Lima, Lima, Peru", "cc": "PE", "lat": -12.05, "lon": -77.05, "n": 1, "art": 4, "url": "https://www.redpepper.org.uk/global-politics/latin-america/the-political-battle-for-peru/"}, {"name": "Bhubaneswar, Orissa, India", "cc": "IN", "lat": 20.233, "lon": 85.833, "n": 1, "art": 10, "url": "https://pragativadi.com/aiims-bhubaneswar-secures-10th-rank-in-india-today-mdra-best-medical-colleges-survey-2026/"}, {"name": "South Africa", "cc": "SF", "lat": -30.0, "lon": 26.0, "n": 3, "art": 20, "url": "https://leadership.ng/nans-gives-south-african-businesses-4-day-ultimatum-to-exit-nigeria/"}, {"name": "Nelamangala, Karnataka, India", "cc": "IN", "lat": 13.102, "lon": 77.39, "n": 2, "art": 10, "url": "https://www.thenewsminute.com/karnataka/two-karnataka-govt-staff-on-sir-duty-die-in-two-days-protests-erupt-over-work-pressure"}, {"name": "Iowa, United States", "cc": "US", "lat": 42.005, "lon": -93.214, "n": 1, "art": 1, "url": "http://www.thegazette.com/news/local/american-discovery-250-relay-coming-to-cedar-rapids-in-fall/article_25fef114-27e5-436a-a12c-981a389d1715.html"}, {"name": "Fresno, California, United States", "cc": "US", "lat": 36.748, "lon": -119.772, "n": 2, "art": 4, "url": "https://www.kvpr.org/podcast/central-valley-roots/2026-07-06/two-fresno-area-musicians-who-had-counterculture-rock-hits-in-the-1960s-barry-mcguire-and-terry-talbot"}, {"name": "Sogutlu, Yozgat, Turkey", "cc": "TU", "lat": 39.849, "lon": 35.592, "n": 1, "art": 10, "url": "https://www.ilpost.it/2026/07/06/turchia-nato-repressione/"}, {"name": "Tennessee, United States", "cc": "US", "lat": 35.745, "lon": -86.749, "n": 1, "art": 2, "url": "https://www.globalsecurity.org/military/library/news/2026/07/mil-260705-arnews01.htm"}, {"name": "Alexandria, Al Iskandariyah, Egypt", "cc": "EG", "lat": 31.198, "lon": 29.919, "n": 1, "art": 4, "url": "https://meobserver.org/history/2026/07/06/hypatia-of-alexandria-the-last-light-of-the-ancient-world-6/"}, {"name": "Qalibaf, Semnan, Iran", "cc": "IR", "lat": 35.396, "lon": 52.731, "n": 1, "art": 1, "url": "https://www.globalsecurity.org/wmd/library/news/iran/2026/07/iran-260705-rferl01.htm"}, {"name": "Tullahoma, Tennessee, United States", "cc": "US", "lat": 35.362, "lon": -86.209, "n": 1, "art": 2, "url": "https://www.globalsecurity.org/military/library/news/2026/07/mil-260705-arnews01.htm"}, {"name": "Alabama, United States", "cc": "US", "lat": 32.799, "lon": -86.807, "n": 2, "art": 9, "url": "https://cleantechnica.com/2026/07/06/is-the-us-united-in-an-anti-ai-focus-or-enabling-it-and-all-of-its-consequences/"}, {"name": "Iberian Peninsula, Spain (general), Spain", "cc": "SP", "lat": 40.0, "lon": -5.0, "n": 1, "art": 10, "url": "https://www.novinky.cz/clanek/cestovani-spanelsko-pocita-s-tim-ze-pokori-rekord-100-milionu-zahranicnich-turistu-40586741"}, {"name": "Jaimanitas, Ciudad de La Habana, Cuba", "cc": "CU", "lat": 23.09, "lon": -82.483, "n": 6, "art": 26, "url": "https://www.cubaheadlines.com/articles/334309"}, {"name": "Pathanamthitta, Kerala, India", "cc": "IN", "lat": 9.267, "lon": 76.783, "n": 1, "art": 10, "url": "https://www.prokerala.com/news/articles/a1784547.html"}, {"name": "Boston, Massachusetts, United States", "cc": "US", "lat": 42.358, "lon": -71.06, "n": 1, "art": 3, "url": "https://www.inquirer.com/politics/nation/standing-army-ice-boston-massacre-20260706.html"}, {"name": "El Salvador", "cc": "ES", "lat": 13.833, "lon": -88.917, "n": 1, "art": 1, "url": "https://screenrant.com/the-tick-netflix-streaming-release-date-july-2026/"}, {"name": "Kribi, Sud, Cameroon", "cc": "CM", "lat": 2.95, "lon": 9.917, "n": 1, "art": 10, "url": "https://www.businessincameroon.com/energy/0607-16422-cameroon-s-snh-eyes-yoyo-yolanda-and-new-exploration-blocks-to-sustain-gas-growth"}, {"name": "Hungary", "cc": "HU", "lat": 47.0, "lon": 20.0, "n": 1, "art": 10, "url": "https://webradio.hu/hirek/belfold/fidesz-kdnp-csutortok-este-tuntetesen-tiltakozunk-az-alaptorveny-modositasa-ellen"}, {"name": "Bogota, Cundinamarca, Colombia", "cc": "CO", "lat": 4.6, "lon": -74.083, "n": 2, "art": 20, "url": "https://www.lafm.com.co/actualidad/contraloria-investiga-el-corredor-verde-de-la-septima-y-la-calle-45-mientras-el-idu-responde-404162"}, {"name": "Vienna, Wien, Austria", "cc": "AU", "lat": 48.2, "lon": 16.367, "n": 2, "art": 8, "url": "https://www.5-tv.ru/news/5077208/mid-rossii-zaavil-poslu-svecii-resitelnyj-protest-aii/"}, {"name": "Edo State, Edo, Nigeria", "cc": "NI", "lat": 6.5, "lon": 6.0, "n": 1, "art": 2, "url": "https://www.tell.ng/switzerland-returns-18-artefacts-to-benin/"}, {"name": "Belmopan, Cayo, Belize", "cc": "BH", "lat": 17.25, "lon": -88.767, "n": 1, "art": 4, "url": "https://amandala.com.bz/news/third-minister-on-voluntary-leave-of-absence-pm-says-no-crisis/"}, {"name": "Anatolia, Turkey (general), Turkey", "cc": "TU", "lat": 39.0, "lon": 35.0, "n": 1, "art": 8, "url": "https://bianet.org/haber/turkey-shifts-from-coal-rush-to-coal-dilemma-transferring-market-risk-to-miners-321220"}, {"name": "Budapest, Budapest, Hungary", "cc": "HU", "lat": 47.5, "lon": 19.083, "n": 1, "art": 10, "url": "https://ria.ru/20260706/fides-2103115641.html"}, {"name": "Doha, Ad Daw?ah, Qatar", "cc": "QA", "lat": 25.287, "lon": 51.533, "n": 2, "art": 12, "url": "https://www.skaikritis.gr/ekatommyria-iranoi-stous-dromous-gia-ton-ali-chamenei-teletes-se-pente-poleis-deite-vinteo/"}, {"name": "Lower Saxony, Niedersachsen, Germany", "cc": "GM", "lat": 52.0, "lon": 10.0, "n": 2, "art": 20, "url": "https://www.dw.com/fr/afd-allemagne-congr%C3%A8s-alice-weidel/a-77850985"}, {"name": "Morocco", "cc": "MO", "lat": 32.0, "lon": -5.0, "n": 1, "art": 8, "url": "https://www.sdpnoticias.com/opinion/el-orgullo-de-todas-las-victorias/"}, {"name": "Sanaa, San\u0091a', Yemen", "cc": "YM", "lat": 15.355, "lon": 44.207, "n": 1, "art": 10, "url": "https://bawabatii.com/news350044.html"}, {"name": "Vancouver, British Columbia, Canada", "cc": "CA", "lat": 49.25, "lon": -123.133, "n": 1, "art": 10, "url": "https://thewalrus.ca/the-people-who-want-to-stop-ai-by-any-means-necessary/"}, {"name": "Ohio, United States", "cc": "US", "lat": 40.374, "lon": -82.775, "n": 4, "art": 13, "url": "https://www.springfieldnewssun.com/local/dayton-s-techmetals-hiring-for-50-jobs-after-landing-state-tax-credit/article_064973da-d0b4-5c2a-8662-216c5f08b2f9.html"}, {"name": "San Francisco, California, United States", "cc": "US", "lat": 37.775, "lon": -122.419, "n": 2, "art": 14, "url": "https://www.ktvu.com/news/gridlock-fog-frustrate-many-san-francisco-july-4"}, {"name": "Warsaw, (PL67), Poland", "cc": "PL", "lat": 52.25, "lon": 21.0, "n": 2, "art": 10, "url": "https://www.actualno.com/opinion/polsha-iska-da-ni-denacificira-kakto-rusija-njakolko-stypki-pred-ukrajna-news_2615205.html"}, {"name": "Omsk, Omskaya Oblast', Russia", "cc": "RS", "lat": 55.0, "lon": 73.4, "n": 1, "art": 10, "url": "https://military.pravda.ru/news/2367928-omsk-refinery-drone-attack/"}, {"name": "Kaduna, Kaduna, Nigeria", "cc": "NI", "lat": 10.523, "lon": 7.44, "n": 1, "art": 2, "url": "https://blueprint.ng/northern-christian-leaders-visit-muslim-family-of-lynched-kaduna-woman/"}, {"name": "Zvernec, Vlore, Albania", "cc": "AL", "lat": 40.515, "lon": 19.417, "n": 5, "art": 38, "url": "https://albeu.com/lajme/revolucioni-i-flamingo-ve-nuk-terhiqet-televizioni-publik-austriak-jehone-protestave-ne-vendin-tone-rama-akuzohet-nga-qytetaret-per-korrupsion/913998/"}, {"name": "Sazan, Vlore, Albania", "cc": "AL", "lat": 40.492, "lon": 19.275, "n": 1, "art": 10, "url": "https://sot.com.al/aktualitet/shqiperia-nuk-eshte-ne-shitje-huffington-post-protesta-po-rritet-mobilizimi-ska-qene-kurre-kaq-i-madh/"}, {"name": "Kharkiv, Kharkivs'ka Oblast', Ukraine", "cc": "UP", "lat": 49.981, "lon": 36.253, "n": 1, "art": 10, "url": "https://24tv.ua/law/napad-sluzhbovtsiv-ttsk-pid-chas-mobilizatsiyi-samooborona-intervyu_n3100738"}, {"name": "Ahmedabad, Gujarat, India", "cc": "IN", "lat": 23.033, "lon": 72.617, "n": 2, "art": 20, "url": "https://morungexpress.com/empowering-excellence-how-the-top-class-education-schemes-shaping-indias-future-leaders"}, {"name": "Ethiopia", "cc": "ET", "lat": 8.0, "lon": 38.0, "n": 2, "art": 4, "url": "http://www.arabherald.com/news/279170589/uae-ethiopia-expand-5-million-ethiopian-coders-initiative-to-7-million"}, {"name": "Saskatchewan, Manitoba, Canada", "cc": "CA", "lat": 52.15, "lon": -97.717, "n": 1, "art": 5, "url": "https://www.620ckrm.com/2026/07/06/100-years-of-ckrm-the-saskatchewan-doctors-strike-of-1962/"}, {"name": "Chalchihuapan, M\u00e9co, Mexico", "cc": "MX", "lat": 18.967, "lon": -99.575, "n": 2, "art": 16, "url": "https://puebla.quadratin.com.mx/investigacion/chalchihuapan-el-caso-que-persigue-al-morenovallismo-doce-anos-despues/"}, {"name": "Tomatin, Highland, United Kingdom", "cc": "UK", "lat": 57.333, "lon": -3.983, "n": 1, "art": 2, "url": "https://thewhiskeywash.com/whiskey-news/tomatin-expands-uk-retail-offerings-of-double-cask-10-year-old/"}, {"name": "Canada", "cc": "CA", "lat": 60.0, "lon": -96.0, "n": 7, "art": 27, "url": "https://www.ckom.com/2026/07/06/immediate-consequences-minister-explains-new-sask-plan-to-deter-impaired-driving/"}, {"name": "Yemen", "cc": "YM", "lat": 15.5, "lon": 47.5, "n": 3, "art": 18, "url": "https://www.khabaragency.net/news249560.html"}, {"name": "Karacor, Elazig, Turkey", "cc": "TU", "lat": 38.711, "lon": 39.622, "n": 1, "art": 10, "url": "https://www.elperiodico.com/es/internacional/20260706/cara-b-cumbre-otan-turquia-detiene-cientos-personas-prohibe-actos-publicos-protestas-132183540"}, {"name": "Ecuador", "cc": "EC", "lat": -2.0, "lon": -77.5, "n": 4, "art": 24, "url": "https://eltiempo.pe/local/cierre-del-puente-macara-la-tina-deja-a-escolares-trabajadores-y-pacientes-peruanos-aislados/"}, {"name": "Piotrkow Trybunalski, L\u00f3ie, Poland", "cc": "PL", "lat": 51.41, "lon": 19.695, "n": 1, "art": 10, "url": "https://www.rp.pl/opinie-ekonomiczne/art44778441-wodorowy-bialy-slon-jak-dotacje-wykreowaly-rynek-ktorego-nie-ma"}, {"name": "Bryngwyn, Monmouthshire, United Kingdom", "cc": "UK", "lat": 51.783, "lon": -2.883, "n": 1, "art": 3, "url": "https://www.walesonline.co.uk/news/education/struggling-schools-need-major-improvements-34242773"}, {"name": "Carmarthenshire, Carmarthenshire, United Kingdom", "cc": "UK", "lat": 51.833, "lon": -4.167, "n": 1, "art": 2, "url": "https://www.walesonline.co.uk/news/education/struggling-schools-need-major-improvements-34242773"}, {"name": "Azerbaijan", "cc": "AJ", "lat": 40.5, "lon": 47.5, "n": 3, "art": 15, "url": "https://news.am/en/news/1048162"}, {"name": "Kalighat, West Bengal, India", "cc": "IN", "lat": 22.517, "lon": 88.333, "n": 1, "art": 8, "url": "https://www.indiablooms.com/news/baruipur-horror-cctv-footage-helps-identify-accused-as-police-arrest-three-bengal-remains-on-edge/details"}, {"name": "Slavyansk, Donets'ka Oblast', Ukraine", "cc": "UP", "lat": 48.841, "lon": 37.59, "n": 1, "art": 1, "url": "https://www.kyivpost.com/post/79694"}, {"name": "Minnesota, United States", "cc": "US", "lat": 45.733, "lon": -93.92, "n": 3, "art": 7, "url": "https://www.theatlantic.com/ideas/2026/07/alex-pretti-renee-good-accountability/687792/"}, {"name": "Mihail Kogalniceanu, Romania (general), Romania", "cc": "RO", "lat": 44.367, "lon": 28.45, "n": 1, "art": 10, "url": "https://adevarul.ro/politica/ce-poate-obtine-romania-la-summitul-nato-de-la-2541160.html"}, {"name": "Odessa, Odes'ka Oblast, Ukraine", "cc": "UP", "lat": 46.464, "lon": 30.739, "n": 2, "art": 20, "url": "https://www.kommersant.ru/doc/8797608"}, {"name": "Miami, Florida, United States", "cc": "US", "lat": 25.774, "lon": -80.194, "n": 2, "art": 12, "url": "https://www.butlereagle.com/20260706/total-power-grid-failure-leaves-cuba-in-darkness-amid-growing-crisis-and-protests/"}, {"name": "White Strand, Cork, Ireland", "cc": "EI", "lat": 51.616, "lon": -10.126, "n": 1, "art": 2, "url": "https://clarechampion.ie/locals-disgusted-with-use-of-pinger-on-dusty/"}, {"name": "Nairobi, Nairobi Area, Kenya", "cc": "KE", "lat": -1.283, "lon": 36.817, "n": 3, "art": 30, "url": "https://www.lapresse.ca/actualites/insolite/2026-07-06/kenya/l-homme-oiseau-de-nairobi-devient-viral-mais-inquiete-des-medecins.php"}, {"name": "Dakar, Dakar, Senegal", "cc": "SG", "lat": 14.737, "lon": -17.634, "n": 2, "art": 8, "url": "https://www.dw.com/en/senegals-power-struggle-referendum-to-decide-on-constitutional-reform/a-77809238"}, {"name": "Indianapolis, Indiana, United States", "cc": "US", "lat": 39.768, "lon": -86.158, "n": 1, "art": 10, "url": "https://www.insideindianabusiness.com/articles/nearly-a-third-of-indiana-counties-have-moved-to-restrict-data-centers"}, {"name": "Bushati, Qarku Shkoder, Albania", "cc": "AL", "lat": 41.96, "lon": 19.534, "n": 2, "art": 30, "url": "https://www.botasot.info/shqiperia/2503302/ditmir-bushati-protestat-po-krijojne-nje-shqiperi-te-re/"}, {"name": "Chinchpokli, Maharashtra, India", "cc": "IN", "lat": 18.983, "lon": 72.833, "n": 2, "art": 20, "url": "https://www.freepressjournal.in/mumbai/maharashtra-40000-ayush-practitioners-launch-statewide-agitation-hunger-strike"}, {"name": "New Mexico, United States", "cc": "US", "lat": 34.837, "lon": -106.237, "n": 1, "art": 8, "url": "https://ladailypost.com/dannemann-gregg-hull-doesnt-trust-new-mexico-elections/"}, {"name": "Sebaldsbruck, Bremen, Germany", "cc": "GM", "lat": 53.067, "lon": 8.883, "n": 2, "art": 20, "url": "https://www.902.gr/eidisi/kosmos/424250/germania-mazikes-ergatikes-kinitopoiiseis-enantia-stin-epithesi-tis-kyvernisis"}, {"name": "Akinci, Siirt, Turkey", "cc": "TU", "lat": 37.992, "lon": 41.865, "n": 1, "art": 2, "url": "https://dialogos.com.cy/syllipseis-stin-agkyra-prin-ti-synodo-toy-nato/"}, {"name": "Jaipur, Rajasthan, India", "cc": "IN", "lat": 26.917, "lon": 75.817, "n": 2, "art": 10, "url": "https://timesofindia.indiatimes.com/city/jaipur/basic-facilities-fail-430-crystal-court-traders-shut-mall-in-protest/articleshow/132221640.cms"}, {"name": "Northern Ireland, Craigavon, United Kingdom", "cc": "UK", "lat": 54.5, "lon": -6.5, "n": 2, "art": 20, "url": "https://www2.fundsforngos.org/cat/nominations-open-gsk-impact-award-2027-united-kingdom/"}, {"name": "Vanuatu", "cc": "NH", "lat": -16.0, "lon": 167.0, "n": 1, "art": 4, "url": "https://www.dailypost.vu/news/vango-calls-on-the-minister-of-justice-community-services-and-youth-to-table-the-child/article_73f8efdf-1a97-5858-a519-fc4275dc1ec9.html"}, {"name": "Samara, Samarskaya Oblast', Russia", "cc": "RS", "lat": 53.2, "lon": 50.15, "n": 1, "art": 10, "url": "https://volga.news/article/796965.html"}, {"name": "La Guaira, Vargas, Venezuela", "cc": "VE", "lat": 10.6, "lon": -66.93, "n": 1, "art": 10, "url": "https://www.upi.com/Top_News/World-News/2026/07/06/latam-venezuela-delcy-rodriguez-opponents-destabilization/5211783357136/"}, {"name": "Mexico", "cc": "MX", "lat": 23.0, "lon": -102.0, "n": 2, "art": 20, "url": "https://www.europapress.es/internacional/noticia-gobierno-francia-supera-mocion-censura-protesta-gestion-ola-calor-20260706172715.html"}, {"name": "Ituri, Congo, Democratic Republic of The (general), Democratic Republic Of The Congo", "cc": "CG", "lat": 1.85, "lon": 29.967, "n": 1, "art": 10, "url": "https://www.alquds.com/ar/posts/248306"}, {"name": "Sfax, Safaqis, Tunisia", "cc": "TS", "lat": 34.741, "lon": 10.76, "n": 1, "art": 10, "url": "https://www.alquds.com/ar/posts/248423"}, {"name": "Saudi Arabia", "cc": "SA", "lat": 25.0, "lon": 45.0, "n": 2, "art": 10, "url": "https://www.ledevoir.com/politique/canada/992813/carney-place-pions-avant-sommet-otan-sous-haute-tension"}, {"name": "Nevada, United States", "cc": "US", "lat": 38.42, "lon": -117.122, "n": 1, "art": 10, "url": "https://www.lanacion.com.ar/sociedad/a-19-anos-de-la-historica-postal-blanca-del-obelisco-puede-nevar-este-9-de-julio-nid06072026/"}, {"name": "Denmark", "cc": "DA", "lat": 56.0, "lon": 10.0, "n": 1, "art": 10, "url": "https://www.lequipe.fr/Cyclisme-sur-route/Actualites/Pour-la-premiere-fois-de-sa-carriere-jonas-vingegaard-a-perdu-le-maillot-jaune-au-cours-d-une-edition-du-tour-de-france/1701997"}, {"name": "Nagpur, Maharashtra, India", "cc": "IN", "lat": 21.15, "lon": 79.1, "n": 2, "art": 10, "url": "https://auto.economictimes.indiatimes.com/news/industry/anand-mahindra-calls-for-attack-mode-as-disruption-becomes-the-new-normal/132220311"}, {"name": "Frankfurt, Brandenburg, Germany", "cc": "GM", "lat": 52.35, "lon": 14.55, "n": 1, "art": 8, "url": "https://www.jpost.com/middle-east/iran-news/article-901588"}, {"name": "Bangkok, Krung Thep Mahanakhon, Thailand", "cc": "TH", "lat": 13.75, "lon": 100.517, "n": 1, "art": 8, "url": "https://www.jpost.com/middle-east/iran-news/article-901588"}, {"name": "Trump Tower, New York, United States", "cc": "US", "lat": 40.763, "lon": -73.974, "n": 1, "art": 2, "url": "https://www.jpost.com/middle-east/iran-news/article-901588"}, {"name": "Play As, Durango, Mexico", "cc": "MX", "lat": 25.617, "lon": -104.367, "n": 1, "art": 20, "url": "https://www.critica.com.mx/vernoticias.php?artid=117573&mas=1"}, {"name": "Goktas, Sanliurfa, Turkey", "cc": "TU", "lat": 36.823, "lon": 39.29, "n": 1, "art": 10, "url": "https://www.is.fi/ulkomaat/art-2000012124634.html"}, {"name": "La Espriella, Nari\u00f1O, Colombia", "cc": "CO", "lat": 1.469, "lon": -78.643, "n": 3, "art": 9, "url": "https://www.riotimesonline.com/colombia-defense-minister-jorge-mora-espriella-2026/"}, {"name": "Santa Clara County, California, United States", "cc": "US", "lat": 37.233, "lon": -121.768, "n": 1, "art": 10, "url": "https://www.mv-voice.com/news/2026/07/06/silicon-valley-immigration-advocates-say-birthright-fight-isnt-over/"}, {"name": "Ogun State, Ogun, Nigeria", "cc": "NI", "lat": 7.0, "lon": 3.583, "n": 6, "art": 17, "url": "https://dailytrust.com/lawyers-boycott-ogun-courts-over-%E2%82%A6100000-virtual-hearing-fee-other-policies/"}, {"name": "Ottawa, Ontario, Canada", "cc": "CA", "lat": 45.417, "lon": -75.7, "n": 1, "art": 10, "url": "https://www.brandonsun.com/local/2026/07/06/office-space-scarce-as-federal-public-servants-return-to-the-office-four-days-a-week"}, {"name": "Abeokuta, Ogun, Nigeria", "cc": "NI", "lat": 7.15, "lon": 3.35, "n": 1, "art": 1, "url": "https://dailytrust.com/lawyers-boycott-ogun-courts-over-%E2%82%A6100000-virtual-hearing-fee-other-policies/"}, {"name": "Pancevo, , Serbia", "cc": "RI", "lat": 44.871, "lon": 20.64, "n": 2, "art": 14, "url": "https://www.politika.rs/scc/clanak/768443/pogledi/doslo-vreme-sve-se-preokrene"}, {"name": "Tambaram, Tamil Nadu, India", "cc": "IN", "lat": 12.927, "lon": 80.111, "n": 1, "art": 10, "url": "https://timesofindia.indiatimes.com/city/chennai/indian-air-force-chopper-makes-emergency-landing-in-chengalpets-keerapakkam/articleshow/132224028.cms"}, {"name": "Kashmir, Jammu and Kashmir, India", "cc": "IN", "lat": 33.917, "lon": 76.667, "n": 1, "art": 2, "url": "https://timesofindia.indiatimes.com/india/nc-to-stage-protest-at-jantar-mantar-for-jk-statehood-on-july-20-dy-cm-surinder-choudhary/articleshow/132224161.cms"}, {"name": "Case Western Reserve University, Ohio, United States", "cc": "US", "lat": 41.505, "lon": -81.597, "n": 1, "art": 3, "url": "https://www.newswise.com/articles/cleveland-researchers-discover-potential-new-treatment-for-parkinson-s-disease-and-other-neurodegenerative-conditions"}, {"name": "Vlora, Vlore, Albania", "cc": "AL", "lat": 40.467, "lon": 19.49, "n": 1, "art": 10, "url": "https://sot.com.al/aktualitet/shqiperia-eshte-ne-krize-anetarja-e-pd-se-rama-fryn-shifrat-e-mbrojtjes-ndersa-aleatet-shohin-korrupsionin/"}, {"name": "Charlottesville, Virginia, United States", "cc": "US", "lat": 38.029, "lon": -78.477, "n": 2, "art": 3, "url": "https://english.elpais.com/usa/2026-07-06/patriot-front-the-masked-white-supremacists-who-marched-through-washington-on-july-4.html"}, {"name": "Chile", "cc": "CI", "lat": -30.0, "lon": -71.0, "n": 1, "art": 10, "url": "https://www.biobiochile.cl/noticias/espectaculos-y-tv/k-pop/2026/07/06/army-chileno-llega-a-la-tv-coreana-cubrieron-protestas-por-falta-de-respuestas-sobre-concierto-de-bts.shtml"}, {"name": "Safak, Antalya, Turkey", "cc": "TU", "lat": 36.914, "lon": 30.637, "n": 1, "art": 10, "url": "https://www.dagbladet.no/nyheter/enorm-sikkerhet-for-trump/84866700"}, {"name": "Mirpur, Punjab, Pakistan", "cc": "PK", "lat": 33.047, "lon": 72.095, "n": 6, "art": 28, "url": "https://thefrontierpost.com/protest-leaders-say-fresh-clashes-in-azad-kashmir-kill-two-as-police-contest-claim/"}, {"name": "Mehrabad, Kerman, Iran", "cc": "IR", "lat": 30.064, "lon": 55.132, "n": 1, "art": 10, "url": "https://itongadol.com/internacionales/portavoz-militar-irani-aprovechamos-el-alto-el-fuego-para-mejorar-nuestras-capacidades-de-combate"}, {"name": "Malta", "cc": "MT", "lat": 35.917, "lon": 14.433, "n": 1, "art": 10, "url": "https://www.dw.com/el/%CE%B8%CF%85%CF%83%CE%AF%CE%B1%CF%83%CE%B5-%CF%84%CE%B7-%CE%B6%CF%89%CE%AE-%CF%84%CE%B7%CF%82-%CE%B3%CE%B9%CE%B1-%CF%84%CE%B7%CE%BD-%CE%B1%CE%BB%CE%AE%CE%B8%CE%B5%CE%B9%CE%B1/a-40984014"}, {"name": "Los Angeles, California, United States", "cc": "US", "lat": 34.052, "lon": -118.244, "n": 1, "art": 8, "url": "https://wibailoutpeople.org/2026/07/06/july-6-2026-call-in-day-to-stand-with-immigrants-rights-activist-nadia-topete/"}, {"name": "Wisconsin, United States", "cc": "US", "lat": 44.256, "lon": -89.638, "n": 1, "art": 2, "url": "https://wibailoutpeople.org/2026/07/06/july-6-2026-call-in-day-to-stand-with-immigrants-rights-activist-nadia-topete/"}, {"name": "Sangster International Airport, Saint James, Jamaica", "cc": "JM", "lat": 18.502, "lon": -77.914, "n": 2, "art": 3, "url": "https://www.jamaicaobserver.com/2026/07/06/airlines-remain-confident-destination-jamaica/"}, {"name": "Brazil", "cc": "BR", "lat": -10.0, "lon": -55.0, "n": 1, "art": 10, "url": "https://amanha.com.br/categoria/tecnologia/agro-brasileiro-atinge-maturidade-digital-recorde"}, {"name": "Nagaland, Nagaland, India", "cc": "IN", "lat": 26.0, "lon": 94.25, "n": 1, "art": 5, "url": "https://morungexpress.com/the-market-trap-vs-constitutional-custodianship-a-strategic-critique-of-nagalands-mineral-auction-road-map"}, {"name": "Camargo, Paran\u00e1R, Brazil", "cc": "BR", "lat": -23.35, "lon": -53.717, "n": 3, "art": 18, "url": "https://g1.globo.com/sp/sao-paulo/noticia/2026/07/06/9-de-julho-e-feriado-em-sp-entenda-o-motivo-e-a-historia-da-data.ghtml"}, {"name": "Tel Aviv, Tel Aviv, Israel", "cc": "IS", "lat": 32.067, "lon": 34.767, "n": 2, "art": 18, "url": "https://www.arabnews.com/node/2649901/middle-east"}, {"name": "Edessa, Sanliurfa, Turkey", "cc": "TU", "lat": 37.167, "lon": 38.794, "n": 1, "art": 10, "url": "https://www.stoxos.gr/2026/07/11.html"}, {"name": "Colombo, Western, Sri Lanka", "cc": "CE", "lat": 6.932, "lon": 79.848, "n": 1, "art": 10, "url": "https://www.arthosuchak.com/archives/965351/%E0%A6%B6%E0%A7%8D%E0%A6%B0%E0%A7%80%E0%A6%B2%E0%A6%99%E0%A7%8D%E0%A6%95%E0%A6%BE%E0%A6%AF%E0%A6%BC-%E0%A6%95%E0%A6%BE%E0%A6%B0%E0%A6%BE%E0%A6%97%E0%A6%BE%E0%A6%B0%E0%A7%87-%E0%A6%B8%E0%A6%82%E0%A6%98/"}, {"name": "Jhelum, Punjab, Pakistan", "cc": "PK", "lat": 30.823, "lon": 72.487, "n": 1, "art": 10, "url": "https://thefrontierpost.com/protest-leaders-say-fresh-clashes-in-azad-kashmir-kill-two-as-police-contest-claim/"}, {"name": "Barranquilla, Atl\u00e1ico, Colombia", "cc": "CO", "lat": 10.964, "lon": -74.796, "n": 1, "art": 5, "url": "https://thecitypaperbogota.com/news/colombias-mayors-back-de-la-espriellas-anti-crime-crackdown/"}, {"name": "Teton Range, Wyoming, United States", "cc": "US", "lat": 43.751, "lon": -110.884, "n": 1, "art": 5, "url": "https://www.miragenews.com/tetons-rock-glaciers-hold-ice-longer-than-others-1705448/"}, {"name": "Wyoming, United States", "cc": "US", "lat": 42.748, "lon": -107.209, "n": 1, "art": 1, "url": "https://www.miragenews.com/tetons-rock-glaciers-hold-ice-longer-than-others-1705448/"}, {"name": "Geneva, Gen\u00e8, Switzerland", "cc": "SZ", "lat": 46.196, "lon": 6.148, "n": 2, "art": 14, "url": "https://www.hola.com/us/royals/20260706911260/meghan-markle-comments-archie-lilibet-uk-trip/"}, {"name": "Mures, Mures, Romania", "cc": "RO", "lat": 46.667, "lon": 24.583, "n": 1, "art": 6, "url": "https://stirileprotv.ro/stiri/actualitate/unde-au-ajuns-cele-aproape-400-de-persoane-din-azilele-ilegale-din-bihor-un-barbat-a-murit-in-timpul-relocarii.html"}, {"name": "Pasca, Romania (general), Romania", "cc": "RO", "lat": 44.95, "lon": 27.883, "n": 1, "art": 14, "url": "https://www.digi24.ro/stiri/dragos-pislaru-dupa-cazul-azilelor-din-bihor-statul-roman-este-in-multe-cazuri-incapabil-sa-ii-ajute-tocmai-pe-cei-vulnerabili-3850065"}, {"name": "Liberty State Park, New Jersey, United States", "cc": "US", "lat": 40.704, "lon": -74.054, "n": 1, "art": 2, "url": "https://seapowermagazine.org/u-s-navy-kicks-off-historic-international-naval-review-250-in-new-york-harbor/"}, {"name": "Lakeland, Florida, United States", "cc": "US", "lat": 28.04, "lon": -81.95, "n": 2, "art": 24, "url": "https://www.advocate-news.com/2026/07/06/defunding-abortion-providers-what-to-know/"}, {"name": "Berlin, Berlin, Germany", "cc": "GM", "lat": 52.517, "lon": 13.4, "n": 1, "art": 10, "url": "https://themunicheye.com/germany-2027-budget-military-infrastructure-spending-34409"}, {"name": "Mamanuca, Western, Fiji", "cc": "FJ", "lat": -17.567, "lon": 177.067, "n": 3, "art": 12, "url": "https://www.fijivillage.com/news/joint-maritime-operation-strengthens-security-and-safety-across-mamanuca-waters-85610b/"}, {"name": "Sussex, East Sussex, United Kingdom", "cc": "UK", "lat": 50.917, "lon": -0.083, "n": 1, "art": 1, "url": "https://www.hola.com/us/royals/20260706911260/meghan-markle-comments-archie-lilibet-uk-trip/"}, {"name": "Versailles, Camag\u00fc, Cuba", "cc": "CU", "lat": 21.992, "lon": -77.635, "n": 1, "art": 8, "url": "https://diariodecuba.com/derechos-humanos/1783364925_67851.html"}, {"name": "Saint-Dizier, Limousin, France", "cc": "FR", "lat": 46.317, "lon": 2.017, "n": 3, "art": 10, "url": "https://jhm.fr/operes-du-sein-un-avant-gout-du-tour-cyclo-doctobre-rose/"}, {"name": "Sigonella, Sicilia, Italy", "cc": "IT", "lat": 37.4, "lon": 14.917, "n": 1, "art": 10, "url": "https://www.corrieresalentino.it/2026/07/gianfranco-fini-a-filorosso-rai-3-essere-antifascisti-non-vuole-dire-essere-necessariamente-di-sinistra/"}, {"name": "Turtle Island, British Columbia, Canada", "cc": "CA", "lat": 48.883, "lon": -125.3, "n": 1, "art": 10, "url": "https://theturtleislandnews.com/index.php/2026/07/06/indigenous-treaties-feeling-threatened-once-again/"}, {"name": "Rosslyn, Gauteng, South Africa", "cc": "SF", "lat": -25.624, "lon": 28.094, "n": 1, "art": 9, "url": "https://allafrica.com/stories/202607060785.html"}, {"name": "Prince Rupert, British Columbia, Canada", "cc": "CA", "lat": 54.317, "lon": -130.333, "n": 1, "art": 10, "url": "https://martlet.ca/b-c-climate-activists-face-tumultuous-road-ahead-amidst-nation-building-projects/"}, {"name": "Arkansas, United States", "cc": "US", "lat": 34.951, "lon": -92.381, "n": 2, "art": 10, "url": "https://www.arkansasonline.com/news/2026/jul/06/arkansas-tech-university-welcomes-governors/"}, {"name": "Bhaktapur, Nepal (general), Nepal", "cc": "NP", "lat": 27.673, "lon": 85.43, "n": 2, "art": 5, "url": "https://slguardian.org/nepal-the-first-100-days-of-balenism/"}, {"name": "Maine, United States", "cc": "US", "lat": 44.607, "lon": -69.398, "n": 1, "art": 2, "url": "https://www.centralmaine.com/2026/07/06/maine-women-accuses-graham-platner-of-rape-politico-reports-story-tk/"}, {"name": "Portugal", "cc": "PO", "lat": 39.5, "lon": -8.0, "n": 1, "art": 10, "url": "https://noa.al/lajmi/2026/07/2598769.html"}, {"name": "Calgary, Alberta, Canada", "cc": "CA", "lat": 51.083, "lon": -114.083, "n": 1, "art": 5, "url": "https://www.bnnbloomberg.ca/business/politics/2026/07/06/german-company-tkms-to-supply-canada-with-new-submarines-by-2034/"}, {"name": "Matanzas, Matanzas, Cuba", "cc": "CU", "lat": 23.041, "lon": -81.578, "n": 1, "art": 10, "url": "https://www.cubaheadlines.com/articles/334355"}, {"name": "Finland", "cc": "FI", "lat": 64.0, "lon": 26.0, "n": 1, "art": 10, "url": "https://libero.pe:443/estados-unidos/2026/07/06/alerta-maxima-inmigrantes-legales-indocumentados-en-estados-unidos-hombre-demanda-dhs-ser-localizado-enviar-insolito-correo-ice-usa-ee-uu-lbeu-370284"}, {"name": "Luxembourg", "cc": "LU", "lat": 49.75, "lon": 6.167, "n": 1, "art": 2, "url": "https://zaxid.net/na_mogili_druzhini_golovi_oun_sofiyi_melnik_vstanovili_povnotsinniy_pamyatnik_n1640945"}, {"name": "Waterford City, Waterford City, Ireland", "cc": "EI", "lat": 52.242, "lon": -7.108, "n": 1, "art": 10, "url": "https://www.waterford-news.ie/news/victory-as-waterfords-long-fought-campaign-for-24-7-cardiac-care-finally-comes-to-a-close_arid-104101.html"}, {"name": "Melbourne, Victoria, Australia", "cc": "AS", "lat": -37.817, "lon": 144.967, "n": 3, "art": 10, "url": "https://www.dailymail.com/news/article-15957747/bolte-bridge-graffiti-pam-bird-melbourne-standoff-police-gibson-burrell.html"}, {"name": "Golan Heights, Syria (general), Syria", "cc": "SY", "lat": 32.905, "lon": 35.807, "n": 1, "art": 1, "url": "https://www.sott.net/article/507282-Israel-isnt-leaving-Lebanon-and-Syria-may-be-next"}, {"name": "Khust, Zakarpats'ka Oblast', Ukraine", "cc": "UP", "lat": 48.179, "lon": 23.299, "n": 2, "art": 10, "url": "https://zakarpattya.net.ua/Archive/2026-07-07"}, {"name": "Manaus, Amazonas, Brazil", "cc": "BR", "lat": -3.113, "lon": -60.025, "n": 1, "art": 10, "url": "https://www.dw.com/pt-br/sob-lula-brasil-vive-pol%C3%ADtica-ambiental-contradit%C3%B3ria/a-77617925"}, {"name": "Tyachiv, Zakarpats'ka Oblast', Ukraine", "cc": "UP", "lat": 48.012, "lon": 23.571, "n": 1, "art": 6, "url": "https://zakarpattya.net.ua/Archive/2026-07-07"}, {"name": "La Libertad, Lima, Peru", "cc": "PE", "lat": -11.966, "lon": -77.054, "n": 1, "art": 10, "url": "https://rpp.pe/peru/actualidad/la-libertad-comunidad-campesina-y-minera-caraveli-instalan-mesa-de-dialogo-tras-protestas-por-contaminacion-en-pataz-noticia-1696143"}, {"name": "Newport Beach, California, United States", "cc": "US", "lat": 33.619, "lon": -117.929, "n": 1, "art": 8, "url": "https://www.ocregister.com/2026/07/06/newport-beach-assessing-chaotic-july-4-will-reach-out-to-arizona-officials-where-many-arrested-appear-to-be-from/"}, {"name": "Yolo County, California, United States", "cc": "US", "lat": 38.7, "lon": -121.884, "n": 1, "art": 2, "url": "https://www.davisenterprise.com/news/thompson-honors-2026-yolo-county-american-dream-award-recipient/article_747c766d-1743-4a16-b091-e8e746709847.html"}, {"name": "Montreal, Quebec, Canada", "cc": "CA", "lat": 45.5, "lon": -73.583, "n": 1, "art": 4, "url": "https://www.lapresse.ca/actualites/justice-et-faits-divers/2026-07-06/montreal/agressions-contre-des-hassidiques-a-outremont.php"}, {"name": "Muhafazat Salah Ad Din, Sala? ad Din, Iraq", "cc": "IZ", "lat": 34.5, "lon": 43.65, "n": 1, "art": 10, "url": "https://www.albayan.ae/news/middle-east/iraq/1485542"}]