[{"name": "Germany", "cc": "GM", "lat": 51.5, "lon": 10.5, "n": 10, "art": 76, "url": "https://naslovi.net/tema/2534650"}, {"name": "Albania", "cc": "AL", "lat": 41.0, "lon": 20.0, "n": 12, "art": 108, "url": "https://www.oranews.tv/politike/strasburgu-pa-marreveshje-rama-eurodeputetet-votuan-per-shqiperine-opoz-i1335392"}, {"name": "Israel", "cc": "IS", "lat": 31.5, "lon": 34.75, "n": 26, "art": 112, "url": "https://www.diariopanorama.com/noticia/559003/benjamin-netanyahu-advirtio-guerra-iran-aun-no-ha-terminado"}, {"name": "Vancouver, British Columbia, Canada", "cc": "CA", "lat": 49.25, "lon": -123.133, "n": 4, "art": 28, "url": "https://dailyhive.com/vancouver/city-councillor-vancouver-pause-ai-data-centres"}, {"name": "Los Angeles, California, United States", "cc": "US", "lat": 34.052, "lon": -118.244, "n": 1, "art": 40, "url": "https://laist.com/brief/news/climate-environment/la-county-san-gabriel-valley-aedes-mosquitoes-released"}, {"name": "Ireland", "cc": "EI", "lat": 53.0, "lon": -8.0, "n": 3, "art": 20, "url": "https://www.popularmechanics.com/science/a71856173/bacteria-learn-cellular-memory/"}, {"name": "Nakaseke, Nakaseke, Uganda", "cc": "UG", "lat": 0.752, "lon": 32.385, "n": 1, "art": 8, "url": "https://observer.ug/business/when-rains-fail-solar-keeps-the-milk-flowing-in-nakaseke/"}, {"name": "Washington, District of Columbia, United States", "cc": "US", "lat": 38.895, "lon": -77.036, "n": 16, "art": 60, "url": "https://www.fox5ny.com/news/trump-birthright-citizenship-supreme-court"}, {"name": "China", "cc": "CH", "lat": 35.0, "lon": 105.0, "n": 7, "art": 55, "url": "https://24-ore.com/protesta-ne-gjermani-per-shkak-te-shkurtimeve-te-vendeve-te-punes-dhe-mbylljes-se-fabrikave-nga-volkswagen/"}, {"name": "Miracosta College, California, United States", "cc": "US", "lat": 33.19, "lon": -117.302, "n": 2, "art": 40, "url": "https://laist.com/brief/news/climate-environment/la-county-san-gabriel-valley-aedes-mosquitoes-released"}, {"name": "California, United States", "cc": "US", "lat": 36.17, "lon": -119.746, "n": 8, "art": 42, "url": "https://www.kuaf.com/show/ozarks-at-large/2026-07-09/npr-podcast-revisits-unsolved-killing-of-teen-at-seattles-chop"}, {"name": "Ankara, Ankara, Turkey", "cc": "TU", "lat": 39.927, "lon": 32.864, "n": 15, "art": 84, "url": "https://www.bbc.co.uk/news/articles/c8r263463e0o"}, {"name": "Sweden", "cc": "SW", "lat": 62.0, "lon": 15.0, "n": 9, "art": 90, "url": "https://laopinion.co:443/entretenimiento/asistente-de-shakira-se-roba-las-miradas-con-inesperada-aparicion-durante"}, {"name": "Georgia, United States", "cc": "US", "lat": 32.987, "lon": -83.649, "n": 8, "art": 34, "url": "https://www.popularmechanics.com/science/a71856173/bacteria-learn-cellular-memory/"}, {"name": "Istanbul, Istanbul, Turkey", "cc": "TU", "lat": 41.019, "lon": 28.965, "n": 5, "art": 37, "url": "https://www.dailysabah.com/politics/turkiyes-ruling-ak-party-invites-public-to-hagia-sophia-anniversary-march/news"}, {"name": "Chacao, Anzo\u00e1gui, Venezuela", "cc": "VE", "lat": 8.977, "lon": -63.694, "n": 2, "art": 10, "url": "https://havanatimes.org/news/venezuelan-union-coalition-says-interim-government-must-end/"}, {"name": "Birzeit, West Bank (general), West Bank", "cc": "WE", "lat": 31.97, "lon": 35.194, "n": 2, "art": 5, "url": "https://yourdemocracy.net/drupal/node/60377"}, {"name": "Guajira, Lara, Venezuela", "cc": "VE", "lat": 9.733, "lon": -69.8, "n": 1, "art": 10, "url": "https://www.colombia.com:443/entretenimiento/noticias/que-paso-con-andrea-valdiri-en-riohacha-la-influencer-termino-en-medio-del-caos-591175"}, {"name": "Cuba", "cc": "CU", "lat": 22.0, "lon": -79.5, "n": 7, "art": 60, "url": "https://almomento.net/dicen-cuba-registra-nuevos-records-de-represion-politica/"}, {"name": "Zvernec, Vlore, Albania", "cc": "AL", "lat": 40.515, "lon": 19.417, "n": 5, "art": 46, "url": "https://tetova1.mk/rama-per-median-italiane-skam-frike-nga-turmat-histeria-dixhitale-krijon-nje-imazh-te-rreme-te-shqiperise/"}, {"name": "Jerusalem, Israel (general), Israel", "cc": "IS", "lat": 31.767, "lon": 35.233, "n": 9, "art": 50, "url": "https://www.manar.com/page-51627-ar.html"}, {"name": "Omsk, Omskaya Oblast', Russia", "cc": "RS", "lat": 55.0, "lon": 73.4, "n": 1, "art": 8, "url": "https://gazeta.ua/ru/articles/donbas/_rossiya-nachala-podavlyat-signal-starlink-dlya-protivodejstviya-dronam-sil-oborony/1254213"}, {"name": "Spain", "cc": "SP", "lat": 40.0, "lon": -4.0, "n": 6, "art": 43, "url": "https://www.theportugalnews.com/news/2026-07-09/brits-in-spain-encouraged-to-replace-their-brexit-residency-documents/1052955"}, {"name": "Gaza, Israel (general), Israel", "cc": "IS", "lat": 31.417, "lon": 34.333, "n": 23, "art": 108, "url": "https://jweekly.com/2026/07/09/jewish-groups-protest-former-irvine-mayor-appointed-to-lead-local-rotary-club/"}, {"name": "Lebanon", "cc": "LE", "lat": 33.833, "lon": 35.833, "n": 3, "art": 20, "url": "https://www.hispantv.com/noticias/el-libano/646866/movimiento-libanes-alerta-concesiones-beirut-israel"}, {"name": "Anori, Amazonas, Brazil", "cc": "BR", "lat": -8.333, "lon": -67.333, "n": 1, "art": 2, "url": "https://www.acritica.com/geral/salas-do-empreendedor-consolidam-rede-de-atendimento-a-pequeno-negocios-no-am-1.409374"}, {"name": "Tapaua, Amazonas, Brazil", "cc": "BR", "lat": -5.62, "lon": -63.188, "n": 1, "art": 6, "url": "https://www.acritica.com/geral/salas-do-empreendedor-consolidam-rede-de-atendimento-a-pequeno-negocios-no-am-1.409374"}, {"name": "Bahrain", "cc": "BA", "lat": 26.0, "lon": 50.5, "n": 2, "art": 6, "url": "https://www.aljazeera.com/news/2026/7/9/mediator-pakistan-says-renewed-us-iran-conflict-is-in-no-ones-interest"}, {"name": "France", "cc": "FR", "lat": 46.0, "lon": 2.0, "n": 14, "art": 84, "url": "https://www.elcaribe.com.do/panorama/pais/que-representa-la-bandera-de-one-piece-en-las-protestas-de-rd/"}, {"name": "Kwazulu, Eastern Cape, South Africa", "cc": "SF", "lat": -31.29, "lon": 29.455, "n": 1, "art": 8, "url": "https://thesun.ng/beyond-borders-the-human-cost-of-south-africas-anti-foreigner-violence/"}, {"name": "Gauteng, Gauteng, South Africa", "cc": "SF", "lat": -26.083, "lon": 28.25, "n": 2, "art": 4, "url": "https://www.ewn.co.za/2026/07/09/city-of-joburg-buckling-under-pressure-of-r52bn-gauteng-govt-debt"}, {"name": "Fulani, Zamfara, Nigeria", "cc": "NI", "lat": 12.266, "lon": 6.637, "n": 1, "art": 8, "url": "https://www.vanguardngr.com/2026/07/is-tinubu-nigerias-saviour-some-genuinely-think-so-by-olu-fasan/"}, {"name": "Nigeria", "cc": "NI", "lat": 10.0, "lon": 8.0, "n": 3, "art": 16, "url": "https://www.dw.com/en/south-africa-driven-home-by-anti-migrant-protests/a-77889650"}, {"name": "Maine, United States", "cc": "US", "lat": 44.607, "lon": -69.398, "n": 7, "art": 42, "url": "https://www.yahoo.com/news/politics/articles/why-democrats-senate-hopes-now-221617160.html"}, {"name": "New York, United States", "cc": "US", "lat": 42.15, "lon": -74.938, "n": 12, "art": 78, "url": "https://newsbusters.org/blogs/nb/kyle-drennen/2016/03/03/nets-cheer-hillarys-star-studded-fundraiser-lament-e-mail-scandal"}, {"name": "Dallas, Texas, United States", "cc": "US", "lat": 32.783, "lon": -96.807, "n": 3, "art": 9, "url": "https://www.cbc.ca/news/world/san-fermin-festival-running-of-the-bulls-spain-hemingway-9.7264121"}, {"name": "Chicago, Illinois, United States", "cc": "US", "lat": 41.85, "lon": -87.65, "n": 3, "art": 4, "url": "https://www.news4jax.com/news/politics/2026/07/09/most-american-jews-dont-feel-supported-by-either-party-or-president-trump-new-ap-norc-poll-finds/"}, {"name": "Virginia, United States", "cc": "US", "lat": 37.768, "lon": -78.206, "n": 1, "art": 10, "url": "https://www.kolotv.com/2026/07/08/road-ahead-rtc-offers-free-rides-dancing-streets/"}, {"name": "Houston, Texas, United States", "cc": "US", "lat": 29.763, "lon": -95.363, "n": 13, "art": 57, "url": "https://www.tpr.org/news/2026-07-09/hundreds-march-in-protest-of-fatal-ice-shooting-in-houstons-magnolia-park"}, {"name": "Thulamela, Zomba, Malawi", "cc": "MI", "lat": -15.467, "lon": 35.483, "n": 1, "art": 6, "url": "https://www.sanews.gov.za/south-africa/cabinet-condemns-disruption-schooling-malamulele"}, {"name": "Clacton, Essex, United Kingdom", "cc": "UK", "lat": 51.783, "lon": 1.167, "n": 4, "art": 23, "url": "https://www.aol.co.uk/articles/count-binface-goes-global-farage-065531000.html"}, {"name": "Puebla, Puebla, Mexico", "cc": "MX", "lat": 19.05, "lon": -98.2, "n": 2, "art": 14, "url": "https://puebla.quadratin.com.mx/politica/llevan-al-senado-rechazo-contra-polo-de-desarrollo-en-chiapa/"}, {"name": "Baghdad, Baghdad, Iraq", "cc": "IZ", "lat": 33.339, "lon": 44.394, "n": 3, "art": 8, "url": "https://english.aawsat.com/opinion/5294041-iraq-countrys-good-comes-any-other-interest"}, {"name": "Yamanashi, Shizuoka, Japan", "cc": "JA", "lat": 34.8, "lon": 137.9, "n": 1, "art": 5, "url": "https://www.asahi.com/ajw/articles/16613257"}, {"name": "San Martin De Porres, Region de Tacna, Peru", "cc": "PE", "lat": -18.2, "lon": -70.521, "n": 1, "art": 10, "url": "https://www.deperu.com/tv/7h5A7dqml90.detonan-explosivo-frente-a-vivienda-en-smp-no-descartan-un-error-de-objetivo.UCFnOwPrJ-Skrzk_GPNBV5tg.html"}, {"name": "Carabobo, Anzo\u00e1gui, Venezuela", "cc": "VE", "lat": 10.023, "lon": -64.597, "n": 1, "art": 10, "url": "http://www.correodelorinoco.gob.ve/la-noche-en-que-la-tierra-temblo-la-venezuela-bolivariana-entre-la-solidaridad-de-clase-y-el-imperialismo-del-desastre/"}, {"name": "United Kingdom", "cc": "UK", "lat": 54.0, "lon": -4.0, "n": 8, "art": 39, "url": "https://www.personneltoday.com/hr/skilled-worker-visa-applications-to-uk-fall-by-almost-40/"}, {"name": "Vermont, United States", "cc": "US", "lat": 44.041, "lon": -72.709, "n": 1, "art": 6, "url": "https://www.centralmaine.com/2026/07/08/graham-platner-ends-bid-for-maine-senate-seat-amid-sexual-assault-scandal/"}, {"name": "Mexico", "cc": "MX", "lat": 23.0, "lon": -102.0, "n": 17, "art": 137, "url": "https://www.globalmedia.mx/articles/ine_toma_protesta_a_representantes_de_los_partidos_somos_mexico_y_paz"}, {"name": "Delhi, Delhi, India", "cc": "IN", "lat": 28.667, "lon": 77.217, "n": 17, "art": 80, "url": "https://indianexpress.com/article/cities/delhi/rain-fury-flooded-ghaziabad-and-delhi-claim-lives-of-toddler-7-year-old-10779730/"}, {"name": "Jaimanitas, Ciudad de La Habana, Cuba", "cc": "CU", "lat": 23.09, "lon": -82.483, "n": 3, "art": 8, "url": "https://www.cubaheadlines.com/articles/334570"}, {"name": "Nueva Gerona, Isla de la Juventud, Cuba", "cc": "CU", "lat": 21.883, "lon": -82.8, "n": 1, "art": 4, "url": "https://www.cubaheadlines.com/articles/334568"}, {"name": "Malaysia", "cc": "MY", "lat": 2.5, "lon": 112.5, "n": 2, "art": 15, "url": "https://www.bangkokpost.com/opinion/opinion/3283819/south-peace-talks-must-stay-in-local-hands"}, {"name": "Guadeloupe", "cc": "GP", "lat": 16.25, "lon": -61.583, "n": 1, "art": 10, "url": "https://expresszacatecas.com/municipios/guadalupe/rinde-protesta-consejo-juvenil-de-guadalupe"}, {"name": "Andalusia, Spain (general), Spain", "cc": "SP", "lat": 37.6, "lon": -4.5, "n": 1, "art": 10, "url": "https://www.huelvainformacion.es/opinion/articulos/hecho_0_2007369734.html"}, {"name": "Kathmandu, Bagmati, Nepal", "cc": "NP", "lat": 27.717, "lon": 85.317, "n": 2, "art": 12, "url": "https://kathmandupost.com/valley/2026/07/09/repeated-fines-forced-ride-hailing-driver-to-set-himself-ablaze-family-alleges"}, {"name": "Jarvis Island", "cc": "DQ", "lat": 6.291, "lon": -162.543, "n": 1, "art": 2, "url": "https://www.miragenews.com/first-ever-live-goblin-shark-filmed-in-deep-sea-1707226/"}, {"name": "Japan", "cc": "JA", "lat": 36.0, "lon": 138.0, "n": 4, "art": 29, "url": "http://www.bruneinews.net/news/279177044/chinese-research-urges-international-studies-on-japan-wwii-medical-atrocities"}, {"name": "Ashland, Texas, United States", "cc": "US", "lat": 32.691, "lon": -94.704, "n": 1, "art": 4, "url": "https://www.galvnews.com/news/workers-at-texas-city-ashland-plant-hold-line-as-strike-enters-second-week/article_12e52f5d-2992-4a2d-bc9a-eb68a5e85786.html"}, {"name": "Shahpur, Uttar Pradesh, India", "cc": "IN", "lat": 29.35, "lon": 77.55, "n": 4, "art": 26, "url": "https://timesofindia.indiatimes.com/city/patna/bharats-mother-postpones-hunger-strike-after-falling-ill/articleshow/132288256.cms"}, {"name": "London, London, City of, United Kingdom", "cc": "UK", "lat": 51.5, "lon": -0.117, "n": 12, "art": 63, "url": "https://www.artmonthly.co.uk/magazine/site/article/artlaw-retrospective-6-july-2026-censorship"}, {"name": "Orono, Maine, United States", "cc": "US", "lat": 44.883, "lon": -68.672, "n": 1, "art": 2, "url": "https://www.dailykos.com/stories/2026/7/8/800067084/elections/graham-platner-says-he-plans-to-withdraw-from-maine-senate-race-after-sexual-assault-claim/"}, {"name": "Lviv, L'vivs'ka Oblast', Ukraine", "cc": "UP", "lat": 49.841, "lon": 24.03, "n": 18, "art": 108, "url": "https://www.ng.ru/news/843011.html"}, {"name": "Mumbai, Maharashtra, India", "cc": "IN", "lat": 18.975, "lon": 72.826, "n": 6, "art": 24, "url": "https://organiser.org/2026/07/09/369175/bharat/maharashtra-takes-major-step-towards-uniform-civil-code-cm-fadnavis-announces-setting-up-of-7-member-expert-committee/"}, {"name": "Beijing, Beijing, China", "cc": "CH", "lat": 39.929, "lon": 116.388, "n": 4, "art": 12, "url": "https://jamestown.org/cnp-part-iv-calculation-holds-keys-to-strategic-competition/"}, {"name": "Guangdong, Jilin, China", "cc": "CH", "lat": 42.768, "lon": 129.336, "n": 2, "art": 8, "url": "https://slguardian.org/syrias-new-government-faces-a-tough-test-from-beijing-over-uyghur-fighters/"}, {"name": "Milwaukee, Wisconsin, United States", "cc": "US", "lat": 43.039, "lon": -87.906, "n": 3, "art": 18, "url": "https://www.hometownregister.com/news/national/vance-says-milwaukee-mayor-protesting-too-much-over-election-probe/article_27204e43-1c6d-53c6-bbde-6f6eb7e10e25.html"}, {"name": "Lagos, Lagos, Nigeria", "cc": "NI", "lat": 6.453, "lon": 3.396, "n": 4, "art": 28, "url": "https://thenewsnigeria.com.ng/2026/07/09/court-of-appeal-upholds-dismissal-of-m-o-abudus-libel-case-reinforces-burden-of-proof-in-defamation-cases/"}, {"name": "New Jersey, United States", "cc": "US", "lat": 40.314, "lon": -74.509, "n": 2, "art": 20, "url": "https://www.cbsnews.com/news/supreme-court-nationwide-injunctions-trump-legal-challenges/"}, {"name": "Volga, Yaroslavskaya Oblast', Russia", "cc": "RS", "lat": 57.549, "lon": 40.117, "n": 4, "art": 10, "url": "https://24tv.ua/ru/tankery-s-toplivom-napravljajutsja-v-okkupirovannyj-krym-kak-ukraina-mozhet-perekryt-jetot-marshrut_n3101843"}, {"name": "Sydney, New South Wales, Australia", "cc": "AS", "lat": -33.883, "lon": 151.217, "n": 5, "art": 18, "url": "https://www.panamaamerica.com.pa/sucesos/detienen-26-trabajadores-del-puerto-de-balboa-por-enviar-cocaina-europa-y-australia-1263763"}, {"name": "Syria", "cc": "SY", "lat": 35.0, "lon": 38.0, "n": 3, "art": 16, "url": "https://www.dailymail.com/news/article-15963785/australian-isis-prisoners-interrogation-Iraq-jail-brides.html"}, {"name": "Kulai, Zhejiang, China", "cc": "CH", "lat": 29.691, "lon": 120.643, "n": 2, "art": 10, "url": "https://www.thestar.com.my/metro/metro-news/2026/07/09/charting-machaps-road-to-growth"}, {"name": "Jakarta, Jakarta Raya, Indonesia", "cc": "ID", "lat": -6.174, "lon": 106.829, "n": 2, "art": 20, "url": "https://www.antaranews.com/berita/5642967/53-pemberi-kerja-kesulitan-menemukan-lulusan-yang-siap-menghadapi-ai-studi-baru-petakan-enam-langkah-strategis-bagi-indonesia"}, {"name": "Croatia", "cc": "HR", "lat": 45.167, "lon": 15.5, "n": 1, "art": 10, "url": "https://www.n-tv.de/regionales/baden-wuerttemberg/Wie-die-Feuerwehr-gegen-Waldbraende-aufgestellt-ist-id31065241.html"}, {"name": "Primorye, Permskiy Kray, Russia", "cc": "RS", "lat": 57.268, "lon": 54.964, "n": 1, "art": 6, "url": "https://primamedia.ru/news/2552789/"}, {"name": "Russia", "cc": "RS", "lat": 60.0, "lon": 100.0, "n": 12, "art": 74, "url": "https://www.rbc.ua/rus/news/kazahstan-prikriv-benzinovu-lazivku-rosiyan-1783610293.html"}, {"name": "Oregon, United States", "cc": "US", "lat": 44.567, "lon": -122.127, "n": 1, "art": 10, "url": "https://kval.com/news/local/special-olympics-oregons-annual-law-enforcement-torch-run-marks-40th-year"}, {"name": "Algeria", "cc": "AG", "lat": 28.0, "lon": 3.0, "n": 1, "art": 10, "url": "http://lecourrier-dalgerie.com/intelligence-artificielle-lalgerie-participe-au-lancement-operationnel-du-conseil-africain-de-lia/"}, {"name": "Seoul, Soul-t'ukpyolsi, South Korea", "cc": "KS", "lat": 37.566, "lon": 127.0, "n": 1, "art": 3, "url": "https://www.news-medical.net/news/20260708/Study-identifies-new-target-for-Parkinsons-disease-neuroprotection.aspx"}, {"name": "Bogota, Cundinamarca, Colombia", "cc": "CO", "lat": 4.6, "lon": -74.083, "n": 2, "art": 20, "url": "https://laopinion.co:443/entretenimiento/aparecio-guaro-el-perro-del-actor-jorge-hugo-marin-que-habia-sido-robado"}, {"name": "Abono, Asturias, Spain", "cc": "SP", "lat": 43.559, "lon": -5.723, "n": 1, "art": 8, "url": "https://www.lne.es/gijon/gijon-oeste/2026/07/09/hartazgo-accesos-puerto-gijon-crece-132268893.html"}, {"name": "Mozambique", "cc": "MZ", "lat": -18.25, "lon": 35.0, "n": 1, "art": 2, "url": "https://iz.ru/2129594/2026-07-09/sergei-lavrov-pribyl-s-vizitom-v-mozambik"}, {"name": "Tirana, Tirane, Albania", "cc": "AL", "lat": 41.328, "lon": 19.819, "n": 19, "art": 142, "url": "https://24-ore.com/kanye-west-mes-rames-dhe-protestuesve/"}, {"name": "Tulsa, Oklahoma, United States", "cc": "US", "lat": 36.154, "lon": -95.993, "n": 1, "art": 2, "url": "https://www.newson6.com/tulsa-oklahoma-news/i-made-a-promise-to-my-wife-tulsa-cancer-patient-rings-the-bell-after-nearly-four-year-battle"}, {"name": "Oklahoma City, Oklahoma, United States", "cc": "US", "lat": 35.468, "lon": -97.516, "n": 2, "art": 8, "url": "https://www.newson6.com/tulsa-oklahoma-news/i-made-a-promise-to-my-wife-tulsa-cancer-patient-rings-the-bell-after-nearly-four-year-battle"}, {"name": "South Africa", "cc": "SF", "lat": -30.0, "lon": 26.0, "n": 3, "art": 11, "url": "https://dailypost.ng/2026/07/09/xenophobia-another-batch-of-stranded-nigerians-arrives-lagos-from-south-africa/"}, {"name": "United States", "cc": "US", "lat": 39.828, "lon": -98.579, "n": 18, "art": 98, "url": "https://arabic.cnn.com/middle-east/article/2026/07/10/us-and-iran-are-still-engaged-in-technical-talks-on-nuclear-issues-us-official-says"}, {"name": "Bengaluru, Karnataka, India", "cc": "IN", "lat": 12.983, "lon": 77.583, "n": 3, "art": 20, "url": "https://www.kannadaprabha.com/karnataka/2026/Jul/09/govt-to-install-cctv-in-major-muzrai-temples-after-ram-temple-donation-row-says-cm-dk-shivakumar"}, {"name": "Australia", "cc": "AS", "lat": -25.0, "lon": 135.0, "n": 2, "art": 15, "url": "https://www.infobae.com/america/mundo/2026/07/09/narendra-modi-sello-un-acuerdo-con-albanese-para-el-suministro-de-uranio-australiano-a-india/"}, {"name": "Lagos State, Lagos, Nigeria", "cc": "NI", "lat": 6.583, "lon": 3.75, "n": 3, "art": 7, "url": "https://thenewsnigeria.com.ng/2026/07/09/court-of-appeal-upholds-dismissal-of-m-o-abudus-libel-case-reinforces-burden-of-proof-in-defamation-cases/"}, {"name": "Antonio Guiteras, Matanzas, Cuba", "cc": "CU", "lat": 22.117, "lon": -81.017, "n": 1, "art": 1, "url": "https://www.cubaheadlines.com/articles/334587"}, {"name": "Matanzas, Matanzas, Cuba", "cc": "CU", "lat": 23.041, "lon": -81.578, "n": 1, "art": 1, "url": "https://www.cubaheadlines.com/articles/334587"}, {"name": "Fiji", "cc": "FJ", "lat": -18.0, "lon": 178.0, "n": 2, "art": 10, "url": "https://pina.com.fj/2026/07/09/australias-pm-pressured-to-confront-china-over-missile-test/"}, {"name": "Patalganga River, India (general), India", "cc": "IN", "lat": 18.8, "lon": 73.067, "n": 1, "art": 10, "url": "https://economictimes.indiatimes.com/news/new-updates/maharashtra-floods-sweep-away-3000-lpg-cylinders-people-loot-them-after-dm-says-dont-touch-or-collect/articleshow/132276372.cms"}, {"name": "Guayaquil, Guayas, Ecuador", "cc": "EC", "lat": -2.167, "lon": -79.9, "n": 1, "art": 10, "url": "https://www.extra.ec/noticia/opinion/editorial-leon-becerra-necesita-oxigeno-157865.html"}, {"name": "Tehran, Tehran, Iran", "cc": "IR", "lat": 35.75, "lon": 51.515, "n": 20, "art": 189, "url": "https://www.abc.net.au/news/2026-07-10/us-iran-war-again-at-dangerous-point/106899924"}, {"name": "Isfahan, Esfahan, Iran", "cc": "IR", "lat": 32.66, "lon": 51.671, "n": 1, "art": 10, "url": "https://alhurra.com/25879"}, {"name": "Kinshasa, Kinshasa, Democratic Republic Of The Congo", "cc": "CG", "lat": -4.33, "lon": 15.315, "n": 8, "art": 27, "url": "https://www.riotimesonline.com/dr-congo-protests-postponed-2026/"}, {"name": "Congo", "cc": "CF", "lat": -1.0, "lon": 15.0, "n": 6, "art": 40, "url": "https://www.theepochtimes.com/health/ebola-outbreak-in-africa-still-spreading-official-says-as-deaths-top-500-post-6058528"}, {"name": "Compton, California, United States", "cc": "US", "lat": 33.896, "lon": -118.22, "n": 1, "art": 10, "url": "https://www.smdailyjournal.com/news/bay_area/california-colleges-reveal-their-military-weapons-stockade-after-calmatters-investigation/article_24ecae98-f135-4cdf-b4ec-ca50f6732197.html"}, {"name": "Getulio Vargas, Rio Grande do Sul, Brazil", "cc": "BR", "lat": -27.833, "lon": -52.267, "n": 1, "art": 10, "url": "https://valor.globo.com/brasil/noticia/2026/07/09/9-de-julho-e-feriado-do-que-entenda-a-revolucao-constitucionalista-de-1932-em-sao-paulo.ghtml"}, {"name": "Estado De Sao Paulo, S\u00e3Paulo, Brazil", "cc": "BR", "lat": -22.0, "lon": -49.0, "n": 1, "art": 2, "url": "https://valor.globo.com/brasil/noticia/2026/07/09/9-de-julho-e-feriado-do-que-entenda-a-revolucao-constitucionalista-de-1932-em-sao-paulo.ghtml"}, {"name": "Poland", "cc": "PL", "lat": 52.0, "lon": 20.0, "n": 2, "art": 16, "url": "https://www.rp.pl/praca-emerytury-i-renty/art44791771-rzad-chce-zakazu-pracy-przy-temperaturze-powyzej-320c-w-pomieszczeniach-i-350c-na-zewnatrz"}, {"name": "Vicam, Sonora, Mexico", "cc": "MX", "lat": 27.583, "lon": -110.333, "n": 1, "art": 20, "url": "https://www.termometroenlinea.com.mx/vernoticiasN.php?artid=131911&cat=271"}, {"name": "New Delhi, Delhi, India", "cc": "IN", "lat": 28.6, "lon": 77.2, "n": 7, "art": 35, "url": "https://www.siasat.com/bangladesh-steps-up-bid-to-bring-sheikh-hasina-back-3504814/"}, {"name": "Rishikesh, Uttaranchal, India", "cc": "IN", "lat": 30.117, "lon": 78.317, "n": 2, "art": 16, "url": "https://visionmp.com/new-delhi/cockroach-party-founder-police-protest-tent-jantar-mantar/"}, {"name": "Selemani, Malawi (general), Malawi", "cc": "MI", "lat": -12.833, "lon": 34.257, "n": 1, "art": 10, "url": "https://allafrica.com/stories/202607090048.html"}, {"name": "Minnesota, United States", "cc": "US", "lat": 45.733, "lon": -93.92, "n": 4, "art": 20, "url": "https://thegrio.com/2026/07/09/christian-menefee-houston-ice-shooting-lorenzo-salgado-araujo/"}, {"name": "Bangladesh", "cc": "BG", "lat": 24.0, "lon": 90.0, "n": 2, "art": 20, "url": "https://www.dailynayadiganta.com/printed-edition/GK9TjDz49ubD"}, {"name": "Reunion", "cc": "RE", "lat": -21.1, "lon": 55.6, "n": 1, "art": 10, "url": "https://www.eluniversal.com.co/farandula/2026/07/08/aparecio-guaro-el-perro-del-actor-jorge-hugo-marin-habia-sido-robado/"}, {"name": "Melbourne, Victoria, Australia", "cc": "AS", "lat": -37.817, "lon": 144.967, "n": 8, "art": 30, "url": "https://www.independent.co.uk/news/world/australasia/australia-modi-uranium-far-right-protest-b3011694.html"}, {"name": "India", "cc": "IN", "lat": 20.0, "lon": 77.0, "n": 9, "art": 76, "url": "https://www.thehindu.com/news/cities/Madurai/cpim-stage-protest-against-various-irregularities-demand-cancellation-of-contract-with-ourland/article71203825.ece"}, {"name": "Orange Park, Florida, United States", "cc": "US", "lat": 30.166, "lon": -81.707, "n": 1, "art": 6, "url": "http://www.claytodayonline.com/stories/clays-school-district-earns-its-seventh-a-in-a-row,207589"}, {"name": "Florida, United States", "cc": "US", "lat": 27.833, "lon": -81.717, "n": 3, "art": 21, "url": "https://www.huffingtonpost.gr/diethnes/episimos-ntonalnt-tz-trab-to-diethnes-aerodromio-tis-florinta-ti-ischyei-me-ton-kodiko-djt/"}, {"name": "Kashmir, North-West Frontier, Pakistan", "cc": "PK", "lat": 34.796, "lon": 72.15, "n": 5, "art": 12, "url": "https://socialistworker.co.uk/international/crackdown-in-kashmir-sees-pakistani-state-kill-pro-democracy-activists/"}, {"name": "Jedwabne, Podlaskie, Poland", "cc": "PL", "lat": 53.286, "lon": 22.306, "n": 1, "art": 2, "url": "https://www.rp.pl/spoleczenstwo/art44781621-marek-kozubal-anatomia-klamstwa-co-naprawde-wydarzylo-sie-w-jedwabnem"}, {"name": "Heidelberg, Baden-W\u00fcberg, Germany", "cc": "GM", "lat": 48.317, "lon": 8.917, "n": 1, "art": 4, "url": "https://www.news.de/politik/859715628/demos-gegen-rechtsextremismus-gegen-afd-heute-donnerstag-9-juli-2026-demonstrationen-muenchen-bochum-heidelberg-kempten-allgaeu-warendorf/1/"}, {"name": "Saxony, Sachsen, Germany", "cc": "GM", "lat": 51.0, "lon": 13.0, "n": 5, "art": 46, "url": "https://forbes.com.mx/consejo-de-volkswagen-enfrenta-debates-decisivos-sobre-el-cierre-de-plantas-y-los-recortes-de-empleo/"}, {"name": "Budapest, Budapest, Hungary", "cc": "HU", "lat": 47.5, "lon": 19.083, "n": 9, "art": 56, "url": "https://naszdziennik.pl/swiat/342107,w-budapeszcie-odbyl-sie-protest-fideszu.html"}, {"name": "Kolkata, West Bengal, India", "cc": "IN", "lat": 22.57, "lon": 88.37, "n": 7, "art": 33, "url": "https://timesofindia.indiatimes.com/city/kolkata/treat-anti-social-intellectuals-with-egg-therapy-says-dilip-ghosh/articleshow/132296763.cms"}, {"name": "Baruipur, West Bengal, India", "cc": "IN", "lat": 22.35, "lon": 88.439, "n": 2, "art": 10, "url": "https://www.prokerala.com/news/articles/a1785877.html"}, {"name": "Dublin, Dublin, Ireland", "cc": "EI", "lat": 53.333, "lon": -6.249, "n": 7, "art": 17, "url": "https://www.breakingnews.ie/ireland/works-resume-on-dublin-hotel-extension-after-neighbouring-residents-protests-1924664.html"}, {"name": "Rawalakot, Azad Kashmir, Pakistan", "cc": "PK", "lat": 33.858, "lon": 73.76, "n": 4, "art": 10, "url": "https://www.newkerala.com/news/a/pakistan-accused-silencing-press-as-journalist-detained-ahead-519.htm"}, {"name": "Italy", "cc": "IT", "lat": 42.833, "lon": 12.833, "n": 12, "art": 70, "url": "http://www.jpost.com/diaspora/antisemitism/article-902019"}, {"name": "Pennsylvania, United States", "cc": "US", "lat": 40.577, "lon": -77.264, "n": 3, "art": 7, "url": "https://ipowerrichmond.com/4568829/david-streever-sues-goverment-ice-agents/"}, {"name": "Kashmiri, Punjab, Pakistan", "cc": "PK", "lat": 32.039, "lon": 73.751, "n": 2, "art": 7, "url": "https://organiser.org/2026/07/09/369072/bharat/kashmiri-diaspora-holds-protest-in-bradford-urges-global-action-against-pakistans-crackdown-in-pojk/"}, {"name": "Islamabad, Islamabad, Pakistan", "cc": "PK", "lat": 33.7, "lon": 73.167, "n": 4, "art": 10, "url": "https://organiser.org/2026/07/09/369072/bharat/kashmiri-diaspora-holds-protest-in-bradford-urges-global-action-against-pakistans-crackdown-in-pojk/"}, {"name": "Peru", "cc": "PE", "lat": -10.0, "lon": -76.0, "n": 3, "art": 30, "url": "https://www.elcaribe.com.do/panorama/pais/que-representa-la-bandera-de-one-piece-en-las-protestas-de-rd/"}, {"name": "Moscow, Moskva, Russia", "cc": "RS", "lat": 55.752, "lon": 37.616, "n": 6, "art": 44, "url": "https://www.artmonthly.co.uk/magazine/site/article/artlaw-retrospective-6-july-2026-censorship"}, {"name": "Flinders University, South Australia, Australia", "cc": "AS", "lat": -35.028, "lon": 138.572, "n": 1, "art": 10, "url": "https://www.miragenews.com/india-boosts-education-science-tech-ties-1707392/"}, {"name": "Bristol, Bristol, City of, United Kingdom", "cc": "UK", "lat": 51.45, "lon": -2.583, "n": 1, "art": 4, "url": "https://northdallasgazette.com/2026/07/08/new-study-shows-table-sugar-could-hold-a-cheaper-quicker-key-to-making-vital-drugs-for-diabetes-heart-failure-and-chronic-kidney-disease/"}, {"name": "Johannesburg, Gauteng, South Africa", "cc": "SF", "lat": -26.2, "lon": 28.083, "n": 10, "art": 56, "url": "https://www.ghanamma.com/2026/07/09/why-are-nigeria-south-africa-tensions-rising-amid-xenophobic-attacks/"}, {"name": "Rastatt, Baden-W\u00fcberg, Germany", "cc": "GM", "lat": 48.85, "lon": 8.2, "n": 1, "art": 5, "url": "https://www.wsws.org/en/articles/2026/07/09/ywak-j09.html"}, {"name": "Geneva, Gen\u00e8, Switzerland", "cc": "SZ", "lat": 46.196, "lon": 6.148, "n": 1, "art": 4, "url": "http://french.china.org.cn/foreign/txt/2026-07/09/content_118590684.htm"}, {"name": "Rabat, Rabat-Sal\u00e9emmour-Za\u00ebMO, Morocco", "cc": "MO", "lat": 34.02, "lon": -6.83, "n": 4, "art": 20, "url": "https://www.moroccoworldnews.com/2026/07/328104/us-congressional-staff-visit-dakhla-to-explore-investment-opportunities/"}, {"name": "Mauritania", "cc": "MR", "lat": 20.0, "lon": -12.0, "n": 2, "art": 4, "url": "https://www.agoravox.it/Sahara-occidentale-il-silenzio.html"}, {"name": "Cote D'ivoire", "cc": "IV", "lat": 8.0, "lon": -5.0, "n": 1, "art": 6, "url": "http://french.china.org.cn/foreign/txt/2026-07/09/content_118590684.htm"}, {"name": "Kazakhstan", "cc": "KZ", "lat": 48.0, "lon": 68.0, "n": 1, "art": 10, "url": "https://energyland.info/news-show--electro-284790"}, {"name": "Greenwich, New York, United States", "cc": "US", "lat": 43.091, "lon": -73.499, "n": 2, "art": 7, "url": "https://tibet.net/tibetans-in-london-make-pledges-to-commemorate-the-91st-birthday-of-h-h-the-dalai-lama-and-honour-the-testament-of-patriots-who-have-self-immolated-for-the-cause-of-tibet/"}, {"name": "Singapore", "cc": "SN", "lat": 1.367, "lon": 103.8, "n": 3, "art": 8, "url": "https://www.dailykos.com/stories/2026/7/9/800067369/world/trump-wants-the-world-to-fight-antifa-with-him-no-ones-buying-it/"}, {"name": "Tibet, Xizang, China", "cc": "CH", "lat": 32.0, "lon": 90.0, "n": 4, "art": 26, "url": "https://www.qchron.com/editions/central/elmhurst-man-dies-for-independent-tibet/article_37a75ce0-9539-5fba-8a57-f68d160488b1.html"}, {"name": "Durres, Qarku i Durresit, Albania", "cc": "AL", "lat": 41.323, "lon": 19.441, "n": 2, "art": 20, "url": "https://sot.com.al/aktualitet/eurodeputetja-italiane-kritikon-qeverine-rama-nuk-jane-protestat-qe-kercenojne-anetaresimin-por-hapat-pas-te/"}, {"name": "Chisinau, Chisinau, Moldova", "cc": "MD", "lat": 47.006, "lon": 28.858, "n": 2, "art": 20, "url": "https://news.yam.md/ro/story/42437784"}, {"name": "Ariege, France (general), France", "cc": "FR", "lat": 43.517, "lon": 1.417, "n": 1, "art": 10, "url": "https://www.ladepeche.fr/2026/07/09/elle-a-vu-quil-tournait-de-loeil-et-quil-commencait-a-secrouler-doucement-un-crs-victime-dun-malaise-sauve-par-des-militants-de-la-cgt-venus-13460130.php"}, {"name": "Kiev, Ukraine (general), Ukraine", "cc": "UP", "lat": 50.433, "lon": 30.517, "n": 6, "art": 31, "url": "https://www.novosti.rs/planeta/svet/1626072/razdor-nastajanju-primorao-rukovodstvo-nato-preispita-svoje-planove"}, {"name": "Berlin, Berlin, Germany", "cc": "GM", "lat": 52.517, "lon": 13.4, "n": 5, "art": 30, "url": "https://aif.ru/society/zhiteli-berlina-protestuyut-protiv-militarizacii-pravitelstva-merca"}, {"name": "Paris, France (general), France", "cc": "FR", "lat": 48.867, "lon": 2.333, "n": 6, "art": 21, "url": "https://www.artnews.com/art-news/news/george-condo-returns-to-hauser-wirth-painting-illuminates-shakespeares-rebellious-politics-and-more-morning-links-for-july-9-2026-1234791695/"}, {"name": "Athens, Attik\u00edR, Greece", "cc": "GR", "lat": 37.983, "lon": 23.733, "n": 6, "art": 56, "url": "https://www.bankingnews.gr/amyna-diplomatia/articles/887204/shocking-provocation-from-ukraine-we-will-hit-russian-ships-even-on-greek-beaches-apologize-to-putin"}, {"name": "Iran", "cc": "IR", "lat": 32.0, "lon": 53.0, "n": 6, "art": 42, "url": "https://vanguardia.com.mx/opinion/dentro-de-la-revolucionaria-industria-de-los-drones-de-ucrania-BD22032254"}, {"name": "Belgrade, Serbia (general),", "cc": "RB", "lat": 44.819, "lon": 20.468, "n": 1, "art": 10, "url": "https://inosmi.ru/20260709/serbiya-279210701.html"}, {"name": "Rand Water, Gauteng, South Africa", "cc": "SF", "lat": -26.383, "lon": 28.1, "n": 1, "art": 8, "url": "https://www.sowetan.co.za/opinion/columnists/2026-07-09-sowetan-withholding-municipal-grants-a-step-in-right-direction/"}, {"name": "Chile", "cc": "CI", "lat": -30.0, "lon": -71.0, "n": 6, "art": 21, "url": "https://puebla.quadratin.com.mx/politica/llevan-al-senado-rechazo-contra-polo-de-desarrollo-en-chiapa/"}, {"name": "Grand Island, California, United States", "cc": "US", "lat": 39.066, "lon": -121.868, "n": 1, "art": 10, "url": "https://www.1011now.com/2026/07/09/cyclists-raising-awareness-disabilities-stop-lincoln-amid-coast-to-coast-journey/"}, {"name": "Karbala, Karbala', Iraq", "cc": "IZ", "lat": 32.598, "lon": 44.017, "n": 4, "art": 18, "url": "https://economictimes.indiatimes.com/news/international/world-news/iran-to-bury-slain-supreme-leader-ayatollah-ali-khamenei-in-culmination-of-mass-funeral/articleshow/132286653.cms"}, {"name": "Najaf, Az\u00afarbayjan-e Sharqi, Iran", "cc": "IR", "lat": 39.081, "lon": 47.396, "n": 2, "art": 10, "url": "https://www.dakaractu.com/Adieux-historiques-au-Guide-martyr-de-la-Republique-Islamique-d-Iran-une-manifestation-de-l-unite-nationale-et-un_a273618.html"}, {"name": "Armenia", "cc": "AM", "lat": 40.0, "lon": 45.0, "n": 3, "art": 25, "url": "https://www.panarmenian.net/eng/news/334943/"}, {"name": "Novosibirsk, Novosibirskaya Oblast', Russia", "cc": "RS", "lat": 55.041, "lon": 82.934, "n": 1, "art": 10, "url": "https://www.nsktv.ru/news/city/sazhentsy_iz_sobstvennogo_pitomnika_vysadyat_na_ulitsakh_novosibirska/"}, {"name": "Hyderabad, Andhra Pradesh, India", "cc": "IN", "lat": 17.375, "lon": 78.474, "n": 3, "art": 21, "url": "https://www.businessworld.in/article/h1-2026-india-s-real-estate-splits-between-office-strength-and-housing-consolidation-613983"}, {"name": "Federal Capital Territory, Abuja Federal Capital Territory, Nigeria", "cc": "NI", "lat": 8.833, "lon": 7.167, "n": 1, "art": 10, "url": "https://saharareporters.com/2026/07/08/noun-law-graduates-protest-agfs-office-say-over-4000-denied-nigerian-law-school"}, {"name": "Osaka, Osaka, Japan", "cc": "JA", "lat": 34.667, "lon": 135.5, "n": 1, "art": 7, "url": "https://www.techtimes.com/articles/319951/20260708/heat-radiation-controlled-like-memory-osaka-team-breaks-kirchhoffs-law.htm"}, {"name": "Abuja, Abuja Federal Capital Territory, Nigeria", "cc": "NI", "lat": 9.083, "lon": 7.533, "n": 5, "art": 20, "url": "https://thesun.ng/ubec-writing-new-chapter-in-basic-education-says-executive-secretary/"}, {"name": "Telangana, Andhra Pradesh, India", "cc": "IN", "lat": 18.0, "lon": 79.5, "n": 3, "art": 13, "url": "https://ianslive.in/26-students-taken-ill-after-breakfast-at-telangana-residential-school--20260709132454"}, {"name": "Burlington, Massachusetts, United States", "cc": "US", "lat": 42.505, "lon": -71.196, "n": 1, "art": 6, "url": "https://www.lequebecexpress.com/le-peintre-noni-stuart-partage-des-portraits-de-personnes-locales-sans-logement/"}, {"name": "Sazan, Vlore, Albania", "cc": "AL", "lat": 40.492, "lon": 19.275, "n": 5, "art": 38, "url": "https://koha.mk/rama-protestat-kane-ndryshuar-natyre-shqiperia-nuk-qeveriset-nga-mediat-sociale/"}, {"name": "Dombivli, Maharashtra, India", "cc": "IN", "lat": 19.217, "lon": 73.083, "n": 2, "art": 20, "url": "https://www.freepressjournal.in/pune/jalgaon-mard-doctors-wear-black-ribbons-to-protest-attack-on-kalyan-dombivli-doctor"}, {"name": "Rome, Lazio, Italy", "cc": "IT", "lat": 41.9, "lon": 12.483, "n": 6, "art": 30, "url": "https://www.zazoom.it/2026-07-09/tajani-protesta-laziali-contro-lotito-no-problema-partito-io-mi-preoccupo-della-juve/19441995/"}, {"name": "Benue, Nigeria (general), Nigeria", "cc": "NI", "lat": 8.317, "lon": 8.517, "n": 1, "art": 10, "url": "https://dailytrust.com/governing-blind-nigerias-costly-aversion-to-policy-evaluation/"}, {"name": "Guangzhou, Guangdong, China", "cc": "CH", "lat": 23.117, "lon": 113.25, "n": 1, "art": 6, "url": "https://www.ohmynews.com/NWS_Web/View/at_pg.aspx?CNTN_CD=A0003250066&PAGE_CD=N0002&CMPT_CD=M0111"}, {"name": "Pune, Maharashtra, India", "cc": "IN", "lat": 18.533, "lon": 73.867, "n": 1, "art": 1, "url": "https://aninews.in/news/business/road-minister-ajay-tamta-presents-rahsta-awards-to-mmrda-bro-haryana-pwd20260709105236/"}, {"name": "Darjeeling, West Bengal, India", "cc": "IN", "lat": 27.033, "lon": 88.267, "n": 1, "art": 10, "url": "https://www.gorkhapatraonline.com/news/213608"}, {"name": "Uttar Pradesh, Uttar Pradesh, India", "cc": "IN", "lat": 27.25, "lon": 80.75, "n": 6, "art": 22, "url": "https://indianexpress.com/article/cities/mumbai/thane-doctors-assault-maharashtra-law-attacks-medics-10778953/"}, {"name": "Fall River, Massachusetts, United States", "cc": "US", "lat": 41.702, "lon": -71.155, "n": 1, "art": 2, "url": "https://www.yahoo.com/news/us/articles/fall-river-fire-urges-sprinkler-080520348.html"}, {"name": "Netherlands", "cc": "NL", "lat": 52.5, "lon": 5.75, "n": 5, "art": 50, "url": "https://nieuws.nl/algemeen/protest-tegen-schrappen-lhbti-beleid-in-oldebroek"}, {"name": "Southport, Sefton, United Kingdom", "cc": "UK", "lat": 53.667, "lon": -3.0, "n": 1, "art": 7, "url": "https://www.birminghammail.co.uk/news/midlands-news/brummies-urged-reach-out-south-34230258"}, {"name": "Monrovia, Montserrado, Liberia", "cc": "LI", "lat": 6.311, "lon": -10.805, "n": 2, "art": 15, "url": "https://www.liberianobserver.com/news/agl-and-gonet-academy-launch-paid-internship-for-graduates/article_692c4758-56f8-4f8a-beee-130c98dfcd9b.html"}, {"name": "Chad", "cc": "CD", "lat": 15.0, "lon": 19.0, "n": 3, "art": 18, "url": "https://www.mv-voice.com/health-care/2026/07/09/kaiser-nurses-say-technology-is-making-their-jobs-and-patient-care-worse/"}, {"name": "Ostroh, Rivnens'ka Oblast', Ukraine", "cc": "UP", "lat": 50.329, "lon": 26.514, "n": 1, "art": 2, "url": "https://tvoemisto.tv/uk/news/6368-popry-zaboronu-ta-kryminalnu-spravu-u-kyyevi-prodovzhuyut-rozbyraty-istorychnu-budivlyu-uchylyshcha-zvyazku-na-ostrozkykh"}, {"name": "Thailand", "cc": "TH", "lat": 15.0, "lon": 100.0, "n": 1, "art": 10, "url": "https://www.rtve.es/noticias/20260709/debate-manufacturado-redes-coordinadas-secuestran-comentarios-noticias-europeas/17148734.shtml"}, {"name": "Netivot, HaMerkaz, Israel", "cc": "IS", "lat": 31.82, "lon": 34.692, "n": 1, "art": 8, "url": "https://www.clevelandjewishnews.com/jns/the-israeli-legal-system-chooses-the-law-over-the-people/article_ff306dca-7550-5480-a2bc-c51826376571.html"}, {"name": "Tel Aviv, Tel Aviv, Israel", "cc": "IS", "lat": 32.067, "lon": 34.767, "n": 3, "art": 30, "url": "https://www.news24.com/world/top-democrat-warns-israel-to-change-palestinian-policy-or-risk-losing-us-support-20260709-0689"}, {"name": "Ukraine", "cc": "UP", "lat": 49.0, "lon": 32.0, "n": 12, "art": 95, "url": "https://www.entornointeligente.com/aumentan-las-protestas-en-ucrania-contra-el-reclutamiento-para-ir-a-la-guerra-con-rusia/"}, {"name": "Turkey", "cc": "TU", "lat": 39.059, "lon": 34.912, "n": 4, "art": 32, "url": "https://www.eltiempo.com/mundo/europa/mas-de-4-400-detenidos-y-restricciones-al-derecho-a-las-manifestaciones-el-saldo-que-dejo-la-cumbre-de-la-otan-que-se-celebro-en-turquia-3570231"}, {"name": "Michigan, United States", "cc": "US", "lat": 43.35, "lon": -84.56, "n": 4, "art": 28, "url": "https://www.jns.org/opinion/column/melanie-phillips/the-trillion-dollar-campaign-to-conquer-the-west"}, {"name": "Mashhad, (IR30), Iran", "cc": "IR", "lat": 36.297, "lon": 59.606, "n": 6, "art": 26, "url": "https://news.am/en/news/1048917"}, {"name": "Kosovo", "cc": "KV", "lat": 42.583, "lon": 21.0, "n": 1, "art": 10, "url": "https://sot.com.al/politike/rama-zgjeron-listen-e-zeze-te-protestes-pas-ikballes-ndalon-ne-kufi-deputetet-shqiptare-nga-maqedonia-e-veriut/"}, {"name": "Veliaj, Berat, Albania", "cc": "AL", "lat": 40.546, "lon": 20.034, "n": 1, "art": 10, "url": "https://sot.com.al/politike/balluku-u-mbrojt-nga-parlamenti-kellici-nga-pe-integrimi-i-shqiperise-ne-rrezik-nga-korrupsioni-dhe-krimi/"}, {"name": "Thermaikos, Perifereia Kentrikis Makedonias, Greece", "cc": "GR", "lat": 40.482, "lon": 22.89, "n": 1, "art": 10, "url": "https://www.businessnews.gr/ellada/item/341816-dimos-thessalonikis-trapeza-peiraios-symmaxia-gia-tin-anavathmisi-tis-poiotitas-zois"}, {"name": "Macedonia", "cc": "MK", "lat": 41.833, "lon": 22.0, "n": 8, "art": 52, "url": "https://24-ore.com/buzhala-godet-njerezit-e-kurtit-ne-rmv-protestojne-kunder-rames-por-qeverisin-me-aleatet-e-vucicit/"}, {"name": "Portugal", "cc": "PO", "lat": 39.5, "lon": -8.0, "n": 1, "art": 10, "url": "https://executivedigest.sapo.pt/grupo-chines-escolhe-construtora-bracarense-dst-para-construir-empreendimento-turistico-de-52-milhoes-no-alentejo/"}, {"name": "Mzingazi, KwaZulu-Natal, South Africa", "cc": "SF", "lat": -28.776, "lon": 32.07, "n": 1, "art": 10, "url": "https://www.ewn.co.za/2026/07/09/thursdays-top-stories-to-watch-ekurhuleni-court-case-tshwane-council-vote-and-kzn-immigration-crackdown"}, {"name": "Achampet, Andhra Pradesh, India", "cc": "IN", "lat": 16.65, "lon": 80.133, "n": 1, "art": 10, "url": "https://ianslive.in/26-students-taken-ill-after-breakfast-at-telangana-residential-school--20260709132454"}, {"name": "Cracow, Malopolskie, Poland", "cc": "PL", "lat": 50.083, "lon": 19.917, "n": 2, "art": 10, "url": "https://wiadomosci.wp.pl/wielkie-zmiany-w-wegierskiej-telewizji-orban-oburzony-akt-tyranii-7305569449748832a"}, {"name": "Orunia, Pomorskie, Poland", "cc": "PL", "lat": 54.323, "lon": 18.638, "n": 1, "art": 10, "url": "https://wiadomosci.onet.pl/trojmiasto/gdansk-mija-25-lat-od-tragicznej-w-skutkach-powodzi-zdjecia/68zqwqh"}, {"name": "City Of Sanford, North Carolina, United States", "cc": "US", "lat": 35.48, "lon": -79.178, "n": 1, "art": 4, "url": "https://www.sanfordherald.com/archives/dsi-earns-national-main-street-accreditation-for-9th-consecutive-year/article_92e908c0-3c48-520f-a27a-2366e86ddab3.html"}, {"name": "North Carolina, United States", "cc": "US", "lat": 35.641, "lon": -79.843, "n": 1, "art": 6, "url": "https://www.sanfordherald.com/archives/dsi-earns-national-main-street-accreditation-for-9th-consecutive-year/article_92e908c0-3c48-520f-a27a-2366e86ddab3.html"}, {"name": "Shastri Nagar, Tamil Nadu, India", "cc": "IN", "lat": 12.997, "lon": 80.26, "n": 2, "art": 13, "url": "https://www.rediff.com/news/report/shiv-sena-corporator-held-for-attack-on-docs-admitted-to-icu-with-chest-pain/20260709.htm"}, {"name": "Shkodra, Qarku Shkoder, Albania", "cc": "AL", "lat": 42.068, "lon": 19.513, "n": 1, "art": 6, "url": "https://24-ore.com/osman-kazazi-nga-la-sapienza-ne-kampet-e-internimit-te-regjimit-komunist/"}, {"name": "Tetovo, Tetovo, Macedonia", "cc": "MK", "lat": 42.011, "lon": 20.971, "n": 1, "art": 48, "url": "https://tetova1.mk/29-vjetori-i-ngritjes-se-flamurit-kombetar-ne-gostivar-rufi-osmani-simboli-i-lirise/"}, {"name": "Beirut, Beyrouth, Lebanon", "cc": "LE", "lat": 33.872, "lon": 35.51, "n": 2, "art": 4, "url": "https://www.naharnet.com/stories/en/321181-aoun-says-he-s-going-to-us-because-he-s-counting-on-trump"}, {"name": "Amritsar, Punjab, India", "cc": "IN", "lat": 31.633, "lon": 74.866, "n": 3, "art": 16, "url": "https://www.tribuneindia.com/news/amritsar/sgpc-to-hold-protest-march-in-amritsar-against-ban-on-satluj-on-july-10/"}, {"name": "Manila, Manila, Philippines", "cc": "RP", "lat": 14.604, "lon": 120.982, "n": 7, "art": 42, "url": "https://www.globaltimes.cn/page/202607/1365595.shtml"}, {"name": "Kalyan, Maharashtra, India", "cc": "IN", "lat": 19.25, "lon": 73.15, "n": 1, "art": 10, "url": "https://www.thehitavada.com/Encyc/2026/7/9/sena-corporator-arrested-for-assaulting-doctors-at-civic-hospital.html"}, {"name": "Dimos Athinaion, Perifereia Attikis, Greece", "cc": "GR", "lat": 37.987, "lon": 23.734, "n": 1, "art": 10, "url": "https://www.naftemporiki.gr/society/2135328/dimos-athinaion-praktiki-ekpaideysi-94-neon-dimotikon-astynomikon/"}, {"name": "Maros On, Sulawesi Selatan, Indonesia", "cc": "ID", "lat": -3.08, "lon": 119.805, "n": 1, "art": 10, "url": "https://www.tribunnews.com/regional/7852150/disinggung-gubernur-warga-wajo-langsung-bersihkan-pohon-pisang-di-jalan-rusak-kades-minta-maaf"}, {"name": "Greece", "cc": "GR", "lat": 39.0, "lon": 22.0, "n": 4, "art": 40, "url": "https://www.himara.gr/istoria/oi-ekloges-tou-1992-meta-ap-ton-apokleismo-tis-omonoias/"}, {"name": "Khada, Uttar Pradesh, India", "cc": "IN", "lat": 27.183, "lon": 83.883, "n": 1, "art": 10, "url": "https://theshillongtimes.com/2026/07/09/tiger-is-burning-bright-anew-in-manas-and-communities-thrive-in-the-landscape/"}, {"name": "Lake Charles, Louisiana, United States", "cc": "US", "lat": 30.227, "lon": -93.217, "n": 2, "art": 10, "url": "https://stockhouse.com/opinion/contributors/2026/07/09/new-and-old-ai-winners-after-1-000-gain-with-siemens-energy-2g-energy-has-taken"}, {"name": "Novorossiysk, Krasnodarskiy Kray, Russia", "cc": "RS", "lat": 44.724, "lon": 37.767, "n": 1, "art": 10, "url": "https://spacedaily.com/j-v-spoofing-a-gps-receiver-is-worse-than-jamming-it-because-the-victim-never-knows-the-screen-stays-calm-and-confident-while-feeding-a-pilot-a-runway-that-sits-somewhere-else-entirely/"}, {"name": "Sverdlovsk, Sverdlovskaya Oblast', Russia", "cc": "RS", "lat": 56.858, "lon": 60.612, "n": 1, "art": 10, "url": "https://fedpress.ru/news/77/economy/3443456"}, {"name": "Brussels, Bruxelles-Capitale, Belgium", "cc": "BE", "lat": 50.833, "lon": 4.333, "n": 4, "art": 28, "url": "https://observador.pt/2026/07/09/fidesz-leva-milhares-as-ruas-de-budapeste-contra-reformas-constitucionais-do-governo-magyar/"}, {"name": "Yerevan, Yerevan*, Armenia", "cc": "AM", "lat": 40.181, "lon": 44.514, "n": 2, "art": 15, "url": "https://www.eng.kavkaz-uzel.eu/articles/76797"}, {"name": "Sumgait, Sumqayit*, Azerbaijan", "cc": "AJ", "lat": 40.59, "lon": 49.669, "n": 2, "art": 2, "url": "https://www.eng.kavkaz-uzel.eu/articles/76795"}, {"name": "Thiruvananthapuram, Kerala, India", "cc": "IN", "lat": 8.507, "lon": 76.957, "n": 2, "art": 10, "url": "https://www.deccanchronicle.com/entertainment/bollywood/beyond-satluj-the-cbfcs-increasingly-contentious-record-1969544"}, {"name": "Canada", "cc": "CA", "lat": 60.0, "lon": -96.0, "n": 13, "art": 29, "url": "https://windsorstar.com:443/news/economy/canadian-savings-deteriorate-spending-outpace-income"}, {"name": "Sofia, Sofiya-Grad, Bulgaria", "cc": "BU", "lat": 42.683, "lon": 23.317, "n": 1, "art": 10, "url": "https://www.mediapool.bg/tozi-s-chashata-li-nikoga-direktorat-na-novinite-v-btv-zabranil-uchastie-na-martin-atanasov-za-zdravnata-mu-platforma-news385281.html"}, {"name": "Tibetan Autonomous Region, Xizang, China", "cc": "CH", "lat": 32.0, "lon": 90.0, "n": 1, "art": 10, "url": "https://www.theepochtimes.com/china/us-reaffirms-support-for-tibetan-cultural-preservation-after-activists-self-immolation-6059448"}, {"name": "Barcelona, Comunidad Autonoma de Cataluna, Spain", "cc": "SP", "lat": 41.383, "lon": 2.183, "n": 6, "art": 34, "url": "https://www.bfmtv.com/podcasts/la-question-info/incompatible-avec-les-valeurs-du-poste-qui-est-francois-noel-buffet-propose-comme-futur-defenseur-des-droits_EN-202607090657.html"}, {"name": "Pakistan", "cc": "PK", "lat": 30.0, "lon": 70.0, "n": 1, "art": 10, "url": "https://fakti.bg/mnenia/1066445-zapochva-i-u-nas-sashtoto-ot-koeto-e-propishtala-cala-evropa"}, {"name": "Borneo, Malaysia (general), Malaysia", "cc": "MY", "lat": 1.0, "lon": 114.0, "n": 1, "art": 10, "url": "https://scientias.nl/reuzenbomen-blijken-beter-bestand-tegen-droogte-dan-gedacht/"}, {"name": "Banaras, Uttar Pradesh, India", "cc": "IN", "lat": 25.333, "lon": 83.0, "n": 2, "art": 10, "url": "https://www.moneycontrol.com/world/asim-munir-murdabad-families-lay-siege-to-quetta-hospital-demand-bodies-of-slain-cops-vow-no-burial-until-justice-article-13969992.html"}, {"name": "Quetta, Balochistan, Pakistan", "cc": "PK", "lat": 30.199, "lon": 67.01, "n": 1, "art": 10, "url": "https://www.moneycontrol.com/world/asim-munir-murdabad-families-lay-siege-to-quetta-hospital-demand-bodies-of-slain-cops-vow-no-burial-until-justice-article-13969992.html"}, {"name": "Pria, Romania (general), Romania", "cc": "RO", "lat": 47.05, "lon": 22.883, "n": 1, "art": 5, "url": "https://www.stiripesurse.ro/marinescu-returo-sgr-showed-that-it-is-possible-to-exceed-the-limits-in-terms-of-waste-management-in-romania_3901972"}, {"name": "Dominican Republic", "cc": "DR", "lat": 19.0, "lon": -70.667, "n": 1, "art": 10, "url": "https://almomento.net/imponen-prision-preventiva-a-policia-acusado-matar-a-joven/"}, {"name": "Quebec, Quebec, Canada", "cc": "CA", "lat": 47.5, "lon": -72.0, "n": 4, "art": 21, "url": "https://www.lesaffaires.com/communique-de-presse/le-quartier-des-arts-du-cirque-devoile-sa-vision-de-developpement-pour-le-secteur-saint-michel/"}, {"name": "Bulgaria", "cc": "BU", "lat": 43.0, "lon": 25.0, "n": 1, "art": 4, "url": "https://www.plovdiv24.bg/novini/Bylgaria/Direktorut-na-novinite-na-bTV-e-zabranil-na-Martin-Atanasov-uchastiya-v-efira-2992989"}, {"name": "Prague, Praha, Hlavn\u00edesto, Czech Republic", "cc": "EZ", "lat": 50.083, "lon": 14.467, "n": 1, "art": 10, "url": "https://www.novinky.cz/clanek/kultura-mff-kv-karlovy-vary-behem-festivalu-hlida-mobilni-kamerova-vez-straznici-zde-denne-resi-desitky-pripadu-40587289"}, {"name": "Egypt", "cc": "EG", "lat": 27.0, "lon": 30.0, "n": 2, "art": 10, "url": "https://mignews.com/news/politic/gensek-lag-nabil-fahmi-zayavil-ob-otkaze-izrailya-v-vizite-v-ramallu1.html"}, {"name": "Magnesia, Manisa, Turkey", "cc": "TU", "lat": 38.612, "lon": 27.427, "n": 1, "art": 10, "url": "https://www.902.gr/eidisi/politiki/424434/d-koytsoympas-i-megali-eikona-einai-ayti-tis-klimakosis-kai-ton-antagonismon"}, {"name": "Caracas, Distrito Federal, Venezuela", "cc": "VE", "lat": 10.5, "lon": -66.917, "n": 1, "art": 10, "url": "https://www.diariosigloxxi.com/texto-diario/mostrar/5947966/cutre-sanchismo-bolivariano-corrupto-caprichoso"}, {"name": "Kyiv, Kyyiv, Misto, Ukraine", "cc": "UP", "lat": 50.433, "lon": 30.517, "n": 3, "art": 9, "url": "https://georgiatoday.ge/ukraine-latest-russia-presses-summer-offensive-as-kyiv-expands-strikes-on-fuel-infrastructure/"}, {"name": "Cyprus", "cc": "CY", "lat": 35.0, "lon": 33.0, "n": 1, "art": 4, "url": "https://www.in.gr/2026/07/09/politics/politiki-grammateia/koutsoumpas-oso-ki-an-kokoreyetai-o-mitsotakis-ellinotourkika-kai-kypriako-mpainoun-sti-meggeni-tou-nato/"}, {"name": "Pakpattan, Punjab, Pakistan", "cc": "PK", "lat": 30.341, "lon": 73.387, "n": 1, "art": 10, "url": "https://dunyanews.tv/en/Pakistan/961654-suthra-punjab-under-scrutiny-over-wage-complaints-financial-mismanage"}, {"name": "West Kalimantan, Kalimantan Barat, Indonesia", "cc": "ID", "lat": 0.0, "lon": 110.5, "n": 1, "art": 10, "url": "https://news.mongabay.com/2026/07/lawmakers-seek-rights-probe-into-indigenous-conflict-at-indonesian-timber-firm/"}, {"name": "Hanover, Niedersachsen, Germany", "cc": "GM", "lat": 52.367, "lon": 9.717, "n": 2, "art": 20, "url": "https://es.euronews.com/business/2026/07/09/volkswagen-encara-negociaciones-clave-por-100000-despidos-y-cierre-de-fabricas"}, {"name": "Lubie, Slaskie, Poland", "cc": "PL", "lat": 50.444, "lon": 18.655, "n": 1, "art": 10, "url": "https://wiadomosci.gazeta.pl/polityka/7,198012,32904156,obajtek-przepychal-sie-z-prezesem-iks-solino-prosze-sie-opamietac.html"}, {"name": "Kogi, Nigeria (general), Nigeria", "cc": "NI", "lat": 12.55, "lon": 6.633, "n": 2, "art": 14, "url": "http://silverbirdtv.com/kogi-residents-shun-nationwide-protest/"}, {"name": "Amroha, Uttar Pradesh, India", "cc": "IN", "lat": 28.917, "lon": 78.467, "n": 1, "art": 2, "url": "https://www.siasat.com/meerut-ssp-caught-slapping-detainee-during-dalit-protest-3504396/"}, {"name": "Ghaziabad, Uttar Pradesh, India", "cc": "IN", "lat": 28.667, "lon": 77.433, "n": 2, "art": 8, "url": "https://www.siasat.com/meerut-ssp-caught-slapping-detainee-during-dalit-protest-3504396/"}, {"name": "Louisiana, United States", "cc": "US", "lat": 31.18, "lon": -91.875, "n": 1, "art": 10, "url": "https://www.pr.com:443/press-release/973271"}, {"name": "Bethlehem, West Bank (general), West Bank", "cc": "WE", "lat": 31.705, "lon": 35.204, "n": 1, "art": 10, "url": "https://www.elcaribe.com.do/panorama/pais/juez-ordena-prision-por-caso-darlin-y-asistencia-a-familia/"}, {"name": "Lisbon, Lisboa, Portugal", "cc": "PO", "lat": 38.717, "lon": -9.133, "n": 1, "art": 10, "url": "https://www.rtp.pt/noticias/pais/relacao-confirma-prisao-preventiva-de-policias-suspeitos-de-tortura_n1752306"}, {"name": "Shiv, Rajasthan, India", "cc": "IN", "lat": 26.183, "lon": 71.25, "n": 4, "art": 22, "url": "https://www.rediff.com/news/report/shiv-sena-corporator-held-for-attack-on-docs-admitted-to-icu-with-chest-pain/20260709.htm"}, {"name": "Durban, KwaZulu-Natal, South Africa", "cc": "SF", "lat": -29.85, "lon": 31.017, "n": 5, "art": 23, "url": "https://www.aljazeera.com/news/2026/7/9/south-african-protesters-intimidate-migrants-as-aid-group-issues-warning"}, {"name": "Loyola University, Illinois, United States", "cc": "US", "lat": 42.001, "lon": -87.658, "n": 1, "art": 2, "url": "https://patriotpost.us/opinion/128992-the-law-of-the-land-in-the-land-of-lincoln-2026-07-09"}, {"name": "Jammu, Jammu and Kashmir, India", "cc": "IN", "lat": 32.733, "lon": 74.867, "n": 2, "art": 12, "url": "https://kashmirlife.net/delay-in-statehood-restoration-will-harm-future-generations-weaken-democracy-dy-cm-surinder-choudhary-442430/"}, {"name": "Montana, United States", "cc": "US", "lat": 46.905, "lon": -110.326, "n": 1, "art": 10, "url": "http://northcountrynow.com/premium/stories/more-than-a-hundred-protest-new-medicaid-rules-at-capitol,379576"}, {"name": "Indonesia", "cc": "ID", "lat": -5.0, "lon": 120.0, "n": 1, "art": 10, "url": "https://makassar.tribunnews.com/bulukumba/1843661/kejari-bulukumba-dijaga-prajurit-tni"}, {"name": "Zhitomir, Zhytomyrs'ka Oblast', Ukraine", "cc": "UP", "lat": 50.265, "lon": 28.677, "n": 1, "art": 2, "url": "https://www.radiosvoboda.org/a/news-sud-vziav-pid-vartu-odnoho-z-pidozriuanykh-vbyvstvo-berezovskoi/33800153.html"}, {"name": "Monaco", "cc": "MN", "lat": 43.733, "lon": 7.4, "n": 1, "art": 24, "url": "https://www.radiosvoboda.org/a/news-sud-vziav-pid-vartu-odnoho-z-pidozriuanykh-vbyvstvo-berezovskoi/33800153.html"}, {"name": "Toronto, Ontario, Canada", "cc": "CA", "lat": 43.667, "lon": -79.417, "n": 5, "art": 23, "url": "https://montrealgazette.com/press-releases/globe-newswire/seneca-polytechnic-launches-youth-community-academy-in-partnership-with-city-of-toronto-toronto-fire-services-and-toronto-police-service/"}, {"name": "Tabasco, Quintana Roo, Mexico", "cc": "MX", "lat": 19.975, "lon": -88.683, "n": 1, "art": 10, "url": "https://www.internazionale.it/magazine/rachel-nolan/2026/07/09/la-presidente-di-tutti"}, {"name": "Sacramento, California, United States", "cc": "US", "lat": 38.582, "lon": -121.494, "n": 3, "art": 18, "url": "https://nypost.com/2026/07/09/opinion/who-really-runs-california-and-how-unions-seized-power/"}, {"name": "San Francisco, California, United States", "cc": "US", "lat": 37.775, "lon": -122.419, "n": 2, "art": 10, "url": "https://www.pleasantonweekly.com/calmatters/2026/07/09/kaiser-nurses-say-technology-is-making-their-jobs-and-patient-care-worse/"}, {"name": "Kharg Island, Bushehr, Iran", "cc": "IR", "lat": 29.246, "lon": 50.316, "n": 1, "art": 8, "url": "https://www.aljazeera.com/news/2026/7/9/mediator-pakistan-says-renewed-us-iran-conflict-is-in-no-ones-interest"}, {"name": "Morocco", "cc": "MO", "lat": 32.0, "lon": -5.0, "n": 4, "art": 8, "url": "https://www.tiemposur.com.ar/deporte/francia-y-marruecos-se-enfrentan-por-un-lugar-en-las-semifinales"}, {"name": "Ngueniene, Thi\u00e8SG, Senegal", "cc": "SG", "lat": 14.283, "lon": -16.75, "n": 1, "art": 10, "url": "https://www.leral.net/Joal-une-charrette-une-moto-et-360-kg-de-chanvre-indien-tombent-aux-mains-des-gendarmes_a402092.html"}, {"name": "Moldova", "cc": "MD", "lat": 47.0, "lon": 29.0, "n": 1, "art": 10, "url": "https://www.interfax.ru/world/1102271"}, {"name": "Copenhagen, K\u00f8avn*, Denmark", "cc": "DA", "lat": 55.667, "lon": 12.583, "n": 1, "art": 3, "url": "https://www.nakedcapitalism.com/2026/07/links-7-9-2026.html"}, {"name": "Amsterdam, Noord-Holland, Netherlands", "cc": "NL", "lat": 52.35, "lon": 4.917, "n": 4, "art": 10, "url": "https://www.dutchnews.nl/2026/07/nl-is-worlds-top-hub-for-israeli-capital-arms-firms-included/"}, {"name": "Limassol, Limassol, Cyprus", "cc": "CY", "lat": 34.675, "lon": 33.033, "n": 1, "art": 10, "url": "https://kathimerini.com.cy/gr/kypros/anaktithikan-79-t-kypriaka-ypostatika-130-periptwseis-sta-dikastiria"}, {"name": "Senegal", "cc": "SG", "lat": 14.0, "lon": -14.0, "n": 1, "art": 6, "url": "https://www.senenews.com/actualites/conseil-constitutionnel-la-guerre-des-cles-usb-declenchee-le-recours-de-diomaye-en-danger_592780.html"}, {"name": "Orlen, Hessen, Germany", "cc": "GM", "lat": 50.183, "lon": 8.183, "n": 1, "art": 10, "url": "https://tvn24.pl/biznes/z-kraju/chaos-w-kopalni-soli-solino-obajtek-silowal-sie-z-prezesem-zarzadu-st9135354"}, {"name": "Dausa, Rajasthan, India", "cc": "IN", "lat": 26.883, "lon": 76.333, "n": 1, "art": 10, "url": "https://www.newindianexpress.com/states/rajasthan/2026/Jul/09/highway-blockades-internet-suspended-as-panchana-dam-row-escalates-in-rajasthan"}, {"name": "Greater Manchester, United Kingdom (general), United Kingdom", "cc": "UK", "lat": 53.45, "lon": -2.233, "n": 1, "art": 4, "url": "https://www.walesonline.co.uk/news/politics/you-cant-build-trust-wales-34260467"}, {"name": "Whitehall, Orkney Islands, United Kingdom", "cc": "UK", "lat": 59.15, "lon": -2.617, "n": 1, "art": 6, "url": "https://www.walesonline.co.uk/news/politics/you-cant-build-trust-wales-34260467"}, {"name": "Cape Town, Western Cape, South Africa", "cc": "SF", "lat": -33.917, "lon": 18.417, "n": 2, "art": 18, "url": "https://www2.fundsforngos.org/leadership/apply-now-brandtech-group-ai-for-good-scholarship-2026/"}, {"name": "Hannover, Niedersachsen, Germany", "cc": "GM", "lat": 52.367, "lon": 9.717, "n": 2, "art": 20, "url": "https://expert.ru/news/der-spiegel-volkswagen-mozhet-zakryt-chetyre-zavoda-k-2034-godu"}, {"name": "Hawaiian Islands, Hawaii, United States", "cc": "US", "lat": 20.75, "lon": -156.5, "n": 1, "art": 10, "url": "https://aninews.in/news/world/us/indian-navy-assumes-key-anti-submarine-warfare-leadership-role-in-us-led-rimpac-202620260709184037/"}, {"name": "Missouri, United States", "cc": "US", "lat": 38.462, "lon": -92.302, "n": 1, "art": 4, "url": "https://www.wyomingnewsnow.tv/news/national/the-us-murder-rate-fell-to-historic-lows-in-2025-here-s-why/article_fe349044-39fa-5021-b019-a012f42945dd.html"}, {"name": "Tennessee, United States", "cc": "US", "lat": 35.745, "lon": -86.749, "n": 1, "art": 4, "url": "https://www.nashvillescene.com/news/coverstory/marsha-blackburn-john-rose-jerri-green-governor-race/article_af0f3021-3990-4f63-a33e-f3615c786985.html"}, {"name": "Lhospitalet, Provence-Alpes-C\u00f4d'Azur, France", "cc": "FR", "lat": 44.088, "lon": 5.702, "n": 2, "art": 8, "url": "https://www.diaridegirona.cat/comarques/2026/07/09/homenatgen-els-activistes-antifranquistes-participar-132289358.html"}, {"name": "Kentucky, United States", "cc": "US", "lat": 37.669, "lon": -84.651, "n": 1, "art": 5, "url": "https://ejewishphilanthropy.com/the-fundamentally-human-act-of-presence-a-renewed-commitment-for-the-american-rabbinate/"}, {"name": "Luanda, Luanda, Angola", "cc": "AO", "lat": -8.838, "lon": 13.234, "n": 1, "art": 10, "url": "https://fr.allafrica.com/stories/202607090360.html"}, {"name": "Orlen, Warminsko-Mazurskie, Poland", "cc": "PL", "lat": 53.972, "lon": 21.574, "n": 3, "art": 10, "url": "https://natemat.pl/660289,obajtek-oglasza-strajk-glodowy-takiej-szarpaniny-z-jego-udzialem-jeszcze-nie-widzielismy"}, {"name": "Jalandhar, Punjab, India", "cc": "IN", "lat": 31.326, "lon": 75.579, "n": 1, "art": 6, "url": "https://indianexpress.com/article/upsc-current-affairs/upsc-key-prambanan-temple-kashmirs-militancy-landscape-and-astra-missile-10779287/"}, {"name": "Bhojpur, India (general), India", "cc": "IN", "lat": 24.15, "lon": 76.5, "n": 1, "art": 4, "url": "https://timesofindia.indiatimes.com/city/patna/bharats-mother-postpones-hunger-strike-after-falling-ill/articleshow/132288256.cms"}, {"name": "Hungary", "cc": "HU", "lat": 47.0, "lon": 20.0, "n": 5, "art": 50, "url": "https://life.ru/p/1897934"}, {"name": "Kerala, Kerala, India", "cc": "IN", "lat": 10.0, "lon": 76.5, "n": 1, "art": 10, "url": "https://keralakaumudi.com/en/en/kerala/general/ep-jayarajan-responded-to-vizhinjam-issue-1776992"}, {"name": "Kashmir, Jammu and Kashmir, India", "cc": "IN", "lat": 33.917, "lon": 76.667, "n": 8, "art": 31, "url": "https://www.thehindu.com/news/national/farooq-abdullah-writes-to-india-bloc-jk-leaders-on-upcoming-protest-over-statehood/article71203614.ece"}, {"name": "Havana, Ciudad de La Habana, Cuba", "cc": "CU", "lat": 23.132, "lon": -82.364, "n": 5, "art": 38, "url": "https://www.zazoom.it/2026-07-09/cuba-blackout-a-raffica-e-proteste-allavana-contro-il-governo/19443272/"}, {"name": "Portishead, North Somerset, United Kingdom", "cc": "UK", "lat": 51.484, "lon": -2.77, "n": 1, "art": 10, "url": "https://socialistworker.co.uk/environment/how-to-shut-down-your-workplace-if-it-gets-too-hot/"}, {"name": "Brighton, Brighton and Hove, United Kingdom", "cc": "UK", "lat": 50.833, "lon": -0.15, "n": 2, "art": 10, "url": "https://socialistworker.co.uk/news/palestine-protest-stands-with-sarah-cotte-at-old-bailey-court/"}, {"name": "Prijepolje, , Serbia", "cc": "RI", "lat": 43.372, "lon": 19.641, "n": 1, "art": 10, "url": "https://naslovi.net/2026-07-09/n1-info/ammar-mesic-vlasti-u-prijepolju-renoviraju-ulicu-preskocili-deo-gde-mi-zive-roditelji-mislim-da-je-razlog-sto-idu-na-proteste/42066753"}, {"name": "Neckarsulm, Baden-W\u00fcberg, Germany", "cc": "GM", "lat": 49.193, "lon": 9.226, "n": 1, "art": 10, "url": "https://vreme.com/ekonomija/nemacka-autoindustrija-folksvagen-radna-mesta-porse-audi/"}, {"name": "Paises Bajos, Veracruz-Llave, Mexico", "cc": "MX", "lat": 20.883, "lon": -97.333, "n": 2, "art": 8, "url": "https://diariolaopinion.com.ar/deportes/francia-y-marruecos-reeditan-la-semifinal-de-qatar-2022-en-boston.htm"}, {"name": "Zhipu, Zhejiang, China", "cc": "CH", "lat": 29.213, "lon": 120.539, "n": 1, "art": 10, "url": "https://meobserver.org/technology/2026/07/09/openai-launches-gpt-5-6-globally-as-frontier-ai-race-enters-a-new-strategic-phase/"}, {"name": "Sao Francisco, Cear\u00e1R, Brazil", "cc": "BR", "lat": -5.233, "lon": -40.183, "n": 3, "art": 10, "url": "https://racismoambiental.net.br/2026/07/09/contra-decisao-do-stj-airbnb-usa-tatica-de-lobby-de-mobilizacao/"}, {"name": "Iraq", "cc": "IZ", "lat": 33.0, "lon": 44.0, "n": 1, "art": 20, "url": "https://www.bankingnews.gr/diethni/articles/887179/ilektrosok-oi-ipa-sarosan-gefyra-rosikon-kai-kinezikon-symferonton-sto-iran-doyma-teleiosate-axios-30-imeres-kolasis"}, {"name": "Bucharest, Bucuresti, Romania", "cc": "RO", "lat": 44.433, "lon": 26.1, "n": 1, "art": 8, "url": "https://www.caleaeuropeana.ro/ici-bucuresti-a-participat-la-exercitiul-demonstrativ-demo-day-romania-israel/"}, {"name": "Boston, Massachusetts, United States", "cc": "US", "lat": 42.358, "lon": -71.06, "n": 2, "art": 20, "url": "https://www.techtimes.com/articles/319965/20260709/humanoid-robots-cant-handle-human-touch-new-benchmark-exposes-vla-safety-gap.htm"}, {"name": "Chattanooga, Tennessee, United States", "cc": "US", "lat": 35.046, "lon": -85.31, "n": 1, "art": 2, "url": "https://www.nbcbayarea.com/news/national-international/tennessee-railway-conductor-fired-xenophobic-remarks/4111261/"}, {"name": "Miragaia, Minas Gerais, Brazil", "cc": "BR", "lat": -21.05, "lon": -43.0, "n": 1, "art": 6, "url": "https://musicnonstop.uol.com.br/10-bandas-do-estado-de-sao-paulo-que-voce-precisa-conhecer/"}, {"name": "Dominica", "cc": "DO", "lat": 15.5, "lon": -61.333, "n": 1, "art": 10, "url": "https://www.nicematin.com/societe/politique/senatoriales-2026-des-maires-de-l-est-de-alpes-maritimes-approches-ont-refuse-de-se-presenter-10688525"}, {"name": "Kigali, (RW09), Rwanda", "cc": "RW", "lat": -1.954, "lon": 30.061, "n": 1, "art": 10, "url": "https://noticias.r7.com/prisma/diplomacia-e-embaixadas/diplomacia-ruandesa-leva-a-brasilia-mensagem-de-superacao-desenvolvimento-e-busca-de-parcerias-estrategicas-09072026/"}, {"name": "Mossel Bay, Western Cape, South Africa", "cc": "SF", "lat": -34.183, "lon": 22.146, "n": 3, "art": 9, "url": "https://www.dw.com/en/south-africa-driven-home-by-anti-migrant-protests/a-77889650"}, {"name": "Wolfsburg, Niedersachsen, Germany", "cc": "GM", "lat": 52.433, "lon": 10.8, "n": 7, "art": 33, "url": "https://www.lavozdegalicia.es/noticia/economia/2026/07/09/sindicatos-alemanes-protestan-pais-posibles-cierres-recortes-volkswagen/00031783631087617681726.htm"}, {"name": "Wadi Qana, West Bank (general), West Bank", "cc": "WE", "lat": 32.159, "lon": 35.106, "n": 2, "art": 4, "url": "https://jewishcurrents.org/the-ecology-of-dispossession"}, {"name": "Bedford, Indiana, United States", "cc": "US", "lat": 38.861, "lon": -86.487, "n": 1, "art": 6, "url": "https://www.wbiw.com/2026/07/09/womens-statewide-listening-session-heading-to-bedford-this-july/"}, {"name": "Pezelj, Splitsko-Dalmatinska, Croatia", "cc": "HR", "lat": 43.519, "lon": 16.698, "n": 1, "art": 10, "url": "https://www.novilist.hr/rijeka-regija/rijeka/digitalna-transformacija-i-ai-u-sluzbi-malih-poduzetnika/"}, {"name": "Benin", "cc": "BN", "lat": 9.5, "lon": 2.25, "n": 2, "art": 15, "url": "https://www.vanguardngr.com/2026/07/adc-faction-withdraws-from-edo-lg-election-over-credibility-concerns/"}, {"name": "Chennai, Tamil Nadu, India", "cc": "IN", "lat": 13.083, "lon": 80.283, "n": 1, "art": 6, "url": "https://www.thehindu.com/news/national/tamil-nadu/chennais-residential-market-stable-during-first-half-of-2026-says-report/article71203084.ece"}, {"name": "Watervliet Arsenal, New York, United States", "cc": "US", "lat": 42.72, "lon": -73.708, "n": 1, "art": 5, "url": "https://www.armytimes.com/news/your-military/2026/07/09/army-develops-new-technique-for-rifling-cannon-bores/"}, {"name": "Messinia, Perifereia Peloponnisou, Greece", "cc": "GR", "lat": 37.114, "lon": 21.887, "n": 1, "art": 10, "url": "https://www.inewsgr.com/184/pou-gyristike-i-odysseia-tou-nolan-apo-tin-peloponniso-mechri-to-los-antzeles.htm"}, {"name": "Iceland", "cc": "IC", "lat": 65.0, "lon": -18.0, "n": 1, "art": 2, "url": "https://www.inewsgr.com/184/pou-gyristike-i-odysseia-tou-nolan-apo-tin-peloponniso-mechri-to-los-antzeles.htm"}, {"name": "North Sea, Oceans (general), Oceans", "cc": "OS", "lat": 55.333, "lon": 3.0, "n": 1, "art": 2, "url": "https://www.inewsgr.com/184/pou-gyristike-i-odysseia-tou-nolan-apo-tin-peloponniso-mechri-to-los-antzeles.htm"}, {"name": "Nieuwegein, Utrecht, Netherlands", "cc": "NL", "lat": 52.015, "lon": 5.1, "n": 1, "art": 10, "url": "https://nos.nl/artikel/2622341-demonstratie-utrecht-tegen-vrijspraak-van-verkrachting-tienermeisje"}, {"name": "Ethiopia", "cc": "ET", "lat": 8.0, "lon": 38.0, "n": 1, "art": 10, "url": "https://www.sowetan.co.za/news/2026-07-09-man-nephew-die-after-alleged-poisoning-from-spaza-snacks/"}, {"name": "Dakhla, Western Sahara (general), Western Sahara", "cc": "WI", "lat": 23.661, "lon": -15.953, "n": 1, "art": 4, "url": "https://www.moroccoworldnews.com/2026/07/328104/us-congressional-staff-visit-dakhla-to-explore-investment-opportunities/"}, {"name": "Brazil", "cc": "BR", "lat": -10.0, "lon": -55.0, "n": 2, "art": 20, "url": "https://g1.globo.com/pr/parana/especial-publicitario/cresol/guia-de-solucoes-financeiras/noticia/2026/07/09/cresol-supera-r-168-bilhoes-no-plano-safra-2526-e-projeta-novo-ciclo-positivo.ghtml"}, {"name": "Asuncion, Villeta, Paraguay", "cc": "PA", "lat": -25.267, "lon": -57.667, "n": 1, "art": 10, "url": "https://www.sofoot.com/breves/une-poupee-a-leffigie-de-kylian-mbappe-brulee-au-paraguay"}, {"name": "Massachusetts, United States", "cc": "US", "lat": 42.237, "lon": -71.531, "n": 1, "art": 10, "url": "https://www.mynbc5.com/article/teens-detained-waymo-alerts-police-california/71885056"}, {"name": "Alicante, Valenciana, Spain", "cc": "SP", "lat": 38.346, "lon": -0.488, "n": 1, "art": 4, "url": "https://www.cbc.ca/news/world/san-fermin-festival-running-of-the-bulls-spain-hemingway-9.7264121"}, {"name": "Colombo, Western, Sri Lanka", "cc": "CE", "lat": 6.932, "lon": 79.848, "n": 2, "art": 10, "url": "https://www.thehindu.com/newsletter/the-evening-wrap/evening-wrap-july-9-2026/article71203463.ece"}, {"name": "Dibra, Dib\u00ebAL, Albania", "cc": "AL", "lat": 41.685, "lon": 20.429, "n": 1, "art": 10, "url": "https://sot.com.al/aktualitet/ndryshim-i-kesaj-situate-protestat-masive-ne-kryeqytet-aktivisti-arsyeja-kryesore-eshte-keqqeverisja/"}, {"name": "Milan, Lombardia, Italy", "cc": "IT", "lat": 45.467, "lon": 9.2, "n": 2, "art": 20, "url": "https://www.primocanale.it/attualit%c3%a0/69167-termovalorizzatore-ministro-foti-genova-rifiuti.html"}, {"name": "Morelos, M\u00e9co, Mexico", "cc": "MX", "lat": 19.601, "lon": -99.052, "n": 2, "art": 20, "url": "https://www.eldiariodechihuahua.mx/nacional/2026/jul/09/protestan-para-exigir-al-issste-hospital-digno-en-hermosillo-815940.html"}, {"name": "Samara, Samarskaya Oblast', Russia", "cc": "RS", "lat": 53.2, "lon": 50.15, "n": 1, "art": 10, "url": "https://www.kommersant.ru/doc/8799933"}, {"name": "Stavropol, Stavropol'skiy Kray, Russia", "cc": "RS", "lat": 45.043, "lon": 41.973, "n": 1, "art": 10, "url": "https://24tv.ua/ru/saratovskij-npz-polnostju-ostanovil-rabotu-posle-ataki-dronov-8-ijulja-2026-goda-podrobnosti_n3103004"}, {"name": "Oslo, Oslo, Norway", "cc": "NO", "lat": 59.917, "lon": 10.75, "n": 4, "art": 10, "url": "https://www.ynet.co.il/news/article/hyzjpgpmfl"}, {"name": "Aalborg, Nordjylland, Denmark", "cc": "DA", "lat": 57.035, "lon": 9.941, "n": 1, "art": 10, "url": "https://lactualite.com/actualites/une-assemblee-de-peres-noel-se-reunit-pour-un-congres-estival-au-danemark/"}, {"name": "Kenya", "cc": "KE", "lat": 1.0, "lon": 38.0, "n": 1, "art": 10, "url": "https://duma.bg/snimka-na-denya-09072026-g-n322062"}, {"name": "Glasgow, Glasgow City, United Kingdom", "cc": "UK", "lat": 55.833, "lon": -4.25, "n": 1, "art": 10, "url": "https://www.thenational.scot/news/26267756.restore-double-down-rupert-lowe-trivialising-dunblane-massacre/"}, {"name": "Zimbabwe", "cc": "ZI", "lat": -19.0, "lon": 29.0, "n": 2, "art": 2, "url": "https://whbl.com/2026/07/09/south-african-protesters-go-door-to-door-forcing-immigrants-from-their-homes/"}, {"name": "Pikes Peak, Colorado, United States", "cc": "US", "lat": 38.84, "lon": -105.044, "n": 1, "art": 6, "url": "https://gazette.com/2026/07/09/honoring-freedom-while-acknowledging-historic-struggles-rachel-stovall/"}, {"name": "Colorado, United States", "cc": "US", "lat": 39.065, "lon": -105.327, "n": 2, "art": 7, "url": "https://www.ijn.com/coloradans-rally-outside-nea-assembly-against-anti-zionist-anti-jewish-tropes/"}, {"name": "Paarl, Western Cape, South Africa", "cc": "SF", "lat": -33.734, "lon": 18.975, "n": 1, "art": 6, "url": "https://www.indexoncensorship.org/2026/07/remembering-philanthropist-and-technologist-david-potter/"}, {"name": "Tsangaya, Nigeria (general), Nigeria", "cc": "NI", "lat": 11.617, "lon": 9.217, "n": 1, "art": 3, "url": "https://thesun.ng/ubec-writing-new-chapter-in-basic-education-says-executive-secretary/"}, {"name": "Jinan, Shandong, China", "cc": "CH", "lat": 36.668, "lon": 116.997, "n": 1, "art": 1, "url": "https://www.globaltimes.cn/page/202607/1365595.shtml"}, {"name": "Montreal, Quebec, Canada", "cc": "CA", "lat": 45.5, "lon": -73.583, "n": 1, "art": 2, "url": "https://www.lesaffaires.com/communique-de-presse/le-quartier-des-arts-du-cirque-devoile-sa-vision-de-developpement-pour-le-secteur-saint-michel/"}, {"name": "Volusia County, Florida, United States", "cc": "US", "lat": 29.084, "lon": -81.208, "n": 1, "art": 3, "url": "https://www.daytonatimes.com/community/july-20-is-the-deadline-to-register-for-the-primary-election/article_1c347782-2275-447c-a441-071d46356d3d.html"}, {"name": "Volusia, Florida, United States", "cc": "US", "lat": 29.169, "lon": -81.521, "n": 1, "art": 2, "url": "https://www.daytonatimes.com/community/another-a-for-mainland-and-volusia-school-district/article_4dbcb21c-6a9c-497c-815c-aff0928eac9e.html"}, {"name": "Gao Zhen, Guangdong, China", "cc": "CH", "lat": 23.471, "lon": 115.203, "n": 1, "art": 2, "url": "https://www.artmonthly.co.uk/magazine/site/article/artlaw-retrospective-6-july-2026-censorship"}, {"name": "Dakar, Dakar, Senegal", "cc": "SG", "lat": 14.737, "lon": -17.634, "n": 1, "art": 10, "url": "https://www.leral.net/Disparition-d-Idrissa-Idy-Ba-une-figure-populaire-des-rues-de-Dakar-s-est-eteinte_a402104.html"}, {"name": "Wisconsin, United States", "cc": "US", "lat": 44.256, "lon": -89.638, "n": 2, "art": 7, "url": "https://wisconsinagconnection.com/news/wisconsin-producers-enroll-thousands-of-acres-in-crp"}, {"name": "Conakry, Capitale d'Etat-Zone Speciale de Conakry, Guinea", "cc": "GV", "lat": 9.509, "lon": -13.712, "n": 1, "art": 10, "url": "https://guineematin.com/2026/07/09/disparition-de-fonike-mengue-et-billo-bah-deux-ans-apres-la-verite-et-la-justice-se-font-toujours-attendre/"}, {"name": "Texas, United States", "cc": "US", "lat": 31.106, "lon": -97.647, "n": 6, "art": 48, "url": "https://www.bainbridgereview.com/2026/07/09/islander-walks-45-miles-in-texas-to-condemn-immigrant-incarceration/"}, {"name": "Marquette University, Wisconsin, United States", "cc": "US", "lat": 43.038, "lon": -87.93, "n": 3, "art": 8, "url": "https://www.wispolitics.com/2026/marquette-university-marquette-university-honors-local-philanthropists-as-alumni-of-the-year/"}, {"name": "Grenada", "cc": "GJ", "lat": 12.117, "lon": -61.667, "n": 2, "art": 8, "url": "https://nowgrenada.com/2026/07/14-captured-maroons-executed-9-july-1725-2/"}, {"name": "Essex, Essex, United Kingdom", "cc": "UK", "lat": 51.833, "lon": 0.583, "n": 1, "art": 2, "url": "https://www.artnews.com/art-news/news/george-condo-returns-to-hauser-wirth-painting-illuminates-shakespeares-rebellious-politics-and-more-morning-links-for-july-9-2026-1234791695/"}, {"name": "Los Banos, Villa Clara, Cuba", "cc": "CU", "lat": 23.05, "lon": -80.617, "n": 1, "art": 10, "url": "https://www.martinoticias.com/a/contin%C3%BAa-detenido-desde-hace-dos-meses-joven-que-divulg%C3%B3-primeras-im%C3%A1genes-del-11j/470490.html"}, {"name": "Vjerdha, Qarku Shkoder, Albania", "cc": "AL", "lat": 42.067, "lon": 19.633, "n": 1, "art": 10, "url": "https://sot.com.al/aktualitet/proteste-historike-per-qendrueshmerine-qe-ajo-ka-patur-aktivisti-qytetaret-kerkojne-doreheqje-eshte-momenti/"}, {"name": "Surabaya, Jawa Timur, Indonesia", "cc": "ID", "lat": -7.249, "lon": 112.751, "n": 2, "art": 8, "url": "https://surabaya.tribunnews.com/jawa-timur/1943998/persekongkolan-jahat-2-maling-gasak-emas-di-gresik-hasil-curian-rp-69-juta-buat-dugem-ke-malang"}, {"name": "Crimea, Krym, Avtonomna Respublika, Ukraine", "cc": "UP", "lat": 45.0, "lon": 34.0, "n": 1, "art": 2, "url": "https://24tv.ua/ru/toplivnyj-krizis-krymu-nanosit-udar-po-jekonomike-okkupacionnaja_n3103013"}, {"name": "Edo State, Edo, Nigeria", "cc": "NI", "lat": 6.5, "lon": 6.0, "n": 1, "art": 8, "url": "https://nigerianobservernews.com/2026/07/okpebholo-seeks-traditional-rulers-support-to-tackle-insecurity/"}, {"name": "Arizona, United States", "cc": "US", "lat": 33.771, "lon": -111.388, "n": 1, "art": 2, "url": "https://www.prnewswire.com/news-releases/az-blue-health-choice-expands-access-to-care-with-in-home-whole-family-care-model-through-nest-health-partnership-302822167.html"}, {"name": "Killarney, Kerry, Ireland", "cc": "EI", "lat": 52.05, "lon": -9.517, "n": 1, "art": 1, "url": "https://nypost.com/2026/07/09/world-news/ny-mom-jamey-carneys-last-post-with-suspected-killer-ahmad-alsaqer/"}, {"name": "Tikrit, Sala? ad Din, Iraq", "cc": "IZ", "lat": 34.616, "lon": 43.679, "n": 1, "art": 10, "url": "https://www.aljazeera.net/news/2026/7/9/%D9%85%D8%AE%D8%A8%D8%A3%D8%A9-%D8%A8%D8%AD%D9%81%D8%B1%D8%A9-%D8%AA%D8%B5%D8%B1%D9%8A%D9%81-%D8%A7%D9%84%D9%82%D8%B6%D8%A7%D8%A1-%D8%A7%D9%84%D8%B9%D8%B1%D8%A7%D9%82%D9%8A-%D9%8A%D8%B6%D8%A8%D8%B7"}, {"name": "Mali", "cc": "ML", "lat": 17.0, "lon": -4.0, "n": 2, "art": 10, "url": "https://www.aljazeera.net/news/2026/7/9/%D9%85%D8%AE%D8%A8%D8%A3%D8%A9-%D8%A8%D8%AD%D9%81%D8%B1%D8%A9-%D8%AA%D8%B5%D8%B1%D9%8A%D9%81-%D8%A7%D9%84%D9%82%D8%B6%D8%A7%D8%A1-%D8%A7%D9%84%D8%B9%D8%B1%D8%A7%D9%82%D9%8A-%D9%8A%D8%B6%D8%A8%D8%B7"}, {"name": "Kaduna State, Kaduna, Nigeria", "cc": "NI", "lat": 10.333, "lon": 7.75, "n": 1, "art": 5, "url": "https://allafrica.com/stories/202607090225.html"}, {"name": "Sulyok, Szabolcs-Szatm\u00e1Bereg, Hungary", "cc": "HU", "lat": 47.75, "lon": 21.85, "n": 1, "art": 10, "url": "https://www.winnipegfreepress.com/world/2026/07/09/orban-allies-protest-in-hungary-against-plans-to-oust-president-tamas-sulyok"}, {"name": "Damascus, Dimashq, Syria", "cc": "SY", "lat": 33.5, "lon": 36.3, "n": 1, "art": 10, "url": "https://sana.sy/fr/syria-and-the-world/2317073/"}, {"name": "Little Rock, Arkansas, United States", "cc": "US", "lat": 34.746, "lon": -92.29, "n": 6, "art": 37, "url": "https://arktimes.com/arkansas-blog/2026/07/09/charges-to-be-dropped-for-protester-arrested-in-turning-point-usa-skirmish-at-the-govs-mansion"}, {"name": "Warren Memorial Hospital, Virginia, United States", "cc": "US", "lat": 38.93, "lon": -78.198, "n": 2, "art": 10, "url": "https://www.nvdaily.com/nvdaily/business-news/article_c148619f-9efb-5d36-9217-0c7f28dad4fa.html"}, {"name": "Philadelphia, Pennsylvania, United States", "cc": "US", "lat": 39.952, "lon": -75.164, "n": 1, "art": 6, "url": "http://www.pauldavisoncrime.com/2026/07/burning-mad-about-flag-burning.html"}, {"name": "Biola University, California, United States", "cc": "US", "lat": 33.905, "lon": -118.014, "n": 3, "art": 8, "url": "https://signalscv.com/2026/07/college-brief-for-july-9/"}, {"name": "Valencia, Carabobo, Venezuela", "cc": "VE", "lat": 10.181, "lon": -68.004, "n": 2, "art": 2, "url": "https://signalscv.com/2026/07/college-brief-for-july-9/"}, {"name": "Crystal City, Texas, United States", "cc": "US", "lat": 28.677, "lon": -99.828, "n": 1, "art": 6, "url": "https://www.bainbridgereview.com/2026/07/09/islander-walks-45-miles-in-texas-to-condemn-immigrant-incarceration/"}, {"name": "Bosc, Haute-Normandie, France", "cc": "FR", "lat": 49.627, "lon": 1.175, "n": 1, "art": 10, "url": "https://www.lindependant.fr/2026/07/09/incendie-dans-les-pyrenees-orientales-rodes-libere-13461902.php"}, {"name": "San Valentin, Nayarit, Mexico", "cc": "MX", "lat": 20.917, "lon": -104.55, "n": 1, "art": 10, "url": "https://www.propublica.org/article/camp-east-montana-salud-mental-inmigracion"}, {"name": "Dubai, Dubayy, United Arab Emirates", "cc": "AE", "lat": 25.252, "lon": 55.28, "n": 1, "art": 10, "url": "https://tradearabia.com:443/News/464947/Batelco-by-Beyon%E2%80%99s-Basma-wins-top-MEA-business-award"}, {"name": "Plaza De Espana, Andaluc\u00edSP, Spain", "cc": "SP", "lat": 37.377, "lon": -5.987, "n": 1, "art": 10, "url": "https://www.diariodesevilla.es/sevilla/protesta-ciudadana-conciertos-iconica-salgan-plaza-de-espana_0_2007378508.html"}, {"name": "Honolulu, Hawaii, United States", "cc": "US", "lat": 21.307, "lon": -157.858, "n": 1, "art": 10, "url": "https://wiadomosci.onet.pl/krakow/emir-kataru-buduje-w-zakopanem-meczet-jak-pol-miasta-uwierzylo-w-plotke/b1ltcw3"}, {"name": "Ayodhya, Uttar Pradesh, India", "cc": "IN", "lat": 26.8, "lon": 82.2, "n": 2, "art": 16, "url": "https://avenuemail.in/protest-in-jamshedpur-over-ayodhya-temple-donation-theft/"}, {"name": "Karachi, Sindh, Pakistan", "cc": "PK", "lat": 24.867, "lon": 67.05, "n": 1, "art": 10, "url": "https://tribune.com.pk/story/2617376/five-injured-as-rival-student-groups-clash-at-karachi-university"}, {"name": "Bolivar, Valle del Cauca, Colombia", "cc": "CO", "lat": 4.339, "lon": -76.183, "n": 1, "art": 4, "url": "https://www.lafm.com.co/politica/luis-fernando-velasco-seguira-detenido-investigacion-ungrd-404518"}, {"name": "Artix, Midi-Pyr\u00e9es, France", "cc": "FR", "lat": 43.068, "lon": 1.564, "n": 1, "art": 2, "url": "https://www.sudouest.fr/pyrenees-atlantiques/pau/tour-de-france-la-chaleur-a-visiblement-refroidi-le-public-en-ville-pour-la-6e-etape-au-depart-de-pau-29870616.php"}, {"name": "Mazeres-Lezons, Aquitaine, France", "cc": "FR", "lat": 43.267, "lon": -0.35, "n": 1, "art": 10, "url": "https://www.sudouest.fr/pyrenees-atlantiques/pau/tour-de-france-la-chaleur-a-visiblement-refroidi-le-public-en-ville-pour-la-6e-etape-au-depart-de-pau-29870616.php"}, {"name": "Belgium", "cc": "BE", "lat": 50.833, "lon": 4.0, "n": 1, "art": 8, "url": "https://www.sudouest.fr/pyrenees-atlantiques/pau/tour-de-france-la-chaleur-a-visiblement-refroidi-le-public-en-ville-pour-la-6e-etape-au-depart-de-pau-29870616.php"}, {"name": "Espriella, Nari\u00f1O, Colombia", "cc": "CO", "lat": 1.433, "lon": -77.417, "n": 3, "art": 30, "url": "https://laopinion.co:443/politica/cecilia-lopez-ocampo-oviedo-y-otros-lideres-del-centro-le-piden-abelardo-renunciar"}, {"name": "Burundi", "cc": "BY", "lat": -3.5, "lon": 30.0, "n": 3, "art": 8, "url": "https://www.riotimesonline.com/dr-congo-protests-postponed-2026/"}, {"name": "Katumbi, Congo, Democratic Republic of The (general), Democratic Republic Of The Congo", "cc": "CG", "lat": -6.4, "lon": 28.167, "n": 1, "art": 10, "url": "https://www.riotimesonline.com/dr-congo-protests-postponed-2026/"}, {"name": "Iowa, United States", "cc": "US", "lat": 42.005, "lon": -93.214, "n": 5, "art": 20, "url": "https://www.rawstory.com/ice-houston/"}, {"name": "Uganda", "cc": "UG", "lat": 2.0, "lon": 33.0, "n": 1, "art": 3, "url": "https://www.theepochtimes.com/health/ebola-outbreak-in-africa-still-spreading-official-says-as-deaths-top-500-post-6058528"}, {"name": "Calgary, Alberta, Canada", "cc": "CA", "lat": 51.083, "lon": -114.083, "n": 2, "art": 4, "url": "https://thewalrus.ca/the-blueprint-behind-danielle-smiths-plan-to-break-up-with-canada/"}, {"name": "Ottawa, Ontario, Canada", "cc": "CA", "lat": 45.417, "lon": -75.7, "n": 1, "art": 6, "url": "https://thewalrus.ca/the-blueprint-behind-danielle-smiths-plan-to-break-up-with-canada/"}, {"name": "Juan Jose Castelli, Chaco, Argentina", "cc": "AR", "lat": -25.947, "lon": -60.62, "n": 1, "art": 2, "url": "https://radiocataratas.com/2026/07/09/passalacqua-encabezo-el-acto-por-el-dia-de-la-independencia-y-llamo-a-construir-un-tejido-social-respetuoso-y-en-paz/"}, {"name": "Estado De Mexico, Campeche, Mexico", "cc": "MX", "lat": 18.0, "lon": -90.89, "n": 2, "art": 8, "url": "https://www.elfinanciero.com.mx/edomex/2026/07/09/exigimos-tu-renuncia-protestan-durante-audiencia-de-alcaldesa-de-tenancingo-que-simulo-su-secuestro/"}, {"name": "Argentina", "cc": "AR", "lat": -34.0, "lon": -64.0, "n": 1, "art": 10, "url": "https://www.ilquotidianodellazio.it/roma-teatro-cantiere-teatrale-franco-fracassi-presenta-3-storie-di-fiducia-tradita-fra-argentina-sanita-e-memoria.html"}, {"name": "Sao Paulo, S\u00e3Paulo, Brazil", "cc": "BR", "lat": -23.533, "lon": -46.617, "n": 1, "art": 10, "url": "https://carros.ig.com.br/testes/2026-07-09/teste-jeep-renegade-sahara-mhev-hibrido-para-rodizio.html"}, {"name": "Kukatpally, Andhra Pradesh, India", "cc": "IN", "lat": 17.483, "lon": 78.417, "n": 1, "art": 10, "url": "https://www.siasat.com/students-protest-over-grace-marks-allocation-at-jntu-in-hyderabad-3504721/"}, {"name": "Dhaka, Dhaka, Bangladesh", "cc": "BG", "lat": 23.723, "lon": 90.409, "n": 1, "art": 2, "url": "https://www.siasat.com/bangladesh-steps-up-bid-to-bring-sheikh-hasina-back-3504814/"}, {"name": "Uttarakhand, Uttaranchal, India", "cc": "IN", "lat": 30.25, "lon": 79.25, "n": 1, "art": 3, "url": "https://organiser.org/2026/07/09/369175/bharat/maharashtra-takes-major-step-towards-uniform-civil-code-cm-fadnavis-announces-setting-up-of-7-member-expert-committee/"}, {"name": "North Dakota, United States", "cc": "US", "lat": 47.536, "lon": -99.793, "n": 2, "art": 2, "url": "https://nypost.com/2026/07/09/us-news/san-francisco-eyes-public-bank-inspired-by-north-dakota/"}, {"name": "Thana, Maharashtra, India", "cc": "IN", "lat": 19.2, "lon": 72.967, "n": 1, "art": 4, "url": "https://kohajone.com/aktualitet/gazetari-zbulon-lidhjet-e-deputetit-te-vlen-me-albin-kurtin-eshte-bashkepunetor-i-bia-s/"}, {"name": "Lilongwe, Lilongwe, Malawi", "cc": "MI", "lat": -13.983, "lon": 33.783, "n": 2, "art": 15, "url": "https://mwnation.com/uk-malawi-to-continue-strengthening-trade-ties/"}, {"name": "Guanajay, Provincia de Artemisa, Cuba", "cc": "CU", "lat": 22.926, "lon": -82.688, "n": 1, "art": 10, "url": "https://www.infobae.com/america/america-latina/2026/07/09/persecucion-en-cuba-el-artista-luis-manuel-otero-alcantara-completo-su-condena-pero-sigue-en-paradero-desconocido/"}, {"name": "El Cangrejo, Matanzas, Cuba", "cc": "CU", "lat": 23.017, "lon": -81.6, "n": 1, "art": 8, "url": "https://www.cubaheadlines.com/articles/334647"}, {"name": "Phagwara, Punjab, India", "cc": "IN", "lat": 31.218, "lon": 75.769, "n": 1, "art": 2, "url": "https://www.tribuneindia.com/news/jalandhar/sikh-organisations-stage-protest-in-phagwara-over-satluj-movie-ban/"}, {"name": "La Razon, Chiapas, Mexico", "cc": "MX", "lat": 16.583, "lon": -93.867, "n": 5, "art": 20, "url": "https://www.razon.com.mx/mexico/2026/07/09/nuevos-partidos-toman-asiento-en-el-ine-rinden-protesta-sus-representantes-ante-el-consejo-general/"}, {"name": "Indiana, United States", "cc": "US", "lat": 39.865, "lon": -86.26, "n": 1, "art": 4, "url": "https://www.usmagazine.com/crime-news/news/teacher-sent-nude-photos-to-student-said-she-loved-him/"}, {"name": "Kansas, United States", "cc": "US", "lat": 38.511, "lon": -96.8, "n": 1, "art": 6, "url": "https://www.usmagazine.com/crime-news/news/teacher-sent-nude-photos-to-student-said-she-loved-him/"}, {"name": "Owerri, Imo, Nigeria", "cc": "NI", "lat": 5.483, "lon": 7.03, "n": 1, "art": 5, "url": "https://leadership.ng/group-calls-on-ndigbo-to-support-tinubus-second-term-bid/"}, {"name": "Collin County, Texas, United States", "cc": "US", "lat": 33.2, "lon": -96.567, "n": 2, "art": 7, "url": "https://www.houstonpublicmedia.org/articles/news/politics/election-2026/2026/07/09/556636/james-talarico-black-voter-support/"}, {"name": "Colombia", "cc": "CO", "lat": 4.0, "lon": -72.0, "n": 1, "art": 10, "url": "https://www.pulzo.com/entretenimiento/robaron-papas-mindo-ladrones-les-saquearon-negocio-PP5241809A"}, {"name": "Hollywood, California, United States", "cc": "US", "lat": 34.098, "lon": -118.327, "n": 1, "art": 6, "url": "https://nypost.com/2026/07/09/us-news/teen-creep-busted-for-subway-grope-is-a-yale-student-who-once-rallied-against-sexual-harrassment-training/"}, {"name": "Qatar", "cc": "QA", "lat": 25.5, "lon": 51.25, "n": 1, "art": 16, "url": "https://www.jns.org/opinion/column/melanie-phillips/the-trillion-dollar-campaign-to-conquer-the-west"}, {"name": "Lake Havasu City Police Department, Arizona, United States", "cc": "US", "lat": 34.478, "lon": -114.318, "n": 2, "art": 10, "url": "https://www.aol.com/articles/information-storage-wars-star-darrell-165216000.html"}, {"name": "Clacton On Sea, Essex, United Kingdom", "cc": "UK", "lat": 51.783, "lon": 1.167, "n": 1, "art": 10, "url": "https://www.express.co.uk/celebrity-news/2227268/bbc-question-time-fiona-bruce-count-binface-opinion"}, {"name": "Jose Maria, Tabasco, Mexico", "cc": "MX", "lat": 17.883, "lon": -93.917, "n": 1, "art": 10, "url": "https://www.eldiariodechihuahua.mx/nacional/2026/jul/09/protestan-para-exigir-al-issste-hospital-digno-en-hermosillo-815940.html"}, {"name": "Minsk, Belarus (general), Belarus", "cc": "BO", "lat": 53.9, "lon": 27.567, "n": 1, "art": 1, "url": "https://www.newscentralasia.net/2026/07/09/belarus-uzbekistan-elevate-relations-to-strategic-partnership-outcomes-of-the-minsk-summit/"}, {"name": "Tashkent, Toshkent Shahri, Uzbekistan", "cc": "UZ", "lat": 41.317, "lon": 69.25, "n": 2, "art": 7, "url": "https://www.newscentralasia.net/2026/07/09/belarus-uzbekistan-elevate-relations-to-strategic-partnership-outcomes-of-the-minsk-summit/"}, {"name": "Ludhiana, Punjab, India", "cc": "IN", "lat": 30.9, "lon": 75.85, "n": 1, "art": 5, "url": "https://www.tribuneindia.com/news/ludhiana/protest-erupts-after-attack-on-temple-in-ludhianas-ews-colony-6-drug-peddlers-booked/"}, {"name": "Narathiwat, Narathiwat, Thailand", "cc": "TH", "lat": 6.426, "lon": 101.823, "n": 4, "art": 10, "url": "https://www.bangkokpost.com/opinion/opinion/3283819/south-peace-talks-must-stay-in-local-hands"}, {"name": "Wloclawek, Kujawsko-Pomorskie, Poland", "cc": "PL", "lat": 52.651, "lon": 19.073, "n": 1, "art": 10, "url": "https://niezalezna.pl/polityka/tusk-realizuje-plan-polska-na-sprzedaz-prezes-pis-alarmuje-ws-solino-i-wskazuje-na-niemcy/574579"}, {"name": "Romania", "cc": "RO", "lat": 46.0, "lon": 25.0, "n": 1, "art": 10, "url": "https://www.capital.ro/scandal-pe-legea-salarizarii-florin-manolepsd-acuza-pnl-ca-era-in-sala-la-redactarea-proiectului-s-a-ingrosat-prea-mult-obrazul-unor-liberali.html"}, {"name": "Pretoria, Gauteng, South Africa", "cc": "SF", "lat": -25.707, "lon": 28.229, "n": 6, "art": 22, "url": "https://www.ghanamma.com/2026/07/09/why-are-nigeria-south-africa-tensions-rising-amid-xenophobic-attacks/"}, {"name": "Caaguazu, Caaguaz\u00fa5, Paraguay", "cc": "PA", "lat": -25.45, "lon": -56.017, "n": 2, "art": 20, "url": "https://www.abc.com.py/nacionales/2026/07/09/educacion-sexual-pastor-evangelico-defiende-libros-del-mec-ante-protesta-en-caaguazu/"}, {"name": "Solomon Islands", "cc": "BP", "lat": -8.0, "lon": 159.0, "n": 1, "art": 5, "url": "https://www.dailypost.vu/news/south-sea-islanders-welcome-vanuatu-australia-nakamal-agreement/article_bf6d7356-d916-59e6-8fe4-a0ea9ab766f7.html"}, {"name": "Saudi Arabia", "cc": "SA", "lat": 25.0, "lon": 45.0, "n": 1, "art": 10, "url": "https://www.algemeiner.com/2026/07/09/will-the-jcpoa-lead-to-a-saudi-nuclear-weapon-too/"}, {"name": "University Of Maine At Farmington, Maine, United States", "cc": "US", "lat": 44.671, "lon": -70.146, "n": 1, "art": 2, "url": "https://www.theepochtimes.com/us/these-democrats-could-replace-graham-platner-6059565"}, {"name": "Valentin Gomez Farias, Durango, Mexico", "cc": "MX", "lat": 23.533, "lon": -104.133, "n": 1, "art": 20, "url": "https://www.critica.com.mx/vernoticias.php?artid=117648&mas=1"}, {"name": "Jose Maria Morelos, Tabasco, Mexico", "cc": "MX", "lat": 18.108, "lon": -93.942, "n": 1, "art": 20, "url": "https://www.critica.com.mx/vernoticias.php?artid=117648&mas=1"}, {"name": "Chilkat, Alaska, United States", "cc": "US", "lat": 59.4, "lon": -135.896, "n": 1, "art": 5, "url": "https://khns.org/klukwan-could-get-1-2-million-from-fema-for-landslide-project/"}, {"name": "Phoenix, Arizona, United States", "cc": "US", "lat": 33.448, "lon": -112.074, "n": 1, "art": 10, "url": "https://screenrant.com/harry-potter-movies-most-powerful-hogwarts-professors/"}, {"name": "Wyoming, United States", "cc": "US", "lat": 42.748, "lon": -107.209, "n": 2, "art": 6, "url": "https://www.wyomingpublicmedia.org/tribal-news/2026-07-09/mmip-film-she-cried-that-day-will-play-at-wy-international-film-festival"}, {"name": "Riverton, Wyoming, United States", "cc": "US", "lat": 43.025, "lon": -108.38, "n": 1, "art": 4, "url": "https://www.wyomingpublicmedia.org/tribal-news/2026-07-09/mmip-film-she-cried-that-day-will-play-at-wy-international-film-festival"}]