[{"name": "Matanzas, Matanzas, Cuba", "cc": "CU", "lat": 23.041, "lon": -81.578, "n": 1, "art": 5, "url": "https://www.cubaheadlines.com/articles/335409"}, {"name": "Colombia", "cc": "CO", "lat": 4.0, "lon": -72.0, "n": 4, "art": 32, "url": "https://www.clarin.com/estados-unidos/escalada-fuerza-ofensiva-migratoria-trump-informe-expone-cientos-abusos-muertes-obligaron-ice-cambiar-estrategia_0_GNkMfTy1zY.html"}, {"name": "Minnesota, United States", "cc": "US", "lat": 45.733, "lon": -93.92, "n": 5, "art": 20, "url": "https://www.yahoo.com/news/weather-news/articles/poor-air-quality-expected-continue-001639296.html"}, {"name": "Sacramento, California, United States", "cc": "US", "lat": 38.582, "lon": -121.494, "n": 1, "art": 6, "url": "https://localnewsmatters.org/2026/07/15/kaiser-nurses-say-ai-workplace-surveillance-are-making-their-jobs-and-patient-care-worse/"}, {"name": "California, United States", "cc": "US", "lat": 36.17, "lon": -119.746, "n": 7, "art": 22, "url": "https://www.ideal.es/opinion/jeronimo-paez-revuelta-nuevos-proletarios-mundo-20260719225201-nt.html"}, {"name": "San Francisco, California, United States", "cc": "US", "lat": 37.775, "lon": -122.419, "n": 4, "art": 8, "url": "https://www.mercurynews.com/2026/07/18/ucsf-shifts-specialized-childrens-care-between-oakland-and-san-francisco-raising-travel-concerns/"}, {"name": "United States", "cc": "US", "lat": 39.828, "lon": -98.579, "n": 13, "art": 63, "url": "https://www.santacruzsentinel.com/2026/07/18/photo-aptos-takes-to-the-streets-as-part-of-good-trouble-lives-on-rally/"}, {"name": "White House, District of Columbia, United States", "cc": "US", "lat": 38.895, "lon": -77.036, "n": 3, "art": 6, "url": "https://www.propublica.org/article/human-rights-aid-right-wing-causes"}, {"name": "Florida, United States", "cc": "US", "lat": 27.833, "lon": -81.717, "n": 3, "art": 8, "url": "https://www.newsweek.com/testosterone-screening-is-preventive-medicine-for-the-us-military-opinion-12213625"}, {"name": "Brazil", "cc": "BR", "lat": -10.0, "lon": -55.0, "n": 3, "art": 30, "url": "https://www.contabeis.com.br/artigos/78161/creditos-tributarios-empresas-perdem-milhoes-sem-revisao/"}, {"name": "Sweden", "cc": "SW", "lat": 62.0, "lon": 15.0, "n": 6, "art": 44, "url": "https://www.extra.ec/noticia/ecuador/guayaquil-familiares-reos-reunieron-dia-derechos-privados-libertad-158565.html"}, {"name": "Venezuela", "cc": "VE", "lat": 8.0, "lon": -66.0, "n": 4, "art": 30, "url": "https://rnv.gob.ve/ministerio-penitenciario-realiza-jornada-nacional-de-fe-en-centros-de-reclusion/"}, {"name": "Clark County, Nevada, United States", "cc": "US", "lat": 36.0, "lon": -114.876, "n": 1, "art": 8, "url": "https://news3lv.com/news/local/protest-vigil-planned-outside-clark-county-detention-center"}, {"name": "South Africa", "cc": "SF", "lat": -30.0, "lon": 26.0, "n": 2, "art": 16, "url": "https://www.in.gr/2026/07/18/stories/o-nelson-mantela-os-kathreftis-oxi-messias-o-zoran-mamntani-gia-tin-anthropini-parakatathiki-tou-mantimpa/"}, {"name": "Bahrain", "cc": "BA", "lat": 26.0, "lon": 50.5, "n": 3, "art": 16, "url": "https://www.annaharkw.com/annahar/Article.aspx?id=1049868"}, {"name": "Delhi, Delhi, India", "cc": "IN", "lat": 28.667, "lon": 77.217, "n": 186, "art": 765, "url": "https://www.deccanchronicle.com/nation/pawar-says-wangchuks-hospitalisation-wont-end-agitation-1972119"}, {"name": "San Isidro, Sancti Sp\u00edtus, Cuba", "cc": "CU", "lat": 21.9, "lon": -79.433, "n": 12, "art": 28, "url": "https://www.straitstimes.com/world/cuban-dissident-artist-arrives-in-us-after-five-years-in-prison-rubio-says"}, {"name": "Brooklyn, New York, United States", "cc": "US", "lat": 42.344, "lon": -75.17, "n": 3, "art": 7, "url": "https://www.nydailynews.com/2026/07/17/truck-driver-fatally-collided-off-duty-cop-sentenced-prison/"}, {"name": "Kyiv, Kyyiv, Misto, Ukraine", "cc": "UP", "lat": 50.433, "lon": 30.517, "n": 33, "art": 161, "url": "https://www.straitstimes.com/world/europe/zelensky-mulls-army-changes-as-protests-over-defence-ministers-removal-rock-ukraine-for-a-third-day"}, {"name": "Germany", "cc": "GM", "lat": 51.5, "lon": 10.5, "n": 1, "art": 2, "url": "https://www.propublica.org/article/human-rights-aid-right-wing-causes"}, {"name": "Laerdal, Sogn og Fjordane, Norway", "cc": "NO", "lat": 61.05, "lon": 7.517, "n": 2, "art": 10, "url": "https://www.vg.no/nyheter/i/d4MKKz/brannen-i-krokstadelva-ekspert-peker-paa-fire-aarsaker"}, {"name": "Kiev, Ukraine (general), Ukraine", "cc": "UP", "lat": 50.433, "lon": 30.517, "n": 35, "art": 233, "url": "https://novosti.ua/politics/zelenskiy-obsudil-s-fedorovym-i-syrskim-voprosy-razvitiya-armii"}, {"name": "Salt Lake, Utah, United States", "cc": "US", "lat": 39.156, "lon": -112.691, "n": 1, "art": 3, "url": "https://www.ksl.com:443/article/51599148/31m-rail-project-improves-salt-lakes-west-side-traffic"}, {"name": "Utah, United States", "cc": "US", "lat": 40.114, "lon": -111.854, "n": 1, "art": 2, "url": "https://www.ksl.com:443/article/51599148/31m-rail-project-improves-salt-lakes-west-side-traffic"}, {"name": "Pylos, Perifereia Peloponnisou, Greece", "cc": "GR", "lat": 36.91, "lon": 21.699, "n": 1, "art": 4, "url": "https://www.historyextra.com/period/ancient-greece/penelope-real-history-odyssey-anne-hathway/"}, {"name": "Jerusalem, Israel (general), Israel", "cc": "IS", "lat": 31.767, "lon": 35.233, "n": 5, "art": 38, "url": "https://www.newsru.co.il/israel/18jul2026/mehaa_702.html"}, {"name": "Jakarta, Jakarta Raya, Indonesia", "cc": "ID", "lat": -6.174, "lon": 106.829, "n": 2, "art": 16, "url": "https://www.liputan6.com/regional/read/8249155/disdik-jelaskan-alasan-siswa-dekat-sekolah-bisa-gagal-lolos-spmb"}, {"name": "Ukraine", "cc": "UP", "lat": 49.0, "lon": 32.0, "n": 19, "art": 117, "url": "https://news.mail.ru/svo/71682081/"}, {"name": "Alaska, United States", "cc": "US", "lat": 61.385, "lon": -152.268, "n": 2, "art": 7, "url": "https://www.kyuk.org/alaska-state-news/2026-07-17/matt-schultz-suspends-his-campaign-for-u-s-house-endorses-bill-hill"}, {"name": "Memphis, Tennessee, United States", "cc": "US", "lat": 35.15, "lon": -90.049, "n": 1, "art": 10, "url": "https://www.independent.co.uk/news/world/americas/memphis-restaurant-national-guard-task-force-b3017185.html"}, {"name": "New Delhi, Delhi, India", "cc": "IN", "lat": 28.6, "lon": 77.2, "n": 62, "art": 254, "url": "https://www.ummid.com/news/2026/7/19/in-pictures-38-mohammad-ali-jauhar-university-buildings-facing-demolition.html"}, {"name": "India", "cc": "IN", "lat": 20.0, "lon": 77.0, "n": 7, "art": 43, "url": "https://www.outlookindia.com/national/sonam-wangchuk-continues-hunger-strike-in-hospital-hasnt-eaten-or-drunk-anything-personal-doctors"}, {"name": "Colorado, United States", "cc": "US", "lat": 39.065, "lon": -105.327, "n": 3, "art": 14, "url": "https://www.summitdaily.com/news/colorado-right-hunt-fish-ballot/"}, {"name": "New Jersey, United States", "cc": "US", "lat": 40.314, "lon": -74.509, "n": 2, "art": 5, "url": "https://www.newsday.com/news/nation/ice-protest-shooting-colorado-detention-q17112"}, {"name": "Pakistan", "cc": "PK", "lat": 30.0, "lon": 70.0, "n": 4, "art": 25, "url": "https://www.tribuneindia.com/live-blog/delhi/sonam-wangchuk-hospitalised-live-dipke-begins-hunger-strike-wife-says-no-treatment-without-consent/"}, {"name": "Anchorage, Alaska, United States", "cc": "US", "lat": 61.218, "lon": -149.9, "n": 1, "art": 1, "url": "https://www.kyuk.org/alaska-state-news/2026-07-17/matt-schultz-suspends-his-campaign-for-u-s-house-endorses-bill-hill"}, {"name": "Nevada, United States", "cc": "US", "lat": 38.42, "lon": -117.122, "n": 1, "art": 10, "url": "https://www.fox5vegas.com/2026/07/17/semi-rollover-closes-southbound-i-11-on-ramp-boulder-highway-henderson/"}, {"name": "San Miguel Del Padron, Ciudad de La Habana, Cuba", "cc": "CU", "lat": 23.066, "lon": -82.295, "n": 1, "art": 10, "url": "https://www.ansa.it/sito/notizie/topnews/2026/07/18/cuba-nuove-proteste-a-lavana-contro-i-blackout-e-la-crisi-energetica_0bfac2d3-332d-4e01-b2fa-4ee7d1da020c.html"}, {"name": "Mumbai, Maharashtra, India", "cc": "IN", "lat": 18.975, "lon": 72.826, "n": 16, "art": 61, "url": "https://aninews.in/news/national/politics/is-this-hindu-rashtra-you-envisioned-uddhav-thackeray-slams-bjp-over-ram-mandir-donation-row20260718214741/"}, {"name": "Caracas, Distrito Federal, Venezuela", "cc": "VE", "lat": 10.5, "lon": -66.917, "n": 3, "art": 12, "url": "https://avn.info.ve/ministerio-penitenciario-realiza-jornada-nacional-de-fe-en-centros-de-reclusion/"}, {"name": "Argentina", "cc": "AR", "lat": -34.0, "lon": -64.0, "n": 6, "art": 42, "url": "https://www.rosario3.com/informaciongeneral/reino-unido-rechazo-las-quejas-de-argentina-por-el-buque-que-navego-aguas-continentales-20260718-0014.html"}, {"name": "Rio De Janeiro, Estado do Rio, Brazil", "cc": "BR", "lat": -22.9, "lon": -43.233, "n": 1, "art": 10, "url": "https://odia.ig.com.br/rio-de-janeiro/2026/07/7278928-justica-nega-recurso-de-jairinho-e-mantem-validade-do-juri-do-caso-henry.html"}, {"name": "Havana, Ciudad de La Habana, Cuba", "cc": "CU", "lat": 23.132, "lon": -82.364, "n": 9, "art": 47, "url": "https://www.dw.com/en/cuban-dissident-artist-arrives-in-us-after-5-years-in-prison/a-78021940"}, {"name": "City Of Milford, Ohio, United States", "cc": "US", "lat": 39.17, "lon": -84.281, "n": 1, "art": 10, "url": "https://www.wcpo.com/news/local-news/cons-outweigh-the-pros-milford-residents-gather-to-protest-flock-cameras-in-their-city"}, {"name": "Beijing, Beijing, China", "cc": "CH", "lat": 39.929, "lon": 116.388, "n": 5, "art": 15, "url": "https://www.riotimesonline.com/lima-50-best-gala-mexico-peru-china-exhibitions-2026/"}, {"name": "Manila, Manila, Philippines", "cc": "RP", "lat": 14.604, "lon": 120.982, "n": 1, "art": 3, "url": "https://www.theepochtimes.com/world/manila-condemns-china-dailys-demeaning-dehumanizing-portrayal-of-filipinos-6063851"}, {"name": "Kentucky, United States", "cc": "US", "lat": 37.669, "lon": -84.651, "n": 7, "art": 9, "url": "https://bgdailynews.com/2026/07/18/slide-show-cave-city-residents-march-in-protest-to-proposed-data-center/"}, {"name": "Biddeford, Maine, United States", "cc": "US", "lat": 43.493, "lon": -70.453, "n": 7, "art": 21, "url": "https://www.centralmaine.com/2026/07/18/ice-protesters-gather-in-downtown-portland/"}, {"name": "Kenitra, Gharb-Chrarda-Beni Hssen, Morocco", "cc": "MO", "lat": 34.261, "lon": -6.58, "n": 1, "art": 4, "url": "http://lecourrier-dalgerie.com/les-journalistes-algeriens-adressent-une-petition-a-lonu-il-faut-sauver-naama-asfari/"}, {"name": "Algeria", "cc": "AG", "lat": 28.0, "lon": 3.0, "n": 1, "art": 6, "url": "http://lecourrier-dalgerie.com/les-journalistes-algeriens-adressent-une-petition-a-lonu-il-faut-sauver-naama-asfari/"}, {"name": "Mexico", "cc": "MX", "lat": 23.0, "lon": -102.0, "n": 7, "art": 75, "url": "https://www.fox4news.com/news/taylor-farms-recall-states-where-lettuce-pulled-over-cyclospora-fears"}, {"name": "Odessa, Odes'ka Oblast, Ukraine", "cc": "UP", "lat": 46.464, "lon": 30.739, "n": 6, "art": 48, "url": "https://lenta.ru/news/2026/07/19/long-fedorov/"}, {"name": "Manipur, Uttar Pradesh, India", "cc": "IN", "lat": 27.053, "lon": 79.358, "n": 5, "art": 27, "url": "https://www.theweek.in/news/india/2026/07/18/delhi-police-protest-management-sonam-wangchuk.html"}, {"name": "Shiv, Rajasthan, India", "cc": "IN", "lat": 26.183, "lon": 71.25, "n": 17, "art": 70, "url": "https://www.dailyexcelsior.com/friends-to-foes-controversial-bills-agitation-at-its-door-parliament-braces-for-stormy-monsoon-session/"}, {"name": "Canada", "cc": "CA", "lat": 60.0, "lon": -96.0, "n": 2, "art": 13, "url": "https://www.cbc.ca/news/canada/nova-scotia/more-than-60-ns-emergency-medical-dispatchers-on-strike-9.7275172"}, {"name": "Crimea, Krym, Avtonomna Respublika, Ukraine", "cc": "UP", "lat": 45.0, "lon": 34.0, "n": 1, "art": 10, "url": "https://eldeber.com.bo/bbc/por-que-miles-de-personas-salieron-a-protestar-en-ucrania-tras-la-destitucion-del-ministro-de-defensa-2026716235953"}, {"name": "Hindustan, India (general), India", "cc": "IN", "lat": 28.0, "lon": 76.0, "n": 6, "art": 14, "url": "https://www.livehindustan.com/national/two-youths-detained-in-guwahati-for-painting-a-portrait-of-sonam-wangchuk-on-public-wall-201784366137314.html"}, {"name": "New York, United States", "cc": "US", "lat": 42.15, "lon": -74.938, "n": 7, "art": 19, "url": "https://news.webindia123.com/news/Articles/World/20260718/4476343.html"}, {"name": "Wisconsin, United States", "cc": "US", "lat": 44.256, "lon": -89.638, "n": 3, "art": 13, "url": "https://fox11online.com/news/state/david-crowley-relaunches-campaign-at-rallies-in-milwaukee-and-de-pere"}, {"name": "Tuggeranong, Australian Capital Territory, Australia", "cc": "AS", "lat": -35.433, "lon": 149.15, "n": 2, "art": 10, "url": "https://www.batemansbaypost.com.au/story/9312980/conder-man-charged-as-act-policing-seize-drugs-and-assets/"}, {"name": "Odesa, Odes'ka Oblast, Ukraine", "cc": "UP", "lat": 46.464, "lon": 30.739, "n": 4, "art": 10, "url": "https://naharnet.com/stories/en/321312-russian-strikes-kill-4-in-ukraine-as-zelensky-s-defense-shake-up-sparks-anger"}, {"name": "Kremlin, Moskva, Russia", "cc": "RS", "lat": 55.752, "lon": 37.616, "n": 2, "art": 10, "url": "https://www.independent.co.uk/news/world/europe/ukraine-russia-war-live-putin-zelensky-wildberries-b3017336.html"}, {"name": "Dubai, Dubayy, United Arab Emirates", "cc": "AE", "lat": 25.252, "lon": 55.28, "n": 1, "art": 4, "url": "https://navbharattimes.indiatimes.com/entertainment/news-from-bollywood/swara-bhasker-reveals-why-bollywood-celebrities-mum-over-cjp-protest-and-sonam-wangchuk-hunger-strike/articleshow/132472378.cms"}, {"name": "Bihar, Bihar, India", "cc": "IN", "lat": 25.183, "lon": 85.517, "n": 2, "art": 6, "url": "https://www.bhaskar.com/g/national/news/jantar-mantar-protest-sonam-wangchuk-fast-cjp-founder-abhijeet-dipke-138469940.html"}, {"name": "Cuba", "cc": "CU", "lat": 22.0, "lon": -79.5, "n": 4, "art": 36, "url": "https://www.rtve.es/noticias/20260719/activista-cubano-luis-manuel-otero-llega-miami-tras-ser-excarcelado-lograr-permiso-humanitario-eeuu/17161544.shtml"}, {"name": "Ladakh, Jammu and Kashmir, India", "cc": "IN", "lat": 34.5, "lon": 77.5, "n": 22, "art": 91, "url": "https://aninews.in/news/national/general-news/sonam-wangchuks-wife-pushes-for-immediate-hospital-discharge-demands-report-of-potassium-deficiency20260718222648/"}, {"name": "Benton County Fire District, Washington, United States", "cc": "US", "lat": 46.059, "lon": -119.559, "n": 1, "art": 10, "url": "https://www.applevalleynewsnow.com/news/benton-county-fire-district-4-opens-applications-for-intern-firefighter-program/article_cbb4d6dc-d2e9-49f5-997f-c7dc9a576ccc.html"}, {"name": "Gaza City, Israel (general), Israel", "cc": "IS", "lat": 31.417, "lon": 34.333, "n": 1, "art": 5, "url": "https://wrp.org.uk/news/release-dr-hussam-abu-safiya-now/"}, {"name": "Gaza, Israel (general), Israel", "cc": "IS", "lat": 31.417, "lon": 34.333, "n": 14, "art": 58, "url": "https://en.shafaqna.com/464651/london-protesters-call-on-new-pm-to-stop-genocide-in-gaza/"}, {"name": "Ebonyi State, Ebonyi, Nigeria", "cc": "NI", "lat": 6.25, "lon": 8.083, "n": 1, "art": 4, "url": "https://www.vanguardngr.com/2026/07/umahi-how-mary-not-habila-destroyed-a-powerful-senator-by-emmanuel-aziken/"}, {"name": "Hormozgan, Hormozgan, Iran", "cc": "IR", "lat": 27.75, "lon": 56.5, "n": 1, "art": 8, "url": "https://fakti.bg/world/1068408-irgc-blokira-petrolni-tankeri-v-ormuzkia-proliv-centcom-otvarna-s-udari-v-hormozgan"}, {"name": "Washington, District of Columbia, United States", "cc": "US", "lat": 38.895, "lon": -77.036, "n": 14, "art": 60, "url": "https://www.straitstimes.com/world/cuban-dissident-artist-arrives-in-us-after-five-years-in-prison-rubio-says"}, {"name": "Taipei, T'ai-pei, Taiwan", "cc": "TW", "lat": 25.048, "lon": 121.532, "n": 6, "art": 44, "url": "https://thediplomat.com/2026/07/is-taiwan-pinning-its-strategy-on-an-outdated-vision-of-america/"}, {"name": "Berlin, Berlin, Germany", "cc": "GM", "lat": 52.517, "lon": 13.4, "n": 1, "art": 10, "url": "https://www.elperiodico.com/es/ocio-y-cultura/libros/20260718/antonio-scurati-ultimo-libro-mussolini-132402247"}, {"name": "Russia", "cc": "RS", "lat": 60.0, "lon": 100.0, "n": 16, "art": 76, "url": "https://inosmi.ru/20260718/ukraina-279341811.html"}, {"name": "Delhi Safdarjung, Delhi, India", "cc": "IN", "lat": 28.583, "lon": 77.183, "n": 10, "art": 31, "url": "https://www.newsx.com/india/sonam-wangchuk-wife-says-no-treatment-without-consent-raises-medical-concerns-after-hospitalisation-will-it-end-the-protest-249785/"}, {"name": "El Salvador", "cc": "ES", "lat": 13.833, "lon": -88.917, "n": 1, "art": 1, "url": "https://screenrant.com/netflix-legal-drama-losing-judgment-weekend-binge/"}, {"name": "France", "cc": "FR", "lat": 46.0, "lon": 2.0, "n": 9, "art": 67, "url": "https://www.gorby.ru/gorbachev/chronicle/sentyabr-1985"}, {"name": "Spain", "cc": "SP", "lat": 40.0, "lon": -4.0, "n": 5, "art": 41, "url": "https://www.murcia.com/lorca/noticias/2026/07/18-seguridad-ciudadana.asp"}, {"name": "La Linea, Andaluc\u00edSP, Spain", "cc": "SP", "lat": 36.168, "lon": -5.347, "n": 1, "art": 8, "url": "https://www.europasur.es/lalinea/aquellos-dias-julio-1936_0_2007469425.html"}, {"name": "Lebanon", "cc": "LE", "lat": 33.833, "lon": 35.833, "n": 6, "art": 38, "url": "https://english.aawsat.com/arab-world/5297430-hezbollah-cuts-ties-lebanons-presidency-while-sparing-army"}, {"name": "Hollywood, California, United States", "cc": "US", "lat": 34.098, "lon": -118.327, "n": 3, "art": 15, "url": "https://screenrant.com/naruto-live-action-movie-steps-away-masterpiece/"}, {"name": "Vienna, Wien, Austria", "cc": "AU", "lat": 48.2, "lon": 16.367, "n": 2, "art": 6, "url": "https://www.eng.kavkaz-uzel.eu/articles/77017"}, {"name": "Mahatma, Rajasthan, India", "cc": "IN", "lat": 28.629, "lon": 75.071, "n": 6, "art": 26, "url": "https://www.bhaskar.com/bhaskar-khaas/bhaskar-explainer/news/sonam-wangchuk-hunger-strike-health-impacts-ketosis-energy-starvation-force-feeding-138473912.html"}, {"name": "Turkey", "cc": "TU", "lat": 39.059, "lon": 34.912, "n": 2, "art": 6, "url": "https://www.bbc.com/urdu/articles/c330ngxn6zro"}, {"name": "United Kingdom", "cc": "UK", "lat": 54.0, "lon": -4.0, "n": 11, "art": 59, "url": "https://aninews.in/news/national/politics/is-this-hindu-rashtra-you-envisioned-uddhav-thackeray-slams-bjp-over-ram-mandir-donation-row20260718214741/"}, {"name": "North Dakota, United States", "cc": "US", "lat": 47.536, "lon": -99.793, "n": 1, "art": 5, "url": "https://www.kfyrtv.com/2026/07/18/road-closures-minot-saturday-north-dakota-state-parade/"}, {"name": "Calabazar, Granma, Cuba", "cc": "CU", "lat": 20.283, "lon": -76.467, "n": 2, "art": 10, "url": "https://www.cubaheadlines.com/articles/335431"}, {"name": "Beirut, Beyrouth, Lebanon", "cc": "LE", "lat": 33.872, "lon": 35.51, "n": 1, "art": 2, "url": "https://www.middleeasteye.net/live-blog/live-blog-update/lebanese-education-minister-says-israel-destroys-three-more-schools"}, {"name": "Israel", "cc": "IS", "lat": 31.5, "lon": 34.75, "n": 14, "art": 92, "url": "https://www.ansa.it/piemonte/notizie/2026/07/18/protesta-contro-israeliani-in-valsesia-non-vogliamo-diventare-come-gaza_9da14d53-7cd3-466d-a2b0-137c8ba42ae3.html"}, {"name": "Khalra, Punjab, India", "cc": "IN", "lat": 31.395, "lon": 74.617, "n": 2, "art": 10, "url": "https://indianexpress.com/article/live-news/daily-briefing-top-news-today-10792003/"}, {"name": "Italy", "cc": "IT", "lat": 42.833, "lon": 12.833, "n": 14, "art": 88, "url": "https://www.ntacalabria.it/area-grecanica/melito-di-porto-salvo-maturita-16-centisti-e-3-lodi.html"}, {"name": "Tarapur, Maharashtra, India", "cc": "IN", "lat": 19.85, "lon": 72.7, "n": 2, "art": 2, "url": "https://www.abc.net.au/news/2026-07-18/india-nuclear-power-ambitions-tarapur-plant/106926796"}, {"name": "Ramana, Punjab, Pakistan", "cc": "PK", "lat": 31.442, "lon": 72.39, "n": 2, "art": 8, "url": "https://www.abc.net.au/news/2026-07-18/india-nuclear-power-ambitions-tarapur-plant/106926796"}, {"name": "Australia", "cc": "AS", "lat": -25.0, "lon": 135.0, "n": 4, "art": 32, "url": "https://www.newcastleherald.com.au/story/9313045/indian-activist-on-hunger-strike-shifted-to-hospital/"}, {"name": "Berridale, New South Wales, Australia", "cc": "AS", "lat": -36.366, "lon": 148.827, "n": 1, "art": 10, "url": "https://www.bendigoadvertiser.com.au/story/9312979/michael-and-jenny-sweeney-win-top-fleece-after-35-years/"}, {"name": "Ottawa, Ontario, Canada", "cc": "CA", "lat": 45.417, "lon": -75.7, "n": 2, "art": 12, "url": "https://www.winnipegfreepress.com/arts-and-life/life/health/2026/07/18/opposition-brewing-as-data-centre-capacity-is-set-to-explode-across-canada"}, {"name": "Sonam, Uttaranchal, India", "cc": "IN", "lat": 31.233, "lon": 79.117, "n": 12, "art": 74, "url": "https://jang.com.pk/news/1600173"}, {"name": "Orissa, Orissa, India", "cc": "IN", "lat": 20.5, "lon": 84.417, "n": 6, "art": 31, "url": "https://www.orissapost.com/police-shift-wangchuk-to-hospital-dipke-launches-hunger-strike-oppn-hits-out/"}, {"name": "Moscow, Moskva, Russia", "cc": "RS", "lat": 55.752, "lon": 37.616, "n": 12, "art": 67, "url": "https://www.worthynews.com/116067-ukraine-protesters-demand-army-chiefs-ouster-as-russian-strikes-kill-civilians"}, {"name": "Lagos, Lagos, Nigeria", "cc": "NI", "lat": 6.453, "lon": 3.396, "n": 2, "art": 10, "url": "https://www.vanguardngr.com/2026/07/how-aboyeji-built-2b-companies-from-lagos/"}, {"name": "Donbass, Ukraine (general), Ukraine", "cc": "UP", "lat": 48.5, "lon": 38.5, "n": 1, "art": 10, "url": "https://it.insideover.com/politica/ucraina-perche-zelensky-ha-scelto-il-vecchio-generale-syrsky-e-silurato-il-giovane-ministro-fedorov.html"}, {"name": "Heidelberg, Baden-W\u00fcberg, Germany", "cc": "GM", "lat": 48.317, "lon": 8.917, "n": 1, "art": 4, "url": "https://www.news.de/politik/859715628/demos-gegen-rechtsextremismus-gegen-afd-heute-samstag-18-juli-2026-demonstrationen-achern-jork-muenchen-mainz-stuttgart-koeln-bamberg/1/"}, {"name": "Saxony, Sachsen, Germany", "cc": "GM", "lat": 51.0, "lon": 13.0, "n": 1, "art": 6, "url": "https://www.news.de/politik/859715628/demos-gegen-rechtsextremismus-gegen-afd-heute-samstag-18-juli-2026-demonstrationen-achern-jork-muenchen-mainz-stuttgart-koeln-bamberg/1/"}, {"name": "Athens, Attik\u00edR, Greece", "cc": "GR", "lat": 37.983, "lon": 23.733, "n": 4, "art": 38, "url": "https://www.emporda.info/catalunya/2026/07/18/carme-noguera-guerra-civil-joan-escude-guerra-civil-espanyola-nuria-bosch-132584759.html"}, {"name": "Dharma, India (general), India", "cc": "IN", "lat": 14.85, "lon": 75.267, "n": 1, "art": 6, "url": "https://www.sahilonline.net/i-will-stay-alive-till-july-20-at-any-cost-wangchuk-as-fast-enters-day-20"}, {"name": "Odisha, Orissa, India", "cc": "IN", "lat": 20.5, "lon": 84.417, "n": 7, "art": 26, "url": "https://www.orissapost.com/governments-core-is-asatya-hinsa-rahul-gandhi-on-wangchuks-removal/"}, {"name": "Pennsylvania, United States", "cc": "US", "lat": 40.577, "lon": -77.264, "n": 1, "art": 10, "url": "https://bitacora.com.uy/memphis-se-manifiesta-a-patrocinio-de-los-democratas-progresistas-a-posteriori-de-cuatro-tiroteos-fatales-por-parte-de-un-camarilla-de-trabajo-la-lucha-de-nuestras-vidas/"}, {"name": "Heilongjiang, Heilongjiang, China", "cc": "CH", "lat": 48.0, "lon": 128.0, "n": 2, "art": 15, "url": "https://www.chiangraitimes.com/china/the-silent-uprising-in-china/"}, {"name": "Aleppo, ?alab, Syria", "cc": "SY", "lat": 36.203, "lon": 37.159, "n": 1, "art": 4, "url": "https://www.diariovasco.com/gipuzkoa/retraso-devolucion-fianzas-alquileres-euskadi-obliga-vivienda-20260718162115-nt.html"}, {"name": "Volgograd, Volgogradskaya Oblast', Russia", "cc": "RS", "lat": 48.805, "lon": 44.586, "n": 2, "art": 18, "url": "https://www.dialog.ua/russia/v-rf-nachalis-pervye-protesty-iz-za-benzinovogo-kollapsa-uchastnikov.html"}, {"name": "Brussels, Bruxelles-Capitale, Belgium", "cc": "BE", "lat": 50.833, "lon": 4.333, "n": 1, "art": 20, "url": "https://www.rtl.be/actu/belgique/politique/ce-gouvernement-tiendra-son-engagement-revalorisation-salariale-en-vue-pour-les/2026-07-18/article/794968"}, {"name": "Veneto, Veneto, Italy", "cc": "IT", "lat": 45.699, "lon": 12.226, "n": 1, "art": 10, "url": "https://www.politicainsieme.com/questione-settentrionale-e-pnrr-di-francesco-vassallo-e-antonio-troisi/"}, {"name": "Baramati, Maharashtra, India", "cc": "IN", "lat": 18.15, "lon": 74.583, "n": 2, "art": 8, "url": "https://www.mangalorean.com/sharad-pawar-attacks-centre-over-wangchuk-arrest-vows-parliament-showdown/"}, {"name": "Pune, Maharashtra, India", "cc": "IN", "lat": 18.533, "lon": 73.867, "n": 1, "art": 2, "url": "https://economictimes.indiatimes.com/news/politics-and-nation/sharad-pawar-slams-centre-over-irresponsible-handling-of-wangchuks-hunger-strike/articleshow/132474011.cms"}, {"name": "London, London, City of, United Kingdom", "cc": "UK", "lat": 51.5, "lon": -0.117, "n": 14, "art": 79, "url": "https://www.independent.co.uk/news/uk/politics/andy-burnham-labour-ed-miliband-foreign-office-pm-b3017445.html"}, {"name": "Perth, Western Australia, Australia", "cc": "AS", "lat": -31.933, "lon": 115.833, "n": 1, "art": 5, "url": "https://prwire.com.au/pr/129776/recognised-for-his-contribution-to-western-australia-s-medical-technology-ecosystem-and-world-leading-advances-in-cardiac-diagnostics-professor-girish-dwivedi-awarded-2026-wa-pearcey-entrepreneur-of-the-year"}, {"name": "Genoa, Liguria, Italy", "cc": "IT", "lat": 44.417, "lon": 8.95, "n": 1, "art": 10, "url": "https://www.internazionale.it/magazine/rory-carroll/2001/08/02/la-cronaca-dell-odio-3"}, {"name": "Albania", "cc": "AL", "lat": 41.0, "lon": 20.0, "n": 6, "art": 70, "url": "https://www.botasot.info/shqiperia/2508018/neser-me-shume-perfundon-protesta-e-49-kunder-kryeministrit-qytetaret-kerkojne-doreheqjen-e-panegociueshme-te-rames/"}, {"name": "Cracow, Malopolskie, Poland", "cc": "PL", "lat": 50.083, "lon": 19.917, "n": 1, "art": 2, "url": "https://wiadomosci.wp.pl/zelenski-pozbywa-sie-kontrkandydatow-eksperci-wskazuja-powod-zmian-7308492103168577v"}, {"name": "Melbourne, Victoria, Australia", "cc": "AS", "lat": -37.817, "lon": 144.967, "n": 2, "art": 20, "url": "https://slguardian.org/diaspora-groups-rally-against-chinas-ethnic-unity-law-warning-of-global-impact-on-minority-communities/"}, {"name": "Madhya Pradesh, Madhya Pradesh, India", "cc": "IN", "lat": 23.5, "lon": 78.5, "n": 3, "art": 10, "url": "https://www.epw.in:443/journal/2026/29/editorials/careers-derailed-cartels-bailed.html"}, {"name": "Iran", "cc": "IR", "lat": 32.0, "lon": 53.0, "n": 6, "art": 28, "url": "https://www.annaharkw.com/annahar/Article.aspx?id=1049868"}, {"name": "Incheon, Inch'on-gwangyoksi, South Korea", "cc": "KS", "lat": 37.454, "lon": 126.732, "n": 2, "art": 20, "url": "https://english.hani.co.kr/arti/english_edition/e_national/212769.html"}, {"name": "Karabok, Nyanza, Kenya", "cc": "KE", "lat": -0.483, "lon": 34.7, "n": 1, "art": 2, "url": "https://www.durangoherald.com/articles/associated-press/women-are-dying-in-africa-as-us-ramps-up-its-global-battle-against-abortion/"}, {"name": "Maine, United States", "cc": "US", "lat": 44.607, "lon": -69.398, "n": 13, "art": 37, "url": "https://krcrtv.com/news/local/chico-residents-protest-and-weigh-in-on-recent-ice-shootings-in-united-states"}, {"name": "Ayotzinapa, Guerrero, Mexico", "cc": "MX", "lat": 17.55, "lon": -98.75, "n": 1, "art": 10, "url": "https://www.elimparcial.com/mexico/2026/07/18/marx-arriaga-asegura-que-lleva-seis-meses-sin-recibir-su-liquidacion-de-la-sep-y-anuncia-que-rematara-su-casa-en-ciudad-juarez-para-evitar-que-los-intereses-bancarios-sigan-afectando-su-patrimonio/"}, {"name": "Saint Marina, Perifereia Notiou Aigaiou, Greece", "cc": "GR", "lat": 35.4, "lon": 26.917, "n": 2, "art": 8, "url": "https://www.imerazante.gr/2026/07/18/398370"}, {"name": "Poland", "cc": "PL", "lat": 52.0, "lon": 20.0, "n": 4, "art": 35, "url": "https://niezalezna.pl/polityka/poslanka-psl-walczyla-o-zwiazki-partnerskie-ale-glosowala-przeciw-obrazila-sie-na-prezydenta/575216"}, {"name": "Nagpur, Maharashtra, India", "cc": "IN", "lat": 21.15, "lon": 79.1, "n": 6, "art": 32, "url": "https://www.rediff.com/news/report/happened-so-fast-protesters-recall-how-wangchuk-was-whisked-away/20260718.htm"}, {"name": "Oklahoma, United States", "cc": "US", "lat": 35.538, "lon": -96.925, "n": 1, "art": 4, "url": "https://www.newsandsentinel.com/news/local-news/2026/07/mov-film-helps-bring-appalachian-horror-project-something-beckons-to-life/"}, {"name": "Armenia", "cc": "AM", "lat": 40.0, "lon": 45.0, "n": 1, "art": 10, "url": "https://lurer.com/article/742483/am"}, {"name": "Vermont, United States", "cc": "US", "lat": 44.041, "lon": -72.709, "n": 8, "art": 24, "url": "https://www.siasat.com/gang-promised-jobs-abroad-paid-indians-200-usd-for-murders-3508612/"}, {"name": "Tampa, Florida, United States", "cc": "US", "lat": 27.948, "lon": -82.458, "n": 2, "art": 8, "url": "https://www.newsweek.com/testosterone-screening-is-preventive-medicine-for-the-us-military-opinion-12213625"}, {"name": "Switzerland", "cc": "SZ", "lat": 47.0, "lon": 8.0, "n": 4, "art": 22, "url": "https://rg.ru/2026/07/18/reg-cfo/shale-v-shokolade-v-usadbe-kuskovo-posle-restavracii-otkrylsia-shvejcarskij-domik.html"}, {"name": "Pyrenees, Spain (general), Spain", "cc": "SP", "lat": 42.667, "lon": 1.0, "n": 1, "art": 10, "url": "https://www.3cat.cat/3catinfo/les-ultimes-veus-de-lesclat-de-la-guerra-civil-va-ser-molt-cru-no-creia-que-men-sortis/noticia/3419511/"}, {"name": "Bahia De Gando, Canarias, Spain", "cc": "SP", "lat": 27.934, "lon": -15.374, "n": 2, "art": 10, "url": "https://www.canarias7.es/canarias/gran-canaria/las-palmas-de-gran-canaria/silencio-dure-anos-20260718073123-nt.html"}, {"name": "Minsk, Belarus (general), Belarus", "cc": "BO", "lat": 53.9, "lon": 27.567, "n": 1, "art": 10, "url": "https://vz.ru/news/2026/7/18/1435816.html"}, {"name": "Gaibandha, Rangpur, Bangladesh", "cc": "BG", "lat": 25.329, "lon": 89.544, "n": 1, "art": 7, "url": "https://aninews.in/news/world/asia/minority-leaders-in-bangladesh-launch-massive-protests-over-hindu-youths-arrest-on-trumped-up-charges20260718115730/"}, {"name": "Sanatan, Rangpur, Bangladesh", "cc": "BG", "lat": 25.78, "lon": 89.345, "n": 1, "art": 3, "url": "https://aninews.in/news/world/asia/minority-leaders-in-bangladesh-launch-massive-protests-over-hindu-youths-arrest-on-trumped-up-charges20260718115730/"}, {"name": "Busoga, Bugiri, Uganda", "cc": "UG", "lat": 0.5, "lon": 33.65, "n": 1, "art": 10, "url": "https://www.christiantoday.com/news/how-a-partnership-between-african-churches-is-helping-communities-see-again"}, {"name": "Boston, Massachusetts, United States", "cc": "US", "lat": 42.358, "lon": -71.06, "n": 1, "art": 6, "url": "https://countercurrents.org/2026/07/hunger-strike-the-governments-silence-and-democracys-test/"}, {"name": "Dhaka, Dhaka, Bangladesh", "cc": "BG", "lat": 23.723, "lon": 90.409, "n": 1, "art": 10, "url": "https://kashmirlife.net/kashmirs-silent-survivals-vol-18-issue-16-431304/"}, {"name": "Catalunya, Spain (general), Spain", "cc": "SP", "lat": 42.0, "lon": 2.0, "n": 1, "art": 10, "url": "https://www.laopiniondemurcia.es/nacional/2026/07/17/amnistia-datos-pendiente-concedida-puigdemont-junqueras-alerta-solidaria-132561484.html"}, {"name": "Araua, Amazonas, Brazil", "cc": "BR", "lat": -5.686, "lon": -60.859, "n": 1, "art": 10, "url": "https://www.brasildefato.com.br/2026/07/16/em-aracuai-mg-justica-obriga-sigma-a-liberar-acesso-de-familias-as-suas-proprias-casas/"}, {"name": "Haryana, Haryana, India", "cc": "IN", "lat": 29.616, "lon": 76.981, "n": 5, "art": 14, "url": "https://www.thehindu.com/news/national/wangchuk-not-alone-at-least-21-continue-indefinite-hunger-strike/article71238605.ece"}, {"name": "Olbia, Sardegna, Italy", "cc": "IT", "lat": 40.917, "lon": 9.517, "n": 1, "art": 10, "url": "https://quifinanza.it/info-utili/scioperi/scioperi-20-26-luglio-2026-date-orari/1008685/"}, {"name": "Romania", "cc": "RO", "lat": 46.0, "lon": 25.0, "n": 3, "art": 30, "url": "https://ziare.com/psd/inechitati-legea-salarizarii-minister-sporuri-2025000"}, {"name": "Guwahati, Assam, India", "cc": "IN", "lat": 26.183, "lon": 91.733, "n": 7, "art": 28, "url": "https://indianexpress.com/article/political-pulse/parliament-monsoon-session-opposition-sonam-wangchuk-jantar-mantar-cjp-protest-bj-10792874/"}, {"name": "Escambia County, Florida, United States", "cc": "US", "lat": 30.667, "lon": -87.333, "n": 2, "art": 10, "url": "http://www.northescambia.com/2026/07/escambia-county-corrections-lieutenant-graduates-from-florida-senior-leadership-program"}, {"name": "Guanajay, Provincia de Artemisa, Cuba", "cc": "CU", "lat": 22.926, "lon": -82.688, "n": 4, "art": 40, "url": "https://www.martinoticias.com/a/ahora-s%C3%AD-luis-manuel-est%C3%A1-libre/471599.html"}, {"name": "Shanghai, Shanghai, China", "cc": "CH", "lat": 31.222, "lon": 121.458, "n": 1, "art": 10, "url": "https://www.brasil247.com/global-times/mundo-recorre-a-china-em-busca-de-um-modelo-de-governanca-para-a-inteligencia-artificial-afirma-global-times/"}, {"name": "Rajghat, Uttar Pradesh, India", "cc": "IN", "lat": 24.837, "lon": 78.433, "n": 3, "art": 8, "url": "https://www.bhaskar.com/g/national/news/sonam-wangchuk-hunger-strike-ladakh-protest-photos-21-days-138473055.html"}, {"name": "Dakar, Dakar, Senegal", "cc": "SG", "lat": 14.737, "lon": -17.634, "n": 2, "art": 14, "url": "https://www.africanews.com/2026/07/18/senegal-faye-ex-president-macky-sall-hold-high-stakes-meeting/"}, {"name": "Syria", "cc": "SY", "lat": 35.0, "lon": 38.0, "n": 2, "art": 11, "url": "https://www.presstv.ir/Detail/2026/07/18/772504/irgc-al-tanf-strike-destroys-us-assets-sends-resounding-message-us-regional-allies"}, {"name": "Islamabad, Islamabad, Pakistan", "cc": "PK", "lat": 33.7, "lon": 73.167, "n": 3, "art": 21, "url": "https://dailythepatriot.com/pakistan-remains-largest-beneficiary-of-gsp-says-european-commission/"}, {"name": "Rawalpindi, Punjab, Pakistan", "cc": "PK", "lat": 33.6, "lon": 73.067, "n": 1, "art": 3, "url": "https://tribune.com.pk/story/2618946/islamabad-court-declares-omar-ayub-proclaimed-offender"}, {"name": "China", "cc": "CH", "lat": 35.0, "lon": 105.0, "n": 7, "art": 35, "url": "https://www.dailyexcelsior.com/first-pvt-suborbital-rocket-places-tech-payloads/"}, {"name": "Andalusia, Spain (general), Spain", "cc": "SP", "lat": 37.6, "lon": -4.5, "n": 1, "art": 10, "url": "https://www.andaluciainformacion.es/articulo/sanlucar/antonio-fernandez-plena-inclusion-invertir-discapacidad-es-gasto-es-obligacion-etica/202607181055533434800.html"}, {"name": "Black Sea, Oceans (general), Oceans", "cc": "OS", "lat": 43.0, "lon": 35.0, "n": 1, "art": 4, "url": "https://www.inewsgr.com/184/politiki-entasi-stin-oukrania-meta-ton-anaschimatismo-tou-zelenski--apomakryne-ton-ypourgo-amynas-ebnefsti-tou-polemou-ton-drones.htm"}, {"name": "Tamil Nadu, Tamil Nadu, India", "cc": "IN", "lat": 11.0, "lon": 78.0, "n": 3, "art": 7, "url": "https://www.livelaw.in/high-court/madras-high-court/madras-high-court-protest-hallmark-of-democracy-farmer-hunger-strike-case-quashed-541850"}, {"name": "Warsaw, (PL67), Poland", "cc": "PL", "lat": 52.25, "lon": 21.0, "n": 1, "art": 7, "url": "https://eaworldview.com/2026/07/ukraine-war-zelensky-fedorov-protests/"}, {"name": "Noginsk, Moskovskaya Oblast', Russia", "cc": "RS", "lat": 55.867, "lon": 38.444, "n": 2, "art": 2, "url": "https://www.independent.co.uk/news/world/europe/ukraine-russia-war-live-putin-zelensky-wildberries-b3017336.html"}, {"name": "Volyn, Tul'skaya Oblast', Russia", "cc": "RS", "lat": 54.155, "lon": 37.4, "n": 1, "art": 1, "url": "https://eaworldview.com/2026/07/ukraine-war-zelensky-fedorov-protests/"}, {"name": "Cyprus", "cc": "CY", "lat": 35.0, "lon": 33.0, "n": 3, "art": 30, "url": "https://manager.bg/%D1%81%D0%B2%D1%8F%D1%82/kipar-uvelichava-darzavnata-subsidia-za-obstinite"}, {"name": "Copenhagen, K\u00f8avn*, Denmark", "cc": "DA", "lat": 55.667, "lon": 12.583, "n": 1, "art": 20, "url": "https://www.newsbeast.gr/woman/moda/arthro/13242854/prin-ginei-fashion-icon-i-birkenstock-itan-mia-oikogeneia-tsagkaridon-i-istoria-piso-apo-to-pio-diasimo-sandali-tou-kosmou"}, {"name": "Tehran, Tehran, Iran", "cc": "IR", "lat": 35.75, "lon": 51.515, "n": 6, "art": 34, "url": "https://pjmedia.com/robert-spencer/2026/07/18/islamic-republic-of-iran-claims-it-has-some-friends-in-extremely-high-places-n4955198"}, {"name": "Lviv, L'vivs'ka Oblast', Ukraine", "cc": "UP", "lat": 49.841, "lon": 24.03, "n": 8, "art": 43, "url": "https://24tv.ua/ru/miting-fedorova-gorodah-ukrainy-tretij-den-podrjad-prodolzhajutsja_n3108117"}, {"name": "Malawi", "cc": "MI", "lat": -13.5, "lon": 34.0, "n": 1, "art": 5, "url": "https://mwnation.com/high-court-upholds-amended-land-laws/"}, {"name": "Kaduna State, Kaduna, Nigeria", "cc": "NI", "lat": 10.333, "lon": 7.75, "n": 1, "art": 2, "url": "https://thenationonlineng.net/uba-sani-and-urban-renewal-in-kaduna/"}, {"name": "Ternopil, Ternopil's'ka Oblast', Ukraine", "cc": "UP", "lat": 49.556, "lon": 25.606, "n": 2, "art": 4, "url": "https://zaxid.net/buduye_bez_dozvoliv_suditsya_rokami_i_prodovzhuye_prodavati_n1640845"}, {"name": "Hawaii, United States", "cc": "US", "lat": 21.11, "lon": -157.531, "n": 1, "art": 10, "url": "https://www.countytimes.co.uk/news/26288927.rhayader-carnival-floats-years-archive-images/"}, {"name": "Connecticut, United States", "cc": "US", "lat": 41.583, "lon": -72.762, "n": 1, "art": 8, "url": "https://www.globalsecurity.org/wmd/library/news/ukraine/2026/07/ukraine-260717-rferl01.htm"}, {"name": "Tokyo, Tokyo, Japan", "cc": "JA", "lat": 35.685, "lon": 139.751, "n": 1, "art": 10, "url": "https://oglobo.globo.com/economia/tecnologia/noticia/2026/07/18/moradores-protestam-contra-megacentros-de-ia-no-japao-por-risco-ambiental-entenda.ghtml"}, {"name": "Khmara, Smolenskaya Oblast', Russia", "cc": "RS", "lat": 54.347, "lon": 32.67, "n": 1, "art": 1, "url": "https://runews24.ru/articles/18/07/2026/xmara-vmesto-fedorova-terror-vmesto-texnologij-zachem-zelenskij-otdal-armiyu-glavnomu-diversantu"}, {"name": "Dnipro, Ukraine (general), Ukraine", "cc": "UP", "lat": 46.498, "lon": 32.309, "n": 3, "art": 18, "url": "https://glavred.info/analytics/nazvan-scenariy-otstavki-sirskogo-kakoe-uslovie-vydvinul-zelenskiy-i-kto-ego-zamenit-10781546.html"}, {"name": "Kuwait", "cc": "KU", "lat": 29.5, "lon": 47.75, "n": 1, "art": 10, "url": "https://www.franceinfo.fr/replay-jt/franceinfo/21h-minuit/23-heures/iran-l-armee-americaine-annonce-de-nouvelles-frappes_8112680.html"}, {"name": "Toronto, Ontario, Canada", "cc": "CA", "lat": 43.667, "lon": -79.417, "n": 5, "art": 20, "url": "https://nationalpost.com/opinion/noah-shack-irans-terror-crime-nexus-is-a-growing-threat-to-canadians"}, {"name": "Vancouver, British Columbia, Canada", "cc": "CA", "lat": 49.25, "lon": -123.133, "n": 3, "art": 21, "url": "https://lethbridgeherald.com/news/national-news/2026/07/18/opposition-brewing-as-data-centre-capacity-is-set-to-explode-across-canada/"}, {"name": "Seoul, Soul-t'ukpyolsi, South Korea", "cc": "KS", "lat": 37.566, "lon": 127.0, "n": 2, "art": 10, "url": "https://www.telerama.fr/musique/bts-au-stade-de-france-le-groupe-de-k-pop-assure-son-fan-service-et-surfe-sur-la-nostalgie-7032105.php"}, {"name": "Vinnytsya, Vinnyts'ka Oblast', Ukraine", "cc": "UP", "lat": 49.233, "lon": 28.481, "n": 1, "art": 8, "url": "https://vn.20minut.ua/Podii/vinnitsya-ocholila-reyting-ukrayini-za-tempami-podorozhchannya-novobud-12002027.html"}, {"name": "Kaziranga, Assam, India", "cc": "IN", "lat": 26.6, "lon": 93.467, "n": 1, "art": 10, "url": "https://www.siasat.com/free-assam-activists-held-over-kaziranga-hotel-protest-urges-un-3508670/"}, {"name": "Veliaj, Berat, Albania", "cc": "AL", "lat": 40.546, "lon": 20.034, "n": 1, "art": 10, "url": "https://sot.com.al/kryesore/spak-po-kthehet-ne-instrument-te-edi-rames-ligji-i-propozuar-nga-manja-oferte-e-mazhorances-per-ti-vene-nen/"}, {"name": "Moldova", "cc": "MD", "lat": 47.0, "lon": 29.0, "n": 1, "art": 8, "url": "https://www.taxydromos.gr/ellada/1344467/nea-tragodia-stin-asfalto-tis-chalkidikis-nekros-19chronos-se-sfodri-sygkroysi-dyo-aytokiniton/"}, {"name": "Soweto, Gauteng, South Africa", "cc": "SF", "lat": -26.267, "lon": 27.867, "n": 2, "art": 6, "url": "https://www.citizen.co.za/news/mandela-day-protests-shut-down-kliptown-pimville-roads-are-affected/"}, {"name": "Johannesburg, Gauteng, South Africa", "cc": "SF", "lat": -26.2, "lon": 28.083, "n": 1, "art": 4, "url": "https://www.citizen.co.za/news/mandela-day-protests-shut-down-kliptown-pimville-roads-are-affected/"}, {"name": "Bratislava, Bratislavsky Kraj, Slovak Republic", "cc": "LO", "lat": 48.15, "lon": 17.117, "n": 1, "art": 10, "url": "https://www.noviny.sk/slovensko/1235633-v-uliciach-bratislavy-sa-stretnu-dva-pochody-jeden-za-prava-lgbti-druhy-za-tradicnu-rodinu"}, {"name": "Slovak Republic", "cc": "LO", "lat": 48.667, "lon": 19.5, "n": 1, "art": 10, "url": "https://rivnepost.rv.ua/news/policzejskyj-dytsadok-peredadut-mistu/"}, {"name": "Hinsa, Himachal Pradesh, India", "cc": "IN", "lat": 32.683, "lon": 76.683, "n": 7, "art": 40, "url": "https://aninews.in/news/national/general-news/sonam-wangchuks-wife-pushes-for-immediate-hospital-discharge-demands-report-of-potassium-deficiency20260718222648/"}, {"name": "Jaipur, Rajasthan, India", "cc": "IN", "lat": 26.917, "lon": 75.817, "n": 1, "art": 5, "url": "https://www.prokerala.com/news/articles/a1789504.html"}, {"name": "San Sebastian, Pais Vasco, Spain", "cc": "SP", "lat": 43.314, "lon": -1.982, "n": 1, "art": 10, "url": "https://www.esdiario.com/nacional/260718/193582/guardia-civil-medios-adecuados-delincuencia.html"}, {"name": "Tuban, Jawa Tengah, Indonesia", "cc": "ID", "lat": -6.889, "lon": 109.137, "n": 1, "art": 4, "url": "https://www.liputan6.com/regional/read/8249155/disdik-jelaskan-alasan-siswa-dekat-sekolah-bisa-gagal-lolos-spmb"}, {"name": "Abuja, Abuja Federal Capital Territory, Nigeria", "cc": "NI", "lat": 9.083, "lon": 7.533, "n": 2, "art": 14, "url": "https://leadership.ng/federal-govt-undp-partner-to-cut-borrowing-costs/"}, {"name": "Amsteg, Switzerland (general), Switzerland", "cc": "SZ", "lat": 46.771, "lon": 8.67, "n": 1, "art": 6, "url": "https://www.swissinfo.ch/eng/demographics/swiss-villagers-block-holiday-traffic-to-protest-congestion/91765265"}, {"name": "Schattdorf, Switzerland (general), Switzerland", "cc": "SZ", "lat": 46.865, "lon": 8.655, "n": 2, "art": 8, "url": "https://www.swissinfo.ch/eng/demographics/swiss-villagers-block-holiday-traffic-to-protest-congestion/91765265"}, {"name": "Chalcidice, Perifereia Kentrikis Makedonias, Greece", "cc": "GR", "lat": 40.417, "lon": 23.5, "n": 2, "art": 8, "url": "https://pelop.gr/nea-nychta-thanatou-sti-chalkidiki-19chronos-anasyrthike-apo-ta-syntrimmia-synelifthi-23chronos-odigos/"}, {"name": "Ayodhya, Uttar Pradesh, India", "cc": "IN", "lat": 26.8, "lon": 82.2, "n": 8, "art": 37, "url": "https://www.rediff.com/news/report/monsoon-session-controversial-bills-neet-leak-ram-temple-row-set-to-dominate/20260718.htm"}, {"name": "Brighton, Brighton and Hove, United Kingdom", "cc": "UK", "lat": 50.833, "lon": -0.15, "n": 3, "art": 7, "url": "https://www.dailymail.com/news/article-15986975/Parkour-Youtube-avoids-prison-sex-abuse-images-children.html"}, {"name": "Kenya", "cc": "KE", "lat": 1.0, "lon": 38.0, "n": 1, "art": 5, "url": "https://www.ghanamma.com/2026/07/18/why-kindikis-1-1-draw-narrative-doesnt-tell-full-story-of-mt-kenya-political-battlefield/"}, {"name": "Basij, Fars, Iran", "cc": "IR", "lat": 30.608, "lon": 53.187, "n": 1, "art": 2, "url": "https://www.arkansasonline.com/news/2026/jul/18/to-instill-fear-obedience/"}, {"name": "Kherson, Khersons'ka Oblast', Ukraine", "cc": "UP", "lat": 46.656, "lon": 32.618, "n": 1, "art": 2, "url": "https://www.arkansasonline.com/news/2026/jul/18/ukraine-fights-under-interim-chief/"}, {"name": "Texas, United States", "cc": "US", "lat": 31.106, "lon": -97.647, "n": 1, "art": 10, "url": "https://www.thestar.com.my/tech/tech-news/2026/07/18/us-data-center-protests-go-national-as-backlash-grows-"}, {"name": "Tirana, Tirane, Albania", "cc": "AL", "lat": 41.328, "lon": 19.819, "n": 5, "art": 60, "url": "https://www.balkanweb.com/live-revolta-e-49-kunder-rames-marshimi-ne-tirane-protestuesit-kalojne-prane-selise-se-pd-opozite-e-shitur/"}, {"name": "Rampur, Uttar Pradesh, India", "cc": "IN", "lat": 28.817, "lon": 79.033, "n": 2, "art": 6, "url": "https://indianexpress.com/article/cities/lucknow/azam-khan-jauhar-university-rampur-demolition-order-student-protests-samajwadi-party-10792619/"}, {"name": "Lucknow, Uttar Pradesh, India", "cc": "IN", "lat": 26.85, "lon": 80.917, "n": 2, "art": 3, "url": "https://indianexpress.com/article/cities/lucknow/azam-khan-jauhar-university-rampur-demolition-order-student-protests-samajwadi-party-10792619/"}, {"name": "Oakland, California, United States", "cc": "US", "lat": 37.804, "lon": -122.271, "n": 1, "art": 6, "url": "https://www.mercurynews.com/2026/07/18/ucsf-shifts-specialized-childrens-care-between-oakland-and-san-francisco-raising-travel-concerns/"}, {"name": "Tibet, Xizang, China", "cc": "CH", "lat": 32.0, "lon": 90.0, "n": 6, "art": 38, "url": "https://news.webindia123.com/news/Articles/World/20260718/4476343.html"}, {"name": "Espriella, Nari\u00f1O, Colombia", "cc": "CO", "lat": 1.433, "lon": -77.417, "n": 2, "art": 10, "url": "https://www.elnuevosiglo.com.co/record/de-la-espriella-y-trump-se-reunirian-en-septiembre"}, {"name": "Dhanaula, Punjab, India", "cc": "IN", "lat": 30.283, "lon": 75.583, "n": 1, "art": 3, "url": "https://indianexpress.com/article/political-pulse/harjeet-singh-grewal-rss-bjp-national-commission-minorities-chief-10792651/"}, {"name": "Jalandhar, Punjab, India", "cc": "IN", "lat": 31.326, "lon": 75.579, "n": 1, "art": 3, "url": "https://indianexpress.com/article/political-pulse/harjeet-singh-grewal-rss-bjp-national-commission-minorities-chief-10792651/"}, {"name": "Eldorado Park, Gauteng, South Africa", "cc": "SF", "lat": -26.297, "lon": 27.898, "n": 2, "art": 10, "url": "https://www.ewn.co.za/2026/07/18/residents-protest-over-prolonged-power-outages-in-kliptown-and-pimville"}, {"name": "Karachi, Sindh, Pakistan", "cc": "PK", "lat": 24.867, "lon": 67.05, "n": 1, "art": 10, "url": "https://aninews.in/news/world/asia/pakistan-sindh-lady-health-workers-threaten-province-wide-protests-over-75-budget-cut20260718163014/"}, {"name": "Prague, Praha, Hlavn\u00edesto, Czech Republic", "cc": "EZ", "lat": 50.083, "lon": 14.467, "n": 1, "art": 4, "url": "https://www.parlamentnilisty.cz/arena/monitor/Spoleham-na-odpor-verejnosti-rika-Labus-o-CT-794229"}, {"name": "Santiago, Regi\u00f3etropolitana, Chile", "cc": "CI", "lat": -33.45, "lon": -70.667, "n": 1, "art": 10, "url": "https://www.elciudadano.com/en/prosecutors-office-launches-criminal-investigation-for-contempt-against-army-commander-following-legal-maneuver-in-romario-veloz-case/07/18/"}, {"name": "Ankara, Ankara, Turkey", "cc": "TU", "lat": 39.927, "lon": 32.864, "n": 1, "art": 10, "url": "https://www.haberler.com/guncel/kesk-li-sendikacilarin-gozaltina-alinmasi-diyarbakir-da-protesto-edildi-20064711-haberi/"}, {"name": "Chile", "cc": "CI", "lat": -30.0, "lon": -71.0, "n": 2, "art": 20, "url": "https://proceso.hn/la-casa-de-mexico-en-madrid-muestra-que-la-musica-del-pais-es-mas-que-mariachi-nortena-y-cumbia/"}, {"name": "Budapest, Budapest, Hungary", "cc": "HU", "lat": 47.5, "lon": 19.083, "n": 2, "art": 18, "url": "https://www.gorby.ru/gorbachev/chronicle/iyun-1986"}, {"name": "Salamanca, Castilla y Le\u00f3P, Spain", "cc": "SP", "lat": 40.968, "lon": -5.662, "n": 1, "art": 10, "url": "https://www.clarin.com/mundo/memoria-guerra-civil-espanola-espantos-90-anos-despues_0_B8uo5c2WMS.html"}, {"name": "Uttarakhand, Uttaranchal, India", "cc": "IN", "lat": 30.25, "lon": 79.25, "n": 1, "art": 10, "url": "https://indianexpress.com/article/india/jharkhand-dalit-student-assaulted-government-school-hostel-fir-registered-10792684/"}, {"name": "Honingham, Norfolk, United Kingdom", "cc": "UK", "lat": 52.65, "lon": 1.117, "n": 1, "art": 4, "url": "https://www.edp24.co.uk/news/26291622.surprise-discovery-disrupts-work-costessey-honingham/"}, {"name": "North Hollywood, California, United States", "cc": "US", "lat": 34.172, "lon": -118.379, "n": 2, "art": 2, "url": "https://www.theguardian.com/us-news/2026/jul/18/protests-this-weekend-ice-datacenters-voter-suppression"}, {"name": "Lampung, Kalimantan Tengah, Indonesia", "cc": "ID", "lat": -1.8, "lon": 115.067, "n": 1, "art": 10, "url": "https://lampung.tribunnews.com/lampung/1213941/kolaborasi-batik-keris-dengan-dekranasda-lampung-angkat-keindahan-motif-tapis-ke-nasional"}, {"name": "Zaragoza, Baja California, Mexico", "cc": "MX", "lat": 32.533, "lon": -117.017, "n": 2, "art": 12, "url": "https://www.emporda.info/catalunya/2026/07/18/carme-noguera-guerra-civil-joan-escude-guerra-civil-espanyola-nuria-bosch-132584759.html"}, {"name": "Los Angeles, California, United States", "cc": "US", "lat": 34.052, "lon": -118.244, "n": 1, "art": 1, "url": "https://www.theepochtimes.com/china/us-says-hong-kong-wont-regain-special-status-after-emergency-expires-6063915"}, {"name": "Hong Kong", "cc": "HK", "lat": 22.25, "lon": 114.167, "n": 3, "art": 8, "url": "https://www.theepochtimes.com/china/us-says-hong-kong-wont-regain-special-status-after-emergency-expires-6063915"}, {"name": "Guinea", "cc": "GV", "lat": 11.0, "lon": -10.0, "n": 1, "art": 10, "url": "https://www.africaguinee.com/construction-de-la-base-logistique-de-la-cedeao-la-sogefel-exporte-lexpertise-guineenne-en-sierra-leone/"}, {"name": "Belarus", "cc": "BO", "lat": 53.0, "lon": 28.0, "n": 1, "art": 4, "url": "https://www.mathrubhumi.com/news/india/sonam-wangchuk-health-update-safdarjung-hospital-efs37b8m"}, {"name": "Bucharest, Bucuresti, Romania", "cc": "RO", "lat": 44.433, "lon": 26.1, "n": 2, "art": 9, "url": "https://www.rri.ro/en/news-and-current-affairs/newsflash/july-18-2026-update-id1040657.html"}, {"name": "Ballari, Karnataka, India", "cc": "IN", "lat": 15.15, "lon": 76.933, "n": 1, "art": 4, "url": "https://www.thehindu.com/news/national/karnataka/ballari-students-protest-police-action-against-sonam-wangchuk-demand-abolition-of-national-testing-agency/article71237812.ece"}, {"name": "Kolkata, West Bengal, India", "cc": "IN", "lat": 22.57, "lon": 88.37, "n": 2, "art": 12, "url": "https://indianexpress.com/article/political-pulse/west-bengal-tmc-martyrs-day-mamata-banerjee-split-kolkata-police-10792792/"}, {"name": "Belgium", "cc": "BE", "lat": 50.833, "lon": 4.0, "n": 3, "art": 20, "url": "https://oglobo.globo.com/mundo/noticia/2026/07/18/israel-avanca-com-planos-para-assentamentos-ilegais-na-faixa-de-gazo-e-aumenta-orcamento-para-colonias-na-cisjordania.ghtml"}, {"name": "Hungary", "cc": "HU", "lat": 47.0, "lon": 20.0, "n": 6, "art": 34, "url": "https://www.dw.com/ru/prezident-vengrii-podpisal-popravku-k-konstitucii-prekrasausuu-ego-polnomocia/a-78021378"}, {"name": "Kashmir, Jammu and Kashmir, India", "cc": "IN", "lat": 33.917, "lon": 76.667, "n": 2, "art": 4, "url": "https://www.punjabitribuneonline.com/news/nation/indira-gandhis-1984-meeting-with-sonam-wangchuks-father-is-back-in-the-spotlight-debate-erupts-over-governments-attitude/"}, {"name": "Ahmedabad, Gujarat, India", "cc": "IN", "lat": 23.033, "lon": 72.617, "n": 2, "art": 10, "url": "https://www.orissapost.com/all-we-saw-were-white-sheets-protesters-recall-how-wangchuk-was-whisked-away-in-5-minutes/"}, {"name": "Chania, Perifereia Thessalias, Greece", "cc": "GR", "lat": 39.444, "lon": 21.555, "n": 1, "art": 6, "url": "https://www.thetoc.gr/koinwnia/article/xania-autokinito-prosperase-alla-ix-ligo-prin-apo-strofi-stin-ethniki-odo/"}, {"name": "Nairobi, Nairobi Area, Kenya", "cc": "KE", "lat": -1.283, "lon": 36.817, "n": 1, "art": 10, "url": "https://lequotidien.lu/culture/magazine-kenya-le-buzz-de-lhomme-oiseau/"}, {"name": "Taraba State, Taraba, Nigeria", "cc": "NI", "lat": 8.0, "lon": 10.5, "n": 1, "art": 10, "url": "https://bentelevision.com/states-medical-students-deserve-this-investment-a-model-worth-emulating/"}, {"name": "Bombay, Maharashtra, India", "cc": "IN", "lat": 18.975, "lon": 72.826, "n": 3, "art": 24, "url": "https://www.newsx.com/regionals/ramesh-mhatre-ordered-to-surrender-by-5-pm-why-bombay-hc-took-rare-step-of-cancelling-his-bail-249921/"}, {"name": "Sunset Cliffs, California, United States", "cc": "US", "lat": 32.73, "lon": -117.253, "n": 2, "art": 8, "url": "https://www.sandiegouniontribune.com/2026/07/18/people-started-calling-me-the-black-mermaid-of-san-diego/"}, {"name": "Tendring, Oxfordshire, United Kingdom", "cc": "UK", "lat": 51.883, "lon": -1.1, "n": 2, "art": 8, "url": "https://www.dailymail.com/news/article-15987041/Its-not-just-Count-Binface-Nigel-Farage-face-record-33-rival-candidates-Clacton-election.html"}, {"name": "Clacton, Essex, United Kingdom", "cc": "UK", "lat": 51.783, "lon": 1.167, "n": 1, "art": 2, "url": "https://www.dailymail.com/news/article-15987041/Its-not-just-Count-Binface-Nigel-Farage-face-record-33-rival-candidates-Clacton-election.html"}, {"name": "North Park, California, United States", "cc": "US", "lat": 32.741, "lon": -117.131, "n": 1, "art": 2, "url": "https://www.sandiegouniontribune.com/2026/07/18/people-started-calling-me-the-black-mermaid-of-san-diego/"}, {"name": "Jujuy, Jujuy, Argentina", "cc": "AR", "lat": -24.195, "lon": -65.297, "n": 2, "art": 18, "url": "https://www.pregon.com.ar/nota/-68897/2026/07/el-reino-unido-rechazo-las-quejas-de-argentina-por-el-buque-que-navego-aguas-continentales"}, {"name": "Riga, Riga, Latvia", "cc": "LG", "lat": 56.95, "lon": 24.1, "n": 1, "art": 7, "url": "https://www.gorby.ru/gorbachev/chronicle/fevral-1987"}, {"name": "Telangana, Andhra Pradesh, India", "cc": "IN", "lat": 18.0, "lon": 79.5, "n": 1, "art": 10, "url": "https://www.siasat.com/tension-prevails-during-eviction-drive-in-shamshabad-3508519/"}, {"name": "Cambridge, Cambridgeshire, United Kingdom", "cc": "UK", "lat": 52.2, "lon": 0.117, "n": 1, "art": 2, "url": "https://bernews.com/2026/07/minister-on-cambridge-checkpoint-report/"}, {"name": "Bermuda", "cc": "BD", "lat": 32.333, "lon": -64.75, "n": 1, "art": 8, "url": "https://bernews.com/2026/07/minister-on-cambridge-checkpoint-report/"}, {"name": "Visakhapatnam, Andhra Pradesh, India", "cc": "IN", "lat": 17.7, "lon": 83.3, "n": 1, "art": 10, "url": "https://www.thehindu.com/news/cities/Visakhapatnam/trade-union-demands-probe-into-frequent-industrial-accidents/article71237809.ece"}, {"name": "Uzhgorod, Zakarpats'ka Oblast', Ukraine", "cc": "UP", "lat": 48.617, "lon": 22.3, "n": 1, "art": 9, "url": "https://gazeta.ua/ru/articles/politics/_zelenskij-provel-novoe-soveschanie-s-komandirami-korpusov-vsu/1254872"}, {"name": "Ilovaysk, Donets'ka Oblast', Ukraine", "cc": "UP", "lat": 47.925, "lon": 38.202, "n": 2, "art": 10, "url": "https://zaxid.net/kombat_vovkiv_da_vinchi_otrimav_doganu_vid_sirskogo_n1641828"}, {"name": "Saint Nicholas, Pennsylvania, United States", "cc": "US", "lat": 40.804, "lon": -76.178, "n": 1, "art": 6, "url": "https://pelop.gr/oi-skales-tis-patras-opos-den-tis-echoume-xanadei-tesseris-thrylikes-tainies-zontanevoun-stin-poli/"}, {"name": "Philadelphia, Pennsylvania, United States", "cc": "US", "lat": 39.952, "lon": -75.164, "n": 1, "art": 4, "url": "https://pelop.gr/oi-skales-tis-patras-opos-den-tis-echoume-xanadei-tesseris-thrylikes-tainies-zontanevoun-stin-poli/"}, {"name": "Zvernec, Vlore, Albania", "cc": "AL", "lat": 40.515, "lon": 19.417, "n": 2, "art": 18, "url": "https://albeu.com/lajme/dita-e-49-te-e-protestes-qytetaret-zbresin-serish-ne-shesh-kerkohet-doreheqja-e-kryeministrit-rama-ju-erdhi-fundi/932603/"}, {"name": "Tiruppur, Tamil Nadu, India", "cc": "IN", "lat": 11.1, "lon": 77.35, "n": 2, "art": 10, "url": "https://www.freepressjournal.in/india/protest-is-hallmark-of-democracy-says-madras-high-court-while-quashing-case-against-farmer"}, {"name": "Czech Republic", "cc": "EZ", "lat": 49.75, "lon": 15.0, "n": 3, "art": 20, "url": "https://index.hu/gazdasag/2026/07/18/ikea-sztrajk-berek-egyeztetes-szakszervezet-targyalas-kasz-ikea-sztrajkbizottsag/"}, {"name": "Andhra, Andhra Pradesh, India", "cc": "IN", "lat": 18.0, "lon": 79.5, "n": 3, "art": 18, "url": "https://www.thenewsminute.com/news/explained-can-the-government-force-feed-a-hunger-striker-what-indian-law-says"}, {"name": "Himachal Pradesh, Himachal Pradesh, India", "cc": "IN", "lat": 31.917, "lon": 77.25, "n": 3, "art": 11, "url": "https://aninews.in/news/national/politics/hp-aidwa-urges-congress-opposition-to-back-immediate-implementation-of-33-womens-reservation-in-lok-sabha-state-assemblies20260718230024/"}, {"name": "Indore, Madhya Pradesh, India", "cc": "IN", "lat": 22.717, "lon": 75.833, "n": 1, "art": 10, "url": "https://www.freepressjournal.in/indore/mp-farmers-issues-spark-protest-in-khargone-minister-kansanas-effigy-burnt"}, {"name": "Rivne, Rivnens'ka Oblast', Ukraine", "cc": "UP", "lat": 50.623, "lon": 26.227, "n": 2, "art": 8, "url": "https://ogo.ua/vybuhotehniky-z-rivnenshhyny-rozminovuyut-hersonshhynu/"}, {"name": "Samaria, West Bank (general), West Bank", "cc": "WE", "lat": 32.25, "lon": 35.167, "n": 1, "art": 10, "url": "https://www.mako.co.il/special-mako-news/Article-596ac75f9257f91027.htm"}, {"name": "Peru", "cc": "PE", "lat": -10.0, "lon": -76.0, "n": 1, "art": 10, "url": "https://www.biobiochile.cl/noticias/internacional/america-latina/2026/07/18/el-extrano-ghosteo-de-donald-trump-a-keiko-fujimori-no-apoyo-su-campana-ni-felicito-su-victoria.shtml"}, {"name": "Mauritius", "cc": "MP", "lat": 16.0, "lon": 146.0, "n": 1, "art": 10, "url": "https://www.statoquotidiano.it/18/07/2026/mastella-lultima-spiaggia-degli-impotenti-uccidere-la-politica-per-colpire-un-uomo/1337048/"}, {"name": "Rungkut, Jawa Timur, Indonesia", "cc": "ID", "lat": -7.218, "lon": 112.353, "n": 1, "art": 10, "url": "https://surabaya.tribunnews.com/surabaya-metro/1944746/polrestabes-surabaya-ringkus-dua-residivis-curanmor-yang-beraksi-di-rungkut"}, {"name": "Gorai, Maharashtra, India", "cc": "IN", "lat": 19.25, "lon": 72.783, "n": 1, "art": 3, "url": "https://www.freepressjournal.in/mumbai/amazon-defends-balkum-hyperscale-data-centre-as-thanekars-demand-its-relocation"}, {"name": "Hyderabad, Andhra Pradesh, India", "cc": "IN", "lat": 17.375, "lon": 78.474, "n": 2, "art": 12, "url": "https://timesofindia.indiatimes.com/city/hyderabad/watch-farmers-protest-against-bullet-train-hub-land-fencing-in-telangana-throw-chilli-powder-at-police/articleshow/132483020.cms"}, {"name": "Punta Cana, La Altagracia, Dominican Republic", "cc": "DR", "lat": 18.527, "lon": -68.366, "n": 2, "art": 10, "url": "https://dominicantoday.com/the-top-10-cities-in-the-americas-with-the-highest-volume-of-flights-to-punta-cana/"}, {"name": "Monument Square, Maine, United States", "cc": "US", "lat": 44.927, "lon": -67.028, "n": 5, "art": 15, "url": "https://www.yahoo.com/news/politics/articles/large-protest-against-ice-draws-224722815.html"}, {"name": "Staten Island, New York, United States", "cc": "US", "lat": 40.583, "lon": -74.15, "n": 1, "art": 2, "url": "https://www.yahoo.com/news/us/articles/americas-most-wanted-fugitive-captured-195203443.html"}, {"name": "Rhode Island, United States", "cc": "US", "lat": 41.677, "lon": -71.51, "n": 1, "art": 8, "url": "https://www.yahoo.com/news/us/articles/americas-most-wanted-fugitive-captured-195203443.html"}, {"name": "Silesia, Poland (general), Poland", "cc": "PL", "lat": 51.0, "lon": 18.0, "n": 2, "art": 16, "url": "https://www.bankier.pl/wiadomosc/Aktywisci-znow-protestowali-przeciw-przewozom-konnym-do-Morskiego-Oka-9170187.html"}, {"name": "Cavite, Cavite City, Philippines", "cc": "RP", "lat": 14.478, "lon": 120.893, "n": 1, "art": 4, "url": "https://www.philstar.com/nation/2026/07/19/2543073/pnp-murder-cases-have-gone-down"}, {"name": "Estonia", "cc": "EN", "lat": 59.0, "lon": 26.0, "n": 1, "art": 10, "url": "https://www.racexpress.nl/rally/foto-s-pajari-houdt-solberg-knap-achter-zich-en-behoudt-leiding-na-spectaculair-duel-in-rally-estland/n/154836"}, {"name": "Chernivtsi, Chernivets'ka Oblast', Ukraine", "cc": "UP", "lat": 48.291, "lon": 25.94, "n": 2, "art": 8, "url": "https://www.vesti.ru/ns/v-rade-sobirayut-podpisi-pod-peticiej-ob-otstavke-glavkoma-vsu-syrskogo"}, {"name": "Montana, United States", "cc": "US", "lat": 46.905, "lon": -110.326, "n": 1, "art": 5, "url": "http://www.lewistownnews.com/news/tenth-judicial-district-court-report/article_d3ed9ec4-61d1-4e7d-9228-b0edae44e986.html"}, {"name": "San Jose De Buenavista, Antique, Philippines", "cc": "RP", "lat": 10.745, "lon": 121.941, "n": 2, "art": 8, "url": "https://www.manilatimes.net/2026/07/19/regions/anti-graft-complaints-target-govt-officials/2386991"}, {"name": "Thika, Central, Kenya", "cc": "KE", "lat": -1.05, "lon": 37.083, "n": 2, "art": 10, "url": "https://www.the-star.co.ke/news/2026-07-18-two-bodies-recovered-in-ruiru-area-within-48-hours"}, {"name": "Rodriguez Pena, Mendoza, Argentina", "cc": "AR", "lat": -33.121, "lon": -68.595, "n": 1, "art": 10, "url": "https://www.minutouno.com/politica/marcha-contra-el-gobierno-la-cgt-encabeza-una-nueva-movilizacion-junto-cta-utep-y-jubilados-n6300988"}, {"name": "Azopardo, Buenos Aires, Argentina", "cc": "AR", "lat": -37.702, "lon": -62.901, "n": 1, "art": 10, "url": "https://www.minutouno.com/politica/marcha-contra-el-gobierno-la-cgt-encabeza-una-nueva-movilizacion-junto-cta-utep-y-jubilados-n6300988"}, {"name": "Essex, Essex, United Kingdom", "cc": "UK", "lat": 51.833, "lon": 0.583, "n": 1, "art": 10, "url": "https://www.dailymail.com/tvshowbiz/article-15987381/RuPauls-Drag-Races-Michelle-Visage-57-looks-completely-unrecognisable-stunning-throwback-snaps-high-school.html"}, {"name": "Presevo, , Serbia", "cc": "RI", "lat": 42.309, "lon": 21.649, "n": 1, "art": 8, "url": "https://vz.ru/world/2026/7/18/1435749.html"}, {"name": "Nigeria", "cc": "NI", "lat": 10.0, "lon": 8.0, "n": 3, "art": 13, "url": "https://lesoleil.sn/international/infos-afrique/rdc-121-ressortissants-rapatries-apres-des-violences-xenophobes-en-afrique-du-sud/"}, {"name": "Bampur, Sistan va Baluchestan, Iran", "cc": "IR", "lat": 27.194, "lon": 60.456, "n": 1, "art": 1, "url": "https://www.presstv.ir/Detail/2026/07/18/772504/irgc-al-tanf-strike-destroys-us-assets-sends-resounding-message-us-regional-allies"}, {"name": "Bugti, Balochistan, Pakistan", "cc": "PK", "lat": 28.719, "lon": 68.414, "n": 3, "art": 10, "url": "https://www.geo.tv/latest/673717-judicial-commission-formed-to-probe-ziarat-attack-after-victims-families-end-protest"}, {"name": "Kotovsk, Tambovskaya Oblast', Russia", "cc": "RS", "lat": 52.587, "lon": 41.502, "n": 1, "art": 8, "url": "https://www.vedomosti.ru/business/articles/2026/07/18/1214725-uscherb-skladi-wildberries"}, {"name": "Madrid, Madrid, Spain", "cc": "SP", "lat": 40.4, "lon": -3.683, "n": 1, "art": 2, "url": "https://www.vedomosti.ru/business/articles/2026/07/18/1214725-uscherb-skladi-wildberries"}, {"name": "Thoothukudi, Tamil Nadu, India", "cc": "IN", "lat": 8.783, "lon": 78.133, "n": 1, "art": 3, "url": "https://aninews.in/news/national/general-news/sonam-wangchuks-wife-pushes-for-immediate-hospital-discharge-demands-report-of-potassium-deficiency20260718222648/"}, {"name": "Allahabad, Uttar Pradesh, India", "cc": "IN", "lat": 25.45, "lon": 81.85, "n": 1, "art": 4, "url": "https://www.thehindu.com/news/national/wangchuk-not-alone-at-least-21-continue-indefinite-hunger-strike/article71238605.ece"}, {"name": "Ivano-Frankivsk, Ivano-Frankivs'ka Oblast', Ukraine", "cc": "UP", "lat": 48.922, "lon": 24.71, "n": 1, "art": 4, "url": "https://glavred.info/politics/massovye-akcii-iz-za-otstavki-fedorova-u-zelenskogo-gotovyat-vazhnye-resheniya-10781663.html"}, {"name": "Cluj, Cluj, Romania", "cc": "RO", "lat": 46.767, "lon": 23.6, "n": 1, "art": 4, "url": "https://www.radioresita.ro/evenimente/urbaneye-film-festival-resita-2026-filme-dezbateri-si-ateliere-despre-patrimoniul-industrial-si-viitorul-locuirii"}, {"name": "Bengaluru, Karnataka, India", "cc": "IN", "lat": 12.983, "lon": 77.583, "n": 1, "art": 10, "url": "https://timesofindia.indiatimes.com/city/mysuru/fresh-farmers-protest-brews-over-cauvery-stage-6/articleshow/132481618.cms"}, {"name": "Tigray, Tigray, Ethiopia", "cc": "ET", "lat": 13.5, "lon": 39.5, "n": 3, "art": 19, "url": "https://diplomat.so/articles/1545/Tigray-Groups-Hold-Ethiopia-Peace-Rally-in-Addis-Ababa"}, {"name": "Dover, Kent, United Kingdom", "cc": "UK", "lat": 51.133, "lon": 1.3, "n": 1, "art": 2, "url": "https://www.thisisoxfordshire.co.uk/news/26292078.new-oxfordshire-protest-locals-resist-asylum-centre/"}, {"name": "Denver, Colorado, United States", "cc": "US", "lat": 39.739, "lon": -104.985, "n": 2, "art": 7, "url": "https://www.newser.com/story/393082/off-duty-worker-arrested-for-shooting-protester-at-ice-site.html"}, {"name": "Sao Paulo, S\u00e3Paulo, Brazil", "cc": "BR", "lat": -23.533, "lon": -46.617, "n": 1, "art": 10, "url": "https://www.portalaz.com.br/noticia/geral/96505/tj-sp-mantem-prisao-preventiva-e-nega-habeas-corpus-a-deolane-bezerra/"}, {"name": "Bandar, Yazd, Iran", "cc": "IR", "lat": 32.414, "lon": 54.653, "n": 3, "art": 10, "url": "https://www.abc.es/internacional/mueren-dos-militares-eeuu-tras-ataque-iran-20260718194249-nt.html"}, {"name": "Yanbu, Al Madinah, Saudi Arabia", "cc": "SA", "lat": 24.089, "lon": 38.064, "n": 1, "art": 10, "url": "https://hotair.com/headlines/2026/07/18/a-globalized-world-is-controlled-by-its-chokepoints-n3817010"}, {"name": "Yerevan, Yerevan*, Armenia", "cc": "AM", "lat": 40.181, "lon": 44.514, "n": 1, "art": 10, "url": "https://www.armenews.com/les-employes-de-multi-stone-protestent-contre-larret-de-la-construction-de-la-statue-geante-de-jesus-christ-qui-doit-se-dresser-en-armenie-est-interrompue/"}, {"name": "Jatrabari, Bangladesh (general), Bangladesh", "cc": "BG", "lat": 24.983, "lon": 90.917, "n": 4, "art": 14, "url": "https://www.ntvbd.com/bangladesh/news-1773769"}, {"name": "Hebron, Israel (general), Israel", "cc": "IS", "lat": 31.533, "lon": 35.1, "n": 1, "art": 10, "url": "https://operamundi.uol.com.br/israel-x-palestina/israel-anuncia-novos-planos-de-assentamentos-ilegais-em-gaza-e-na-cisjordania/"}, {"name": "Tel Aviv, Tel Aviv, Israel", "cc": "IS", "lat": 32.067, "lon": 34.767, "n": 3, "art": 10, "url": "https://www.ynetnews.com/culture/article/r1uv0gfnml"}, {"name": "Sanaa, San\u0091a', Yemen", "cc": "YM", "lat": 15.355, "lon": 44.207, "n": 3, "art": 10, "url": "https://organiser.org/2026/07/18/370483/world/dalaal-in-a-trap-pakistans-saudi-defence-pact-and-iran-mediation-collide-after-houthi-strikes-on-saudi-arabia/"}, {"name": "Centro, Santander, Colombia", "cc": "CO", "lat": 6.926, "lon": -73.742, "n": 1, "art": 4, "url": "https://www.dailynews.com/2026/07/18/centro-cso-stages-vigil-to-decry-latest-killings-of-immigrants-by-immigration-officers/"}, {"name": "Lagos State, Lagos, Nigeria", "cc": "NI", "lat": 6.583, "lon": 3.75, "n": 1, "art": 4, "url": "https://thenationonlineng.net/lasu-hosts-model-un-summit-urges-students-to-champion-global-peace-diplomacy/"}, {"name": "Ghezel Hesar, Ostan-e Alborz, Iran", "cc": "IR", "lat": 35.793, "lon": 50.853, "n": 1, "art": 10, "url": "http://www.iraqsun.com/news/279195925/bahrain-directs-citizens-to-safety-after-tehran-attack-claims"}, {"name": "Palermo, Sicilia, Italy", "cc": "IT", "lat": 38.117, "lon": 13.367, "n": 2, "art": 10, "url": "https://www.zazoom.it/2026-07-18/mafia-meloni-elogia-colosimo-il-suo-lavoro-in-antimafia-e-encomiabile-orgoglio-per-fratelli-ditalia/19476364/"}, {"name": "Cave City, Kentucky, United States", "cc": "US", "lat": 37.137, "lon": -85.957, "n": 4, "art": 10, "url": "https://bgdailynews.com/2026/07/18/slide-show-cave-city-residents-march-in-protest-to-proposed-data-center/"}, {"name": "Barren County, Kentucky, United States", "cc": "US", "lat": 36.95, "lon": -85.95, "n": 1, "art": 2, "url": "https://bgdailynews.com/2026/07/18/slide-show-cave-city-residents-march-in-protest-to-proposed-data-center/"}, {"name": "Esteros Del Ibera, Corrientes, Argentina", "cc": "AR", "lat": -28.429, "lon": -57.329, "n": 1, "art": 10, "url": "https://www.corrienteshoy.com/info-general/corrientes-celebra-19-anios-del-proyecto-de-reintroduccion-del-oso-hormiguero-gigante-en-los-esteros-del-ibera.htm"}, {"name": "Greater Manchester, United Kingdom (general), United Kingdom", "cc": "UK", "lat": 53.45, "lon": -2.233, "n": 1, "art": 10, "url": "https://thenorthlines.com/andy-burnhams-long-journey-from-manchester-to-10-downing-street/"}, {"name": "Seattle, Washington, United States", "cc": "US", "lat": 47.606, "lon": -122.332, "n": 1, "art": 10, "url": "https://www.newsbomb.gr/kosmos/story/1750583/i-sparaktiki-istoria-tou-paramorfomenou-rakoyn-stous-dromous-tou-siatl-pou-egine-viral"}, {"name": "Kilimani, Coast, Kenya", "cc": "KE", "lat": -2.233, "lon": 40.817, "n": 1, "art": 2, "url": "https://www.standardmedia.co.ke/nairobi/article/2001553176/glock-pistol-laptop-stolen-from-businessman-in-nairobi"}, {"name": "Luxembourg", "cc": "LU", "lat": 49.75, "lon": 6.167, "n": 1, "art": 30, "url": "https://www.chronicle.lu/category/at-home/62476-demonstration-calls-for-urgent-child-protection-reform-in-luxembourg"}, {"name": "Milwaukee, Wisconsin, United States", "cc": "US", "lat": 43.039, "lon": -87.906, "n": 1, "art": 3, "url": "https://wrjn.com/news/2026/07/18/excerpts-from-david-crowleys-rally-speech-as-he-reenters-the-race-for-wisconsin-governor-with-tony-evers-support"}, {"name": "Arizona, United States", "cc": "US", "lat": 33.771, "lon": -111.388, "n": 1, "art": 2, "url": "https://www.kjzz.org/podcast/kjzzs-stories-you-dont-want-to-miss/2026-07-17/stories-you-dont-want-to-miss-for-the-week-of-july-13-2026"}, {"name": "Maagan Michael, H_efa, Israel", "cc": "IS", "lat": 32.556, "lon": 34.916, "n": 1, "art": 10, "url": "https://www.ynet.co.il/news/article/byfpdxfezx"}, {"name": "Karmiel, Ha?afon, Israel", "cc": "IS", "lat": 32.917, "lon": 35.299, "n": 1, "art": 10, "url": "https://www.ynet.co.il/news/article/byfpdxfezx"}, {"name": "Dominican Republic", "cc": "DR", "lat": 19.0, "lon": -70.667, "n": 3, "art": 12, "url": "https://dominicantoday.com/the-demand-for-justice-against-the-police-erupts-again-in-the-streets/"}, {"name": "St Helens, St. Helens, United Kingdom", "cc": "UK", "lat": 53.45, "lon": -2.733, "n": 1, "art": 8, "url": "https://socialistworker.co.uk/letters/letters-sw-is-wrong-on-unite-union-leadership-race-abstention-is-best/"}, {"name": "Donnington, Herefordshire, United Kingdom", "cc": "UK", "lat": 52.0, "lon": -2.417, "n": 1, "art": 10, "url": "https://socialistworker.co.uk/trade-unions/strikes-abstention-and-arms-debates-over-the-unite-union-leadership-election/"}, {"name": "Houston, Texas, United States", "cc": "US", "lat": 29.763, "lon": -95.363, "n": 1, "art": 10, "url": "https://www.krgv.com/news/ice-is-everywhere-in-houston-fear-and-grief-permeate-latino-neighborhoods-after-fatal-shooting"}, {"name": "Neo Faliro, Perifereia Attikis, Greece", "cc": "GR", "lat": 37.949, "lon": 23.677, "n": 1, "art": 8, "url": "https://www.inewsgr.com/421/19-iouliou-san-simera-1974-i-omilia-makariou-ston-oie-2.htm"}, {"name": "Muscogee County, Georgia, United States", "cc": "US", "lat": 32.501, "lon": -84.867, "n": 1, "art": 10, "url": "https://www.wtvm.com/2026/07/18/protesters-rally-against-project-ruby-data-center/"}, {"name": "Besiktas, Istanbul, Turkey", "cc": "TU", "lat": 41.05, "lon": 29.017, "n": 1, "art": 10, "url": "https://www.evrensel.net/haber/5992847/besiktas-belediyesinde-direnis-suruyor-bir-isci-aclik-grevinin-13-gununde-bayginlik-gecirdi"}, {"name": "Charlotte, North Carolina, United States", "cc": "US", "lat": 35.227, "lon": -80.843, "n": 1, "art": 6, "url": "https://www.pressdemocrat.com/2026/07/18/they-were-charged-with-assaulting-ice-agents-the-cases-are-crumbling-2/"}, {"name": "University Of North Carolina, North Carolina, United States", "cc": "US", "lat": 35.91, "lon": -79.049, "n": 1, "art": 2, "url": "https://www.pressdemocrat.com/2026/07/18/they-were-charged-with-assaulting-ice-agents-the-cases-are-crumbling-2/"}, {"name": "North Carolina, United States", "cc": "US", "lat": 35.641, "lon": -79.843, "n": 1, "art": 2, "url": "https://www.pressdemocrat.com/2026/07/18/they-were-charged-with-assaulting-ice-agents-the-cases-are-crumbling-2/"}, {"name": "Bangladesh", "cc": "BG", "lat": 24.0, "lon": 90.0, "n": 2, "art": 10, "url": "https://www.mzamin.com/article/29309"}, {"name": "Sylhet District, Sylhet, Bangladesh", "cc": "BG", "lat": 24.917, "lon": 91.767, "n": 1, "art": 10, "url": "https://www.mzamin.com/article/29307"}, {"name": "Saskatchewan, Manitoba, Canada", "cc": "CA", "lat": 52.15, "lon": -97.717, "n": 2, "art": 10, "url": "https://www.620ckrm.com/2026/07/18/soar-program-expands-to-support-indigenous-entrepreneurs-provincewide/"}, {"name": "Public Square, New York, United States", "cc": "US", "lat": 43.975, "lon": -75.909, "n": 2, "art": 8, "url": "https://www.citizensvoice.com/2026/07/18/protesters-voice-concerns-over-data-centers-at-wilkes-barre-rally/"}, {"name": "Karbala, Karbala', Iraq", "cc": "IZ", "lat": 32.598, "lon": 44.017, "n": 1, "art": 8, "url": "https://www.presstv.ir/Detail/2026/07/18/772537/Iran-Iraq-Ayatollah-Khamenei-message-martyred-Leader"}, {"name": "Kwazulu, Eastern Cape, South Africa", "cc": "SF", "lat": -31.29, "lon": 29.455, "n": 2, "art": 5, "url": "https://www.timeslive.co.za/news/south-africa/2026-07-18-mfazi-main-the-secrets-lt-gen-mfazi-took-to-his-grave/"}, {"name": "New Mexico, United States", "cc": "US", "lat": 34.837, "lon": -106.237, "n": 1, "art": 2, "url": "https://www.abqjournal.com/news/spaceport-america-data-center-proposal-sparks-curiosity/3084192"}, {"name": "Froun, Nabat\u00ee, Lebanon", "cc": "LE", "lat": 33.297, "lon": 35.429, "n": 1, "art": 2, "url": "https://www.manilatimes.net/2026/07/19/world/lebanons-president-departs-for-washington-to-meet-trump/2387042"}, {"name": "Jbeil, Mont-Liban, Lebanon", "cc": "LE", "lat": 34.125, "lon": 35.799, "n": 1, "art": 8, "url": "https://www.manilatimes.net/2026/07/19/world/lebanons-president-departs-for-washington-to-meet-trump/2387042"}, {"name": "Socorro County, New Mexico, United States", "cc": "US", "lat": 34.033, "lon": -106.884, "n": 1, "art": 8, "url": "https://www.abqjournal.com/news/spaceport-america-data-center-proposal-sparks-curiosity/3084192"}, {"name": "Missouri, United States", "cc": "US", "lat": 38.462, "lon": -92.302, "n": 1, "art": 10, "url": "https://krcgtv.com/news/local/groups-rally-in-columbia-against-amendments-4-and-5-on-get-out-and-vote-day-of-action"}, {"name": "Chuvashia, Chuvashiya, Russia", "cc": "RS", "lat": 55.5, "lon": 47.0, "n": 1, "art": 2, "url": "https://lenta.ru/news/2026/07/19/long-fedorov/"}, {"name": "Sriharikota, Andhra Pradesh, India", "cc": "IN", "lat": 13.75, "lon": 80.167, "n": 1, "art": 2, "url": "https://www.dailyexcelsior.com/first-pvt-suborbital-rocket-places-tech-payloads/"}, {"name": "Marapong, Limpopo, South Africa", "cc": "SF", "lat": -22.503, "lon": 28.758, "n": 2, "art": 4, "url": "https://pidgin.informationng.com/?p=35441"}]