[{"name": "Tehran, Tehran, Iran", "cc": "IR", "lat": 35.75, "lon": 51.515, "n": 22, "art": 132, "url": "https://www.yahoo.com/news/world/articles/ayatollah-ali-khamenei-led-iran-090709701.html"}, {"name": "Berlin, Berlin, Germany", "cc": "GM", "lat": 52.517, "lon": 13.4, "n": 15, "art": 140, "url": "https://www.durangoherald.com/articles/far-right-alternative-for-germany-party-re-elects-leaders-as-protesters-and-police-clash/"}, {"name": "Italy", "cc": "IT", "lat": 42.833, "lon": 12.833, "n": 11, "art": 86, "url": "https://www.ilmattino.it/salerno/pride_folla_colorata_centro_al_lungomare_diritti_uguali_tutti_salerno-9632328.html"}, {"name": "Monaco", "cc": "MN", "lat": 43.733, "lon": 7.4, "n": 2, "art": 18, "url": "https://www.nicematin.com/conso/de-nombreuses-propositions-de-qualite-la-mairie-de-monaco-devoile-un-peu-plus-l-offre-de-la-future-halle-du-marche-de-la-condamine-10687883"}, {"name": "Black Hills, South Dakota, United States", "cc": "US", "lat": 44.417, "lon": -103.709, "n": 1, "art": 2, "url": "https://rapidcityjournal.com/news/local/indigenous/article_6a4e1ded-20a9-4875-b95a-2ba253257c7a.html"}, {"name": "Mount Rushmore, South Dakota, United States", "cc": "US", "lat": 43.88, "lon": -103.459, "n": 4, "art": 16, "url": "http://www.austinglobe.com/news/279165787/watch-livetrump-delivers-speech-from-mount-rushmore"}, {"name": "Alfa, Nigeria (general), Nigeria", "cc": "NI", "lat": 6.8, "lon": 2.967, "n": 2, "art": 8, "url": "https://punchng.com/how-frustrated-groups-sponsored-anti-foreigner-protests-in-safrica-report/"}, {"name": "California, United States", "cc": "US", "lat": 36.17, "lon": -119.746, "n": 5, "art": 38, "url": "https://www.telemundo.com/noticias/noticias-telemundo/estados-unidos/el-esposo-de-nancy-pelosi-es-acusado-de-chocar-contra-un-auto-aparcado-rcna352997"}, {"name": "Albania", "cc": "AL", "lat": 41.0, "lon": 20.0, "n": 18, "art": 190, "url": "https://noa.al/lajmi/2026/07/2598310.html"}, {"name": "New York State Supreme Court, New York, United States", "cc": "US", "lat": 40.714, "lon": -74.001, "n": 1, "art": 3, "url": "https://www.advisor.ca/industry-news/regulation/osc-seeks-recovery-from-developer/"}, {"name": "France", "cc": "FR", "lat": 46.0, "lon": 2.0, "n": 10, "art": 82, "url": "https://www.gp.se/nyheter/varlden/tiotusentals-fransman-i-protest-mot-sexuellt-vald.987ef761-269c-5e98-ae2d-b916871dfbb0"}, {"name": "Germany", "cc": "GM", "lat": 51.5, "lon": 10.5, "n": 40, "art": 321, "url": "https://www.haksozhaber.net/nato-ankarada-katil-trump-turkiyeden-defol-256605h.htm"}, {"name": "United Kingdom", "cc": "UK", "lat": 54.0, "lon": -4.0, "n": 10, "art": 52, "url": "https://laist.com/news/but-first-coffee-the-drink-that-energized-the-american-revolution"}, {"name": "Bombay, Maharashtra, India", "cc": "IN", "lat": 18.975, "lon": 72.826, "n": 1, "art": 2, "url": "https://timesofindia.indiatimes.com/blogs/gen-zedits/agreeing-to-disagree-2/"}, {"name": "New York, United States", "cc": "US", "lat": 42.15, "lon": -74.938, "n": 4, "art": 9, "url": "https://www.globalsecurity.org/military/library/news/2026/07/mil-260703-rfa01.htm"}, {"name": "Valikamam North, Northern, Sri Lanka", "cc": "CE", "lat": 9.794, "lon": 80.039, "n": 3, "art": 10, "url": "https://www.tamilguardian.com/index.php/content/valikamam-north-landowners-stage-11th-weekly-demonstration-release-lands-occupied-sri"}, {"name": "Myliddy, Northern, Sri Lanka", "cc": "CE", "lat": 9.8, "lon": 80.05, "n": 2, "art": 8, "url": "https://www.tamilguardian.com/index.php/content/valikamam-north-landowners-stage-11th-weekly-demonstration-release-lands-occupied-sri"}, {"name": "Chicherin, Rostovskaya Oblast', Russia", "cc": "RS", "lat": 46.382, "lon": 40.822, "n": 2, "art": 8, "url": "https://news.mail.ru/society/71510692/"}, {"name": "Matanzas, Matanzas, Cuba", "cc": "CU", "lat": 23.041, "lon": -81.578, "n": 4, "art": 22, "url": "https://www.cubaheadlines.com/articles/334114"}, {"name": "Edo State, Edo, Nigeria", "cc": "NI", "lat": 6.5, "lon": 6.0, "n": 7, "art": 30, "url": "https://blueprint.ng/switzerland-returns-looted-benin-artefacts-125-years-after/"}, {"name": "Benin", "cc": "BN", "lat": 9.5, "lon": 2.25, "n": 7, "art": 27, "url": "https://www.riotimesonline.com/looted-african-art-returns-home-2026/"}, {"name": "Hangzhou, Zhejiang, China", "cc": "CH", "lat": 30.255, "lon": 120.169, "n": 1, "art": 10, "url": "http://europe.chinadaily.com.cn/a/202607/04/WS6a483c65a310986e2b46378c.html"}, {"name": "Hengyang, Hunan, China", "cc": "CH", "lat": 26.888, "lon": 112.615, "n": 1, "art": 2, "url": "https://english.news.cn/20260704/0d09fb90d0e24a5795f27f92ebb07e20/c.html"}, {"name": "Tamil Nadu, Tamil Nadu, India", "cc": "IN", "lat": 11.0, "lon": 78.0, "n": 4, "art": 22, "url": "https://www.prajasakti.com/latest-news/%E0%B0%A8%E0%B0%B7%E0%B0%A8%E0%B0%B2-58/we-cant-save-this-country-by-keeping-the-youth-out-on-the-streets"}, {"name": "Kanakapura, Karnataka, India", "cc": "IN", "lat": 12.55, "lon": 77.417, "n": 1, "art": 1, "url": "https://dailypioneer.com/news/karnataka-lop-questions-shivakumars-silence-over-mekedatu-project"}, {"name": "Bengaluru, Karnataka, India", "cc": "IN", "lat": 12.983, "lon": 77.583, "n": 4, "art": 12, "url": "https://www.prokerala.com/news/articles/a1783804.html"}, {"name": "Chennai, Tamil Nadu, India", "cc": "IN", "lat": 13.083, "lon": 80.283, "n": 2, "art": 12, "url": "https://newstodaynet.com/2026/07/04/ex-ministers-arrest-bid-to-silence-oppn-stalin/"}, {"name": "Beijing, Beijing, China", "cc": "CH", "lat": 39.929, "lon": 116.388, "n": 8, "art": 36, "url": "https://www.yahoo.com/news/world/articles/mamdani-left-heartbroken-over-queens-202000944.html"}, {"name": "Taranaki, Taranaki, New Zealand", "cc": "NZ", "lat": -39.333, "lon": 174.25, "n": 1, "art": 5, "url": "https://thedailyblog.co.nz/march-for-nature-launched-to-protect-conservation-greenpeace/"}, {"name": "China", "cc": "CH", "lat": 35.0, "lon": 105.0, "n": 8, "art": 56, "url": "https://www.chinatechnews.com/2026/07/05/124902-chinas-strategic-weapon-sales-via-pakistan-in-the-middle-east"}, {"name": "White House, District of Columbia, United States", "cc": "US", "lat": 38.895, "lon": -77.036, "n": 6, "art": 13, "url": "http://www.jpost.com/jerusalem-report/article-900801"}, {"name": "Florida, United States", "cc": "US", "lat": 27.833, "lon": -81.717, "n": 2, "art": 15, "url": "https://www.foxnews.com/opinion/broadcast-bias-media-celebrate-america-turning-250-bash-us-rest-time"}, {"name": "Vietnam, Republic Of", "cc": "VM", "lat": 16.167, "lon": 107.833, "n": 3, "art": 21, "url": "https://24-ore.com/amerika-250-vjet-historia-e-nje-vendi-qe-ndryshon-kur-qytetaret-reagojne/"}, {"name": "United States", "cc": "US", "lat": 39.828, "lon": -98.579, "n": 15, "art": 92, "url": "https://www.fox5atlanta.com/news/atlanta-police-arrest-5-protesters-during-peachtree-road-race"}, {"name": "Ireland", "cc": "EI", "lat": 53.0, "lon": -8.0, "n": 2, "art": 12, "url": "https://www.catholicworldreport.com/2026/07/04/12-catholic-americans-who-helped-shape-the-united-states/"}, {"name": "Moscow, Moskva, Russia", "cc": "RS", "lat": 55.752, "lon": 37.616, "n": 9, "art": 38, "url": "https://espreso.tv/news-tisyachi-lyudey-protestuyut-v-erfurti-proti-ultrapravoi-partii-alternativa-dlya-nimechchini"}, {"name": "Boston, Massachusetts, United States", "cc": "US", "lat": 42.358, "lon": -71.06, "n": 3, "art": 36, "url": "https://laist.com/news/but-first-coffee-the-drink-that-energized-the-american-revolution"}, {"name": "Virginia, United States", "cc": "US", "lat": 37.768, "lon": -78.206, "n": 1, "art": 2, "url": "https://whyy.org/articles/why-independence-day-july-4/"}, {"name": "Michigan, United States", "cc": "US", "lat": 43.35, "lon": -84.56, "n": 2, "art": 12, "url": "https://www.wsws.org/en/articles/2026/07/04/oojb-j04.html"}, {"name": "Nabeul, Nabul, Tunisia", "cc": "TS", "lat": 36.456, "lon": 10.738, "n": 1, "art": 10, "url": "https://fr.allafrica.com/stories/202607030580.html"}, {"name": "Douala, Littoral, Cameroon", "cc": "CM", "lat": 3.755, "lon": 9.945, "n": 1, "art": 10, "url": "https://www.camer.be/93834/12:1/cameroun-le-bir-debarque-a-douala-le-port-passe-sous-protection-militaire-cameroon.html"}, {"name": "Kisii, Nyanza, Kenya", "cc": "KE", "lat": -0.674, "lon": 34.772, "n": 3, "art": 10, "url": "https://www.kenyan-post.com/2026/07/governor-irungu-kangata-makes-bold.html"}, {"name": "Konkan, Maharashtra, India", "cc": "IN", "lat": 18.083, "lon": 73.417, "n": 1, "art": 10, "url": "https://www.thehindu.com/news/national/maharashtra/high-court-quashes-externment-order-comments-on-horse-trading-in-maharashtra/article71179161.ece"}, {"name": "Abuja, Abuja Federal Capital Territory, Nigeria", "cc": "NI", "lat": 9.083, "lon": 7.533, "n": 4, "art": 22, "url": "https://www.thisdaylive.com/2026/07/04/state-police-all-36-states-in-full-support-and-will-give-it-speedy-approval-says-oyebanji/"}, {"name": "Himachal Pradesh, Himachal Pradesh, India", "cc": "IN", "lat": 31.917, "lon": 77.25, "n": 1, "art": 6, "url": "https://aninews.in/news/national/general-news/himachal-pradesh-nh-5-in-kinnaur-reopened-after-debris-flow-authorities-on-high-alert-amid-monsoon20260704082940/"}, {"name": "Israel", "cc": "IS", "lat": 31.5, "lon": 34.75, "n": 15, "art": 87, "url": "http://www.jpost.com/jerusalem-report/article-900803"}, {"name": "Iraq", "cc": "IZ", "lat": 33.0, "lon": 44.0, "n": 3, "art": 25, "url": "https://www.manar.com/page-51609-ar.html"}, {"name": "Havana, Ciudad de La Habana, Cuba", "cc": "CU", "lat": 23.132, "lon": -82.364, "n": 2, "art": 20, "url": "https://acento.com.do/internacional/cierre-anticipado-del-curso-escolar-muestra-costuras-de-la-educacion-cubana-9712200.html"}, {"name": "Crimea, Krym, Avtonomna Respublika, Ukraine", "cc": "UP", "lat": 45.0, "lon": 34.0, "n": 2, "art": 18, "url": "https://www.bfmtv.com/economie/entreprises/defense/je-suis-desormais-informaticien-et-marchand-d-armes-eric-schmidt-l-ancien-pdg-de-google-qui-donne-a-l-ukraine-les-moyens-de-frapper-la-russie-en-profondeur-et-d-isoler-la-crimee_AV-202607040055.html"}, {"name": "Washington, District of Columbia, United States", "cc": "US", "lat": 38.895, "lon": -77.036, "n": 8, "art": 70, "url": "https://www.yahoo.com/news/us/articles/patriot-front-men-wearing-symbols-193630442.html"}, {"name": "Texas, United States", "cc": "US", "lat": 31.106, "lon": -97.647, "n": 2, "art": 7, "url": "https://gizmodo.com/the-disturbing-truth-about-how-extreme-heat-affects-the-body-2000780322"}, {"name": "Ankara, Ankara, Turkey", "cc": "TU", "lat": 39.927, "lon": 32.864, "n": 2, "art": 4, "url": "https://www.wsws.org/en/articles/2026/07/03/afjv-j03.html"}, {"name": "Gaza, Israel (general), Israel", "cc": "IS", "lat": 31.417, "lon": 34.333, "n": 13, "art": 64, "url": "https://www.aljazeera.net/news/2026/7/5/%D9%84%D9%8A%D8%B3-%D8%A7%D9%84%D8%B9%D8%B1%D8%A8-%D9%88%D8%AD%D8%AF%D9%87%D9%85-%D9%86%D8%B4%D8%B7%D8%A7%D8%A1-%D8%A3%D8%AC%D8%A7%D9%86%D8%A8-%D9%8A%D9%88%D8%A7%D8%AC%D9%87%D9%88%D9%86"}, {"name": "Senayan, Sumatera Utara, Indonesia", "cc": "ID", "lat": 3.437, "lon": 99.057, "n": 2, "art": 8, "url": "https://jakarta.tribunnews.com/jakarta/438025/patwal-terobos-macet-polisi-pengawal-ri-21-diomeli-warga-kini-mobil-pejabat-santai-terobos-antrean"}, {"name": "Mostoles, Madrid, Spain", "cc": "SP", "lat": 40.321, "lon": -3.863, "n": 1, "art": 10, "url": "https://elpais.com/espana/2026-07-04/jaime-de-los-santos-vicesecretario-de-igualdad-del-pp-la-autodeterminacion-de-genero-es-una-ficcion-pediremos-un-informe-psicosocial.html"}, {"name": "Belize", "cc": "BH", "lat": 17.25, "lon": -88.75, "n": 1, "art": 5, "url": "https://www.greaterbelize.com/severance-paid-to-over-75-percent-of-former-btl-workers/"}, {"name": "Tibet, Xizang, China", "cc": "CH", "lat": 32.0, "lon": 90.0, "n": 3, "art": 7, "url": "https://www.yahoo.com/news/world/articles/mamdani-left-heartbroken-over-queens-202000944.html"}, {"name": "Minsk, Belarus (general), Belarus", "cc": "BO", "lat": 53.9, "lon": 27.567, "n": 1, "art": 6, "url": "https://piter.tv/event/Aktivistki_Femen_rasskaz/"}, {"name": "Kiev, Ukraine (general), Ukraine", "cc": "UP", "lat": 50.433, "lon": 30.517, "n": 8, "art": 38, "url": "https://ria.ru/20260704/varshava-2102800365.html"}, {"name": "Cauvery River, India (general), India", "cc": "IN", "lat": 11.15, "lon": 79.867, "n": 3, "art": 10, "url": "https://www.madhyamam.com/metro/mekkadattu-r-ashoka-mocks-dk-shivakumars-silence-1534203"}, {"name": "Kyiv, Kyyiv, Misto, Ukraine", "cc": "UP", "lat": 50.433, "lon": 30.517, "n": 4, "art": 18, "url": "https://weeklyblitz.net/2026/07/05/kyivs-post-maidan-project-has-created-multiple-fronts-of-tension-well-beyond-russia/"}, {"name": "Bhopal, Madhya Pradesh, India", "cc": "IN", "lat": 23.267, "lon": 77.4, "n": 1, "art": 3, "url": "https://www.freepressjournal.in/bhopal/ram-temple-row-digvijaya-to-march-from-mahakal-to-ayodhya"}, {"name": "Argentina", "cc": "AR", "lat": -34.0, "lon": -64.0, "n": 3, "art": 30, "url": "https://www.telesurtv.net/argentinos-en-situacion-de-calle-sufren-bajas-temperaturas-por-ola-de-frio-en-el-pais/"}, {"name": "New Zealand", "cc": "NZ", "lat": -42.0, "lon": 174.0, "n": 4, "art": 10, "url": "https://www.scoop.co.nz/stories/PA2607/S00033/mckee-delivers-real-estate-fix-act-says-regulators-must-be-pulled-further-into-line.htm"}, {"name": "Brazil", "cc": "BR", "lat": -10.0, "lon": -55.0, "n": 2, "art": 12, "url": "https://www.terra.com.br/noticias/mundo/no-aniversario-de-250-anos-trump-reacende-o-debate-quais-os-limites-do-poder-nos-eua,41fa18b2e250db141ca847c1d6b05f555dpji3y0.html"}, {"name": "Huis Ten Bosch, Zuid-Holland, Netherlands", "cc": "NL", "lat": 52.094, "lon": 4.345, "n": 3, "art": 8, "url": "https://www.independent.co.uk/asia/india/insiya-hemani-dutch-girl-kidnapped-netherlands-india-b2993173.html"}, {"name": "Midlands, Leicestershire, United Kingdom", "cc": "UK", "lat": 52.75, "lon": -1.5, "n": 1, "art": 5, "url": "https://www.newarkadvertiser.co.uk/news/pulling-bypass-project-s-funding-is-a-slap-in-the-face-to-u-9472806/"}, {"name": "Saturnia, Toscana, Italy", "cc": "IT", "lat": 42.667, "lon": 11.5, "n": 1, "art": 10, "url": "https://www.zazoom.it/2026-07-04/a-pitigliano-il-borgo-si-spacca-i-residenti-non-ci-stanno-la-pedonalizzazione-ci-danneggia/19421307/"}, {"name": "Sydney, New South Wales, Australia", "cc": "AS", "lat": -33.883, "lon": 151.217, "n": 1, "art": 6, "url": "https://www.theguardian.com/australia-news/2026/jul/04/chris-minns-admits-nsw-labor-needs-to-climb-everest-to-stay-in-power-as-protesters-interrupt-state-conference-ntwnfb"}, {"name": "Tokyo, Tokyo, Japan", "cc": "JA", "lat": 35.685, "lon": 139.751, "n": 1, "art": 10, "url": "https://www.levante-emv.com/postdata/2026/07/04/mirada-desvanece-132104006.html"}, {"name": "Kedungrejo, Jawa Tengah, Indonesia", "cc": "ID", "lat": -7.095, "lon": 110.943, "n": 1, "art": 10, "url": "https://beritajatim.com/pemkab-madiun-hentikan-sementara-proyek-pt-gwi-di-pilangkenceng-ini-penyebabnya"}, {"name": "Benue State, Benue, Nigeria", "cc": "NI", "lat": 7.333, "lon": 8.75, "n": 1, "art": 2, "url": "https://dailytrust.com/2027-can-apc-surmount-replacement-crisis/"}, {"name": "New Haven, Connecticut, United States", "cc": "US", "lat": 41.308, "lon": -72.928, "n": 1, "art": 4, "url": "https://www.newhavenindependent.org/2026/07/03/5-department-heads-seek-residency-requirement-waivers/"}, {"name": "West Haven, Connecticut, United States", "cc": "US", "lat": 41.271, "lon": -72.947, "n": 1, "art": 4, "url": "https://www.newhavenindependent.org/2026/07/03/5-department-heads-seek-residency-requirement-waivers/"}, {"name": "Canada", "cc": "CA", "lat": 60.0, "lon": -96.0, "n": 10, "art": 40, "url": "https://www.theepochtimes.com/opinion/cusma-the-end-of-easy-trade-6057290"}, {"name": "Mexico", "cc": "MX", "lat": 23.0, "lon": -102.0, "n": 2, "art": 14, "url": "https://www.razon.com.mx:443/mexico/2026/07/04/eu-emite-alerta-por-riesgos-en-multitudes-durante-duelo-mexico-vs-inglaterra-en-cdmx/"}, {"name": "Barcelona, Comunidad Autonoma de Cataluna, Spain", "cc": "SP", "lat": 41.383, "lon": 2.183, "n": 4, "art": 46, "url": "https://www.leprogres.fr/tour-de-france/2026/06/29/une-fin-d-etape-accidentee-circuit-urbain-ce-qu-il-faut-savoir-sur-la-2-sup-e-sup-etape"}, {"name": "Cambodia", "cc": "CB", "lat": 13.0, "lon": 105.0, "n": 1, "art": 10, "url": "https://www.akp.gov.kh/fr/post/detail/374794"}, {"name": "Ukraine", "cc": "UP", "lat": 49.0, "lon": 32.0, "n": 14, "art": 68, "url": "https://zavtra.com.ua/2026/07/05/pislya-zamahu-v-monako-biznesmen-yermolayev-uzhe-vyjshov-iz-komy/"}, {"name": "Madhya Pradesh, Madhya Pradesh, India", "cc": "IN", "lat": 23.5, "lon": 78.5, "n": 2, "art": 20, "url": "https://www.mangalorean.com/question-paper-theft-forces-last-minute-cancellation-of-b-tech-exam-at-rgpv-in-mp/"}, {"name": "Sweden", "cc": "SW", "lat": 62.0, "lon": 15.0, "n": 7, "art": 56, "url": "https://www.levelup.com/noticias/jugadores-cancelan-su-suscripcion-a-playstation-plus-y-planean-un-boicot-contra-marvels-wolverine-para-castigar-a-sony-por-el-fin-del-formato-fisico/"}, {"name": "Greece", "cc": "GR", "lat": 39.0, "lon": 22.0, "n": 3, "art": 25, "url": "https://www.jdsupra.com:443/legalnews/extreme-heat-at-work-when-can-employees-6491636/"}, {"name": "Heidelberg, Baden-W\u00fcberg, Germany", "cc": "GM", "lat": 48.317, "lon": 8.917, "n": 1, "art": 4, "url": "https://www.news.de/politik/859715628/anti-afd-demos-gegen-rechtsextremismus-heute-samstag-4-juli-2026-demonstrationen-erfurt-muenchen-oldenburg-luetjenburg-hungen-husum/1/"}, {"name": "Saxony, Sachsen, Germany", "cc": "GM", "lat": 51.0, "lon": 13.0, "n": 3, "art": 21, "url": "https://www.chronicle.lu/category/international/62175-thousands-rotest-in-germany-against-far-right-afd"}, {"name": "Springfield, Ohio, United States", "cc": "US", "lat": 39.924, "lon": -83.809, "n": 1, "art": 4, "url": "https://www.daytondailynews.com/local/immigrants-are-america-dozens-rally-in-springfield-to-show-support-for-haitian-immigrants/article_a8ac496d-9900-5fd0-8341-e56f7ab1b4f6.html"}, {"name": "Haiti", "cc": "HA", "lat": 19.0, "lon": -72.417, "n": 1, "art": 2, "url": "https://www.daytondailynews.com/local/immigrants-are-america-dozens-rally-in-springfield-to-show-support-for-haitian-immigrants/article_a8ac496d-9900-5fd0-8341-e56f7ab1b4f6.html"}, {"name": "Rhne, Rh\u00f4Alpes, France", "cc": "FR", "lat": 45.167, "lon": 5.767, "n": 1, "art": 30, "url": "https://www.republicain-lorrain.fr/tour-de-france/2026/07/04/des-specialistes-vauquelin-pour-finir-pourquoi-netcompany-ineos-est-favori-ce-samedi"}, {"name": "Damascus, Dimashq, Syria", "cc": "SY", "lat": 33.5, "lon": 36.3, "n": 3, "art": 5, "url": "https://www.breitbart.com/europe/2026/07/03/syrian-colonel-accused-of-war-crimes-found-unfit-for-trial-by-london-court/"}, {"name": "Brussels, Bruxelles-Capitale, Belgium", "cc": "BE", "lat": 50.833, "lon": 4.333, "n": 3, "art": 20, "url": "https://www.lequipe.fr/Cyclisme-sur-route/Actualites/Un-premier-maillot-jaune-a-distribuer-un-chrono-par-equipes-au-reglement-particulier-des-francais-pour-briller-les-trois-raisons-de-suivre-la-1re-etape-du-tour-de-france/1701040"}, {"name": "Bulgaria", "cc": "BU", "lat": 43.0, "lon": 25.0, "n": 1, "art": 10, "url": "https://www.novinite.bg/articles/287097/protest-poiska-ostavkata-na-radev-razvya-balgarski-i-ukrainski-znamena"}, {"name": "Spain", "cc": "SP", "lat": 40.0, "lon": -4.0, "n": 3, "art": 30, "url": "https://www.sakshi.com/telugu-news/family/activists-stage-anti-tourism-protest-menorca-2833963"}, {"name": "Pretoria, Gauteng, South Africa", "cc": "SF", "lat": -25.707, "lon": 28.229, "n": 6, "art": 30, "url": "https://www.premiumtimesng.com/foreign/world-foreign/892985-xenophobia-two-more-nigerians-killed-in-south-africa.html"}, {"name": "Pulkovo, Leningradskaya Oblast', Russia", "cc": "RS", "lat": 59.77, "lon": 30.326, "n": 1, "art": 10, "url": "https://www.vesti.ru/ns/peterburg-podvergsya-masshtabnoj-atake-bpla-gorozhan-prosyat-ostavatsya-doma"}, {"name": "Paris, France (general), France", "cc": "FR", "lat": 48.867, "lon": 2.333, "n": 2, "art": 18, "url": "https://avaz.ba/vijesti/globus/1054561/u-parizu-odrzan-mars-mira-i-komemoracija-povodom-31-godisnjice-genocida-u-srebrenici"}, {"name": "Petersburg, Sankt-Peterburg, Russia", "cc": "RS", "lat": 59.894, "lon": 30.264, "n": 2, "art": 8, "url": "https://www.novinite.com/articles/239429/Is+Russia+Planning+an+Attack+on+Poland+to+"}, {"name": "Lithuania", "cc": "LH", "lat": 56.0, "lon": 24.0, "n": 2, "art": 2, "url": "https://www.novinite.com/articles/239429/Is+Russia+Planning+an+Attack+on+Poland+to+"}, {"name": "Rimini, Emilia-Romagna, Italy", "cc": "IT", "lat": 44.063, "lon": 12.581, "n": 1, "art": 1, "url": "https://www.ilrestodelcarlino.it/cultura/che-storia-andare-per-grand-830e4b39"}, {"name": "Ladakh, Jammu and Kashmir, India", "cc": "IN", "lat": 34.5, "lon": 77.5, "n": 7, "art": 61, "url": "https://www.thehindu.com/news/national/fresh-political-support-pours-in-on-15th-day-of-cjp-protest-student-hospitalised/article71183637.ece"}, {"name": "New Delhi, Delhi, India", "cc": "IN", "lat": 28.6, "lon": 77.2, "n": 3, "art": 8, "url": "https://economictimes.indiatimes.com/news/politics-and-nation/day-15-of-cjp-protest-fasting-wangchuks-health-worsens-why-pradhan-not-sacked-yet-dipke-asks/articleshow/132176084.cms"}, {"name": "Brighton, Brighton and Hove, United Kingdom", "cc": "UK", "lat": 50.833, "lon": -0.15, "n": 1, "art": 10, "url": "https://www.express.co.uk/travel/uk/2224462/uk-s-most-expensive-seaside-spot-has-been-named-100-last-just-2-days"}, {"name": "Orissa, Orissa, India", "cc": "IN", "lat": 20.5, "lon": 84.417, "n": 2, "art": 20, "url": "https://www.orissapost.com/cjp-protest-day-15-fresh-political-support-pours-in-aisa-student-hospitalised/"}, {"name": "Quebec, Quebec, Canada", "cc": "CA", "lat": 47.5, "lon": -72.0, "n": 1, "art": 8, "url": "https://www.ledevoir.com/opinion/idees/992432/tient-banderole-nous-dit-elle-notre-monde"}, {"name": "Colorado, United States", "cc": "US", "lat": 39.065, "lon": -105.327, "n": 1, "art": 10, "url": "https://it.euronews.com/2026/07/04/anniversario-usa-trump-parla-di-grave-minaccia-del-comunismo-annullata-la-parata-a-washing"}, {"name": "Syria", "cc": "SY", "lat": 35.0, "lon": 38.0, "n": 3, "art": 16, "url": "https://www.thenation.com/article/activism/mahmoud-khalil-and-the-patriotism-of-dissent/"}, {"name": "Frienstedt, Th\u00fcn, Germany", "cc": "GM", "lat": 50.95, "lon": 10.9, "n": 1, "art": 10, "url": "https://www.yahoo.com/news/politics/articles/thousands-descend-german-city-halt-070428668.html"}, {"name": "Mali", "cc": "ML", "lat": 17.0, "lon": -4.0, "n": 1, "art": 10, "url": "https://www.sahilonline.net/rebel-faction-seizes-tmc-headquarters-in-kolkata"}, {"name": "Dublin, Dublin, Ireland", "cc": "EI", "lat": 53.333, "lon": -6.249, "n": 1, "art": 10, "url": "https://www.rte.ie/news/2026/0704/1581701-government-excise-cuts/"}, {"name": "Gaza City, Israel (general), Israel", "cc": "IS", "lat": 31.417, "lon": 34.333, "n": 3, "art": 6, "url": "https://www.whyisrael.org/jns-org/idf-kills-hamas-terrorist-who-abducted-capt-daniel-perez/"}, {"name": "Gaza Strip", "cc": "GZ", "lat": 31.425, "lon": 34.373, "n": 2, "art": 9, "url": "https://www.manar.com/page-51611-ar.html"}, {"name": "Urumchi, Xinjiang, China", "cc": "CH", "lat": 43.801, "lon": 87.6, "n": 1, "art": 2, "url": "https://ianslive.in/uyghur-groups-call-for-global-action-against-china-ahead-of-urumqi-massacre-anniversary--20260704123036"}, {"name": "Athens, Attik\u00edR, Greece", "cc": "GR", "lat": 37.983, "lon": 23.733, "n": 3, "art": 19, "url": "https://athens-times.com/kifissia-scammers-posing-as-power-company-staff-trick-elderly-woman-into-handing-over-e120000-in-cash-and-jewelry/"}, {"name": "Snoqualmie, Washington, United States", "cc": "US", "lat": 47.529, "lon": -121.825, "n": 2, "art": 8, "url": "https://www.spokesman.com/stories/2026/jul/04/battles-over-energy-projects-are-erupting-across-w/"}, {"name": "Kolkata, West Bengal, India", "cc": "IN", "lat": 22.57, "lon": 88.37, "n": 1, "art": 10, "url": "https://aninews.in/news/business/ds-group-to-launch-marriott-internationals-w-hotels-brand-in-ncr20260704122747/"}, {"name": "Guatemala", "cc": "GT", "lat": 15.5, "lon": -90.25, "n": 1, "art": 10, "url": "https://www.prensalibre.com/economia/la-inversion-en-movilidad-debe-convertirse-en-una-prioridad-de-estado-afirma-jorge-briz-de-la-ccg/"}, {"name": "Maranello, Emilia-Romagna, Italy", "cc": "IT", "lat": 44.533, "lon": 10.867, "n": 1, "art": 10, "url": "https://www.zazoom.it/2026-07-04/energia-elettrica-in-forte-calo-prezzo-pun-oggi-a-0105-e-kwh-4-luglio-2026/19422081/"}, {"name": "Tirana, Tirane, Albania", "cc": "AL", "lat": 41.328, "lon": 19.819, "n": 11, "art": 99, "url": "https://www.jamaicaobserver.com/2026/07/04/tens-thousands-rally-albania-trump-linked-resort-project/"}, {"name": "Kremlin, Moskva, Russia", "cc": "RS", "lat": 55.752, "lon": 37.616, "n": 4, "art": 15, "url": "https://www.lanacion.com.ar/el-mundo/carceles-torturas-y-una-represion-cada-vez-mas-feroz-dentro-de-rusia-nid04072026/"}, {"name": "Bashkortostan, Bashkortostan, Russia", "cc": "RS", "lat": 56.245, "lon": 56.252, "n": 1, "art": 10, "url": "https://www.bashinform.ru/news/economy/2026-07-04/v-bashkirskih-dyurtyulyah-obnovili-kolledzh-na-170-mln-rubley-4658400"}, {"name": "Russia", "cc": "RS", "lat": 60.0, "lon": 100.0, "n": 9, "art": 72, "url": "https://spnfa.ir/20260704/%D8%B1%D9%88%D8%B3%DB%8C%D9%87-%D8%AF%D8%B3%D8%AA-%D8%A8%D8%B1%D8%AA%D8%B1-%D9%86%D8%B8%D8%A7%D9%85%DB%8C-%D8%B1%D8%A7-%D8%AF%D8%A7%D8%B1%D8%AF-30170642.html"}, {"name": "Hungary", "cc": "HU", "lat": 47.0, "lon": 20.0, "n": 1, "art": 10, "url": "https://www.jdsupra.com:443/legalnews/extreme-heat-at-work-when-can-employees-6491636/"}, {"name": "Johannesburg, Gauteng, South Africa", "cc": "SF", "lat": -26.2, "lon": 28.083, "n": 1, "art": 10, "url": "https://www.enca.com/top-stories/community-and-police-clashes-need-be-addressed-salga"}, {"name": "Thailand", "cc": "TH", "lat": 15.0, "lon": 100.0, "n": 2, "art": 8, "url": "https://phnompenhpost.com/national/new-thai-razor-wire-barricades-spark-fresh-diplomatic-protests/"}, {"name": "Preah Vihear, Preah Vih\u00e9, Cambodia", "cc": "CB", "lat": 13.75, "lon": 105.0, "n": 1, "art": 2, "url": "https://phnompenhpost.com/national/new-thai-razor-wire-barricades-spark-fresh-diplomatic-protests/"}, {"name": "Delhi, Delhi, India", "cc": "IN", "lat": 28.667, "lon": 77.217, "n": 3, "art": 30, "url": "https://www.rediff.com/news/report/cjp-urges-modi-to-break-silence-farmers-to-join-protest/20260704.htm"}, {"name": "Blagoveshchensk, Amurskaya Oblast', Russia", "cc": "RS", "lat": 50.267, "lon": 127.533, "n": 1, "art": 8, "url": "https://ampravda.ru/2026/07/04/elektrosamokaty-vernutsia-na-ulicy-blagoveshhenska-apelliacionnyi-sud-v-novosibirske-otmenil-zapret"}, {"name": "Novosibirsk, Novosibirskaya Oblast', Russia", "cc": "RS", "lat": 55.041, "lon": 82.934, "n": 1, "art": 4, "url": "https://ampravda.ru/2026/07/04/elektrosamokaty-vernutsia-na-ulicy-blagoveshhenska-apelliacionnyi-sud-v-novosibirske-otmenil-zapret"}, {"name": "Amaliada, Perifereia Dytikis Elladas, Greece", "cc": "GR", "lat": 37.8, "lon": 21.35, "n": 1, "art": 10, "url": "https://www.iefimerida.gr/ellada/ekrixi-apo-gkazaki-stin-eisodo-polykatoikias-stin-amaliada"}, {"name": "Pachpadra, Rajasthan, India", "cc": "IN", "lat": 25.917, "lon": 72.267, "n": 1, "art": 10, "url": "https://www.newkerala.com/news/a/bjp-governments-deliver-projects-not-just-promises-pm-225.htm"}, {"name": "Victoria Falls, Matabeleland North, Zimbabwe", "cc": "ZI", "lat": -17.924, "lon": 25.843, "n": 1, "art": 10, "url": "http://www.rnanews.com/powertel-and-paratus-zimbabwe-switch-on-new-digital-highway/"}, {"name": "Konstantinovka, Primorskiy Kray, Russia", "cc": "RS", "lat": 44.01, "lon": 131.381, "n": 1, "art": 8, "url": "https://tvzvezda.ru/news/2026741054-xYIGB.html"}, {"name": "Kashmir, North-West Frontier, Pakistan", "cc": "PK", "lat": 34.796, "lon": 72.15, "n": 3, "art": 15, "url": "https://www.pakistanlink.org/Headlines/July26/03/08.htm"}, {"name": "Jammu, Jammu and Kashmir, India", "cc": "IN", "lat": 32.733, "lon": 74.867, "n": 2, "art": 20, "url": "https://borgenproject.org/rouble-nagi/"}, {"name": "Algiers, Alger, Algeria", "cc": "AG", "lat": 36.763, "lon": 3.051, "n": 4, "art": 20, "url": "https://www.maghrebemergent.com/laeroport-dalger-attire-les-foules-et-se-hisse-parmi-les-cinq-premiers-dafrique/"}, {"name": "Anzio, Lazio, Italy", "cc": "IT", "lat": 41.45, "lon": 12.617, "n": 1, "art": 10, "url": "https://www.radioluna.it/news/2026/07/violenta-rapina-a-mano-armata-ad-anzio-arrestati-tre-ragazzi-due-sono-di-aprilia/"}, {"name": "Gottstedt, Th\u00fcn, Germany", "cc": "GM", "lat": 50.967, "lon": 10.917, "n": 3, "art": 25, "url": "https://www.breitbart.com/europe/2026/07/04/antifa-militants-clash-with-police-and-reporters-at-afd-conference-in-germany/"}, {"name": "Chisinau, Chisinau, Moldova", "cc": "MD", "lat": 47.006, "lon": 28.858, "n": 4, "art": 36, "url": "https://www.eurointegration.com.ua/news/2026/07/4/7240965/"}, {"name": "Switzerland", "cc": "SZ", "lat": 47.0, "lon": 8.0, "n": 7, "art": 30, "url": "https://www.rtn.ch/rtn/Actualite/Suisse/La-diaspora-albanaise-manifeste-a-Berne-contre-la-corruption.html"}, {"name": "Telangana, Andhra Pradesh, India", "cc": "IN", "lat": 18.0, "lon": 79.5, "n": 1, "art": 9, "url": "https://www.siasat.com/job-aspirants-detained-for-protesting-against-cm-in-hyderabad-3501187/"}, {"name": "Cape Town, Western Cape, South Africa", "cc": "SF", "lat": -33.917, "lon": 18.417, "n": 2, "art": 10, "url": "https://www.riotimesonline.com/south-africa-anti-migrant-unrest-2026/"}, {"name": "Mirpur, Bangladesh (general), Bangladesh", "cc": "BG", "lat": 24.683, "lon": 90.2, "n": 1, "art": 3, "url": "https://www.bssnews.net/news-flash/402370"}, {"name": "Amra, Rangpur, Bangladesh", "cc": "BG", "lat": 25.421, "lon": 88.841, "n": 1, "art": 2, "url": "https://www.bssnews.net/news-flash/402370"}, {"name": "South Korea", "cc": "KS", "lat": 37.0, "lon": 127.5, "n": 2, "art": 20, "url": "https://cyfrowa.rp.pl/ai/art44760531-nadciaga-kryzys-chipow-eksperci-ostrzegaja-przed-historycznymi-niedoborami"}, {"name": "Japan", "cc": "JA", "lat": 36.0, "lon": 138.0, "n": 1, "art": 10, "url": "https://www.inewsgr.com/359/to-exypno-iaponiko-kolpo-pou-drosizei-to-aftokinito-se-liga-defterolepta-choris-ti-chrisi-klimatistikou.htm"}, {"name": "Copenhagen, K\u00f8avn*, Denmark", "cc": "DA", "lat": 55.667, "lon": 12.583, "n": 4, "art": 10, "url": "https://cphpost.dk/2026-07-04/news/round-up/odense-residents-want-clear-answers-on-larvae-invasion/"}, {"name": "Iran", "cc": "IR", "lat": 32.0, "lon": 53.0, "n": 11, "art": 70, "url": "https://www.in.gr/2026/07/05/economy/diethnis-oikonomia/i-ameriki-einai-isxyri-alla-xanei-ti-kyriarxia-tis/"}, {"name": "Navy Pier, Illinois, United States", "cc": "US", "lat": 41.892, "lon": -87.605, "n": 2, "art": 8, "url": "https://chicago.suntimes.com/photography/2026/07/04/top-photos-of-week-pride-heat-supreme-court-birthright-immigration"}, {"name": "Chicago, Illinois, United States", "cc": "US", "lat": 41.85, "lon": -87.65, "n": 4, "art": 17, "url": "https://www.chip.pl/2026/07/fuzja-jadrowa-prad-bezposrednio-z-plazmy"}, {"name": "Pennsylvania, United States", "cc": "US", "lat": 40.577, "lon": -77.264, "n": 7, "art": 26, "url": "https://lancasteronline.com/news/local/revolutionary-war-officers-notebook-long-held-by-lancaster-family-revealed-orders-for-july-4/article_d1fbf6f6-f571-481f-b10a-c91ad409cc7e.html"}, {"name": "Portland, Oregon, United States", "cc": "US", "lat": 45.523, "lon": -122.676, "n": 2, "art": 10, "url": "https://reason.com/2026/07/04/brickbats-july-2026/"}, {"name": "Rome, Lazio, Italy", "cc": "IT", "lat": 41.9, "lon": 12.483, "n": 7, "art": 50, "url": "https://www.jalopnik.com/2206827/vespa-spent-first-decade-racing/"}, {"name": "Vlora, Vlore, Albania", "cc": "AL", "lat": 40.467, "lon": 19.49, "n": 1, "art": 10, "url": "https://albeu.com/lajme/mijera-qytetare-ne-shesh-kerkojne-doreheqjen-e-kryeministrit-marjana-koceku-per-bbc-rama-nuk-frymezon-me-kjo-e-ka-cuar-ne-nje-krize-te-madhe-legjitimiteti/911064/"}, {"name": "Phoenix, Arizona, United States", "cc": "US", "lat": 33.448, "lon": -112.074, "n": 3, "art": 10, "url": "https://thestarphoenix.com/category/news/saskatchewan-news/saskatchewan-politics/"}, {"name": "Molsdorf, Th\u00fcn, Germany", "cc": "GM", "lat": 50.9, "lon": 10.967, "n": 1, "art": 60, "url": "https://www.chelmsfordweeklynews.co.uk/news/national/26253217.far-right-afd-party-elects-leaders-protesters-police-clash-germany/"}, {"name": "Vilnius, Vilniaus Apskritis, Lithuania", "cc": "LH", "lat": 54.683, "lon": 25.317, "n": 1, "art": 2, "url": "https://www.delfi.lt/naujienos/lietuvoje/po-sunaus-protesto-prie-vilniaus-televizijos-boksto-arkadijaus-vinokuro-atsakas-120272249"}, {"name": "Bolivia", "cc": "BL", "lat": -17.0, "lon": -65.0, "n": 2, "art": 20, "url": "http://www.em.com.br/internacional/2026/07/7455130-lider-campones-organizador-de-protestos-e-detido-na-bolivia.html"}, {"name": "Mauritius", "cc": "MP", "lat": 16.0, "lon": 146.0, "n": 2, "art": 10, "url": "https://g1.globo.com/rs/rio-grande-do-sul/noticia/2026/07/04/caso-gabriel-condenados-morte-de-jovem-sao-gabriel.ghtml"}, {"name": "Kairouan, Al Qayrawan, Tunisia", "cc": "TS", "lat": 35.678, "lon": 10.096, "n": 3, "art": 10, "url": "https://www.lapresse.tn/2026/07/04/otjm-condamnation-ferme-des-agressions-survenues-aux-chu-fatouma-bourguiba-de-monastir-et-ibn-jazar-de-kairouan/"}, {"name": "Cagliari, Sardegna, Italy", "cc": "IT", "lat": 39.217, "lon": 9.117, "n": 1, "art": 10, "url": "https://quifinanza.it/info-utili/scioperi/scioperi-6-12-luglio-2026-date-orari/1006482/"}, {"name": "Alghero, Sardegna, Italy", "cc": "IT", "lat": 40.559, "lon": 8.318, "n": 1, "art": 10, "url": "https://quifinanza.it/info-utili/scioperi/scioperi-6-12-luglio-2026-date-orari/1006482/"}, {"name": "Biratnagar, Nepal (general), Nepal", "cc": "NP", "lat": 26.469, "lon": 87.284, "n": 1, "art": 10, "url": "https://www.ratopati.com/story/574888/durgadevi-the-creator-who-never-went-to-school-but-taught-society-a-lesson"}, {"name": "Sudan", "cc": "SU", "lat": 16.0, "lon": 30.0, "n": 2, "art": 8, "url": "https://www.radiotamazuj.org/en/news/article/akobo-residents-protest-over-delayed-humanitarian-cash-assistance"}, {"name": "Akobo, Wilayat Junqoley, South Sudan", "cc": "OD", "lat": 7.788, "lon": 33.005, "n": 1, "art": 10, "url": "https://www.radiotamazuj.org/en/news/article/akobo-residents-protest-over-delayed-humanitarian-cash-assistance"}, {"name": "Darfur, Gharb Darfur, Sudan", "cc": "SU", "lat": 13.5, "lon": 23.5, "n": 1, "art": 1, "url": "https://www.aol.co.uk/articles/situation-terrible-aid-workers-life-112818000.html"}, {"name": "Egypt", "cc": "EG", "lat": 27.0, "lon": 30.0, "n": 1, "art": 1, "url": "https://www.aol.co.uk/articles/situation-terrible-aid-workers-life-112818000.html"}, {"name": "Agrigento, Sicilia, Italy", "cc": "IT", "lat": 37.317, "lon": 13.567, "n": 1, "art": 6, "url": "https://www.zazoom.it/2026-07-04/scienze-della-formazione-primaria-2026-tutto-quello-che-ce-da-sapere-sul-nuovo-test-dell11-settembre/19422820/"}, {"name": "Citta Di Castello, Umbria, Italy", "cc": "IT", "lat": 43.45, "lon": 12.233, "n": 1, "art": 4, "url": "https://www.zazoom.it/2026-07-04/scienze-della-formazione-primaria-2026-tutto-quello-che-ce-da-sapere-sul-nuovo-test-dell11-settembre/19422820/"}, {"name": "Jerusalem, Israel (general), Israel", "cc": "IS", "lat": 31.767, "lon": 35.233, "n": 3, "art": 19, "url": "https://www.israelnationalnews.com/news/429626"}, {"name": "Kano, Kano, Nigeria", "cc": "NI", "lat": 11.996, "lon": 8.517, "n": 2, "art": 10, "url": "https://quicknews-africa.net/nigerias-future-hinges-on-youth-discipline-army-commander/"}, {"name": "Kyoto, Kyoto, Japan", "cc": "JA", "lat": 35.0, "lon": 135.75, "n": 1, "art": 10, "url": "https://h24info.ma/culture/chroniques/le-japon-le-pays-de-ma-mere/"}, {"name": "Guelph, Ontario, Canada", "cc": "CA", "lat": 43.55, "lon": -80.25, "n": 1, "art": 4, "url": "https://www.cbc.ca/news/canada/kitchener-waterloo/jasmine-mangalaseril-haskap-berry-9.7256090"}, {"name": "Korchyn, L'vivs'ka Oblast', Ukraine", "cc": "UP", "lat": 49.097, "lon": 23.525, "n": 1, "art": 10, "url": "https://tvoemisto.tv/uk/news/6112-na-49-mu-rotsi-zhyttya-pomerla-pomerla-dotsentka-fakultetu-zhurnalistyky-lvivskoho-universytetu"}, {"name": "Pirogov, Vinnyts'ka Oblast', Ukraine", "cc": "UP", "lat": 48.907, "lon": 28.482, "n": 1, "art": 6, "url": "https://vn.20minut.ua/DTP/vechirnya-dtp-na-pirogova--do-likarni-dopravili-23-richnu-divchinu-12000831.html"}, {"name": "Vinnitsa, Vinnyts'ka Oblast', Ukraine", "cc": "UP", "lat": 49.233, "lon": 28.481, "n": 1, "art": 8, "url": "https://vn.20minut.ua/DTP/vechirnya-dtp-na-pirogova--do-likarni-dopravili-23-richnu-divchinu-12000831.html"}, {"name": "London, London, City of, United Kingdom", "cc": "UK", "lat": 51.5, "lon": -0.117, "n": 5, "art": 30, "url": "https://www.in.gr/2026/07/04/go-fun/prigkipas-xari-solo-sti-vretania-xoris-megkan-kai-paidia-o-efialtis-kai-to-paraskinio-tis-apofasis/"}, {"name": "Islamabad, Islamabad, Pakistan", "cc": "PK", "lat": 33.7, "lon": 73.167, "n": 1, "art": 2, "url": "https://www.moneycontrol.com/world/jaac-calls-for-complete-pok-shutdown-on-july-5-alleges-crackdown-by-pakistani-authorities-article-13966041.html"}, {"name": "Kashmiri, Punjab, Pakistan", "cc": "PK", "lat": 32.039, "lon": 73.751, "n": 1, "art": 2, "url": "https://www.moneycontrol.com/world/jaac-calls-for-complete-pok-shutdown-on-july-5-alleges-crackdown-by-pakistani-authorities-article-13966041.html"}, {"name": "Kargil, Jammu and Kashmir, India", "cc": "IN", "lat": 34.567, "lon": 76.1, "n": 2, "art": 20, "url": "https://www.tribuneindia.com/news/spectrum/new-army-uniforms-2026-regulations-are-about-memory-identity/"}, {"name": "Caracas, Distrito Federal, Venezuela", "cc": "VE", "lat": 10.5, "lon": -66.917, "n": 1, "art": 10, "url": "https://oglobo.globo.com/mundo/noticia/2026/07/03/quase-metade-dos-venezuelanos-defende-novas-eleicoes-apos-terremotos-aponta-pesquisa.ghtml"}, {"name": "Rio Grande Do Sul, Rio Grande do Sul, Brazil", "cc": "BR", "lat": -32.033, "lon": -52.083, "n": 1, "art": 8, "url": "https://www.correiodopovo.com.br/gastronomia/colunistas/andreiagentilini/gastronomia-japonesa-sabores-do-inverno-com-sushi-e-vinhos-1.1728024"}, {"name": "Zenica, Federation of Bosnia and Herzegovina, Bosnia-Herzegovina", "cc": "BK", "lat": 43.315, "lon": 17.684, "n": 1, "art": 10, "url": "https://www.slobodna-bosna.ba/vijest/493419/malverzacije_u_neumu_udar_hdz_a_na_tuzlanskog_giganta_ne_postuju_ni_sudske_presude.html"}, {"name": "Yaounde, Centre, Cameroon", "cc": "CM", "lat": 3.867, "lon": 11.517, "n": 1, "art": 10, "url": "https://www.camer.be/93836/6:1/cameroun-la-police-infiltree-une-ceremonie-de-rasage-letat-a-peur-dune-barbe-cameroon.html"}, {"name": "Finland", "cc": "FI", "lat": 64.0, "lon": 26.0, "n": 1, "art": 10, "url": "https://www.lavozdegalicia.es/noticia/cultura/2026/07/03/poca-calma-medio-tempestad-ofrecio-tercer-dia-resurrection-fest/00031783108566933843418.htm"}, {"name": "Yanan, Shaanxi, China", "cc": "CH", "lat": 36.599, "lon": 109.492, "n": 1, "art": 5, "url": "https://www.spotlightnepal.com/2026/07/04/cpc-105-chinese-ambassador-proposes-four-point-cooperation-framework-nepal/"}, {"name": "Zvernec, Vlore, Albania", "cc": "AL", "lat": 40.515, "lon": 19.417, "n": 2, "art": 20, "url": "https://www.botasot.info/shqiperia/2502454/le-monde-edi-rama-perballet-me-revolten-me-serioze/"}, {"name": "Shkodra, Qarku Shkoder, Albania", "cc": "AL", "lat": 42.068, "lon": 19.513, "n": 1, "art": 10, "url": "https://dritare.net/rama-per-bbc-protestat-jane-shenje-e-nje-demokracie-te-shendetshme-i789411"}, {"name": "Schaffhausen, Bayern, Germany", "cc": "GM", "lat": 48.967, "lon": 10.567, "n": 1, "art": 10, "url": "https://www.swissinfo.ch/eng/swiss-ai/ai-data-centre-in-beringen-schaffhausen-activists-relocate-their-camp/91698269"}, {"name": "Zurich, Z\u00fcSZ, Switzerland", "cc": "SZ", "lat": 47.367, "lon": 8.55, "n": 1, "art": 10, "url": "https://www.swissinfo.ch/eng/swiss-ai/ai-data-centre-in-beringen-schaffhausen-activists-relocate-their-camp/91698269"}, {"name": "Philadelphia, Pennsylvania, United States", "cc": "US", "lat": 39.952, "lon": -75.164, "n": 4, "art": 17, "url": "https://www.fox29.com/news/ibew-local-614-enacts-first-strike-peco-history"}, {"name": "La Union, Murcia, Spain", "cc": "SP", "lat": 37.619, "lon": -0.878, "n": 1, "art": 10, "url": "https://www.laopiniondemurcia.es/comunidad/2026/07/04/vecinos-portman-cortan-carretera-protestar-sellado-bahia-132119850.html"}, {"name": "Kerala, Kerala, India", "cc": "IN", "lat": 10.0, "lon": 76.5, "n": 2, "art": 11, "url": "https://www.thehindu.com/news/national/fresh-political-support-pours-in-on-15th-day-of-cjp-protest-student-hospitalised/article71183637.ece"}, {"name": "Tbilisi, Georgia (general), Georgia", "cc": "GG", "lat": 41.725, "lon": 44.791, "n": 3, "art": 12, "url": "https://www.eng.kavkaz-uzel.eu/articles/76664"}, {"name": "Mosalla, Khorasan-e Ra?avi, Iran", "cc": "IR", "lat": 36.198, "lon": 57.698, "n": 4, "art": 8, "url": "https://www.ibtimes.co.uk/iran-mourns-ayatollah-khamenei-calls-revenge-1806806"}, {"name": "South Dakota, United States", "cc": "US", "lat": 44.285, "lon": -99.463, "n": 4, "art": 12, "url": "https://www.kotatv.com/2026/07/04/no-protesters-appear-trumps-mount-rushmore-fireworks-six-years-after-clash-resulted-arrests/"}, {"name": "Baku, Baki*, Azerbaijan", "cc": "AJ", "lat": 40.395, "lon": 49.882, "n": 1, "art": 10, "url": "https://www.eng.kavkaz-uzel.eu/articles/76657"}, {"name": "Tanzania", "cc": "TZ", "lat": -6.0, "lon": 35.0, "n": 1, "art": 10, "url": "https://fr.allafrica.com/stories/202607040091.html"}, {"name": "Venezuela", "cc": "VE", "lat": 8.0, "lon": -66.0, "n": 6, "art": 30, "url": "https://tucson.com/news/local/border/article_093fe62d-acfb-41cd-b16b-aa13747d524b.html"}, {"name": "Castlebar, Mayo, Ireland", "cc": "EI", "lat": 53.85, "lon": -9.3, "n": 1, "art": 2, "url": "https://www.midwestradio.ie/news/national-hunger-strike-commemoration-launched-in-castlebar/"}, {"name": "Progni, Qarku Elbasan, Albania", "cc": "AL", "lat": 41.061, "lon": 19.762, "n": 1, "art": 3, "url": "https://albaniandailynews.com/news/19-arrested-after-violent-clashes-outside-albania-s-parliament"}, {"name": "Muriqan, Qarku Shkoder, Albania", "cc": "AL", "lat": 42.015, "lon": 19.403, "n": 1, "art": 10, "url": "https://www.syri.net/politike/900972/syri-tv-diaspora-zbarkon-ne-shqiperi-per-proteste-kolona-te-gjata-ne-kufi-per-protesten-e-sotme/"}, {"name": "Monastir, Al Munastir, Tunisia", "cc": "TS", "lat": 35.783, "lon": 10.833, "n": 3, "art": 10, "url": "https://directinfo.webmanagercenter.com/2026/07/04/tunisie-les-jeunes-medecins-protestent-apres-de-nouvelles-agressions-a-monastir-et-kairouan/"}, {"name": "Warsaw, (PL67), Poland", "cc": "PL", "lat": 52.25, "lon": 21.0, "n": 5, "art": 23, "url": "https://weeklyblitz.net/2026/07/05/kyivs-post-maidan-project-has-created-multiple-fronts-of-tension-well-beyond-russia/"}, {"name": "South Africa", "cc": "SF", "lat": -30.0, "lon": 26.0, "n": 6, "art": 32, "url": "https://www.teletica.com/deutsche-welle/mas-de-56000-zimbabuenses-vuelven-a-su-pais-huyendo-de-los-ataques-xenofobos-en-sudafrica_412893"}, {"name": "Ciudad Juarez, M\u00e9co, Mexico", "cc": "MX", "lat": 31.733, "lon": -106.483, "n": 2, "art": 20, "url": "https://masnoticias.net/toman-protesta-las-nuevas-dirigencias-del-irh-y-onmpri-de-ciudad-juarez/"}, {"name": "Brasilia, Distrito Federal, Brazil", "cc": "BR", "lat": -15.783, "lon": -47.917, "n": 1, "art": 10, "url": "https://www.vanguardia.com/mundo/2026/07/04/tribunal-supremo-de-brasil-mantuvo-arresto-domiciliario-a-bolsonaro/"}, {"name": "Albuquerque, New Mexico, United States", "cc": "US", "lat": 35.084, "lon": -106.651, "n": 2, "art": 8, "url": "https://www.lrb.co.uk/the-paper/v48/n13/rebecca-solnit/before-1776"}, {"name": "New Mexico, United States", "cc": "US", "lat": 34.837, "lon": -106.237, "n": 1, "art": 2, "url": "https://www.lrb.co.uk/the-paper/v48/n13/rebecca-solnit/before-1776"}, {"name": "Karabakh, Dagestan, Russia", "cc": "RS", "lat": 42.469, "lon": 46.864, "n": 3, "art": 8, "url": "https://www.ra.am/archives/64256/"}, {"name": "Vosges, France (general), France", "cc": "FR", "lat": 48.5, "lon": 7.167, "n": 2, "art": 10, "url": "https://www.franceinfo.fr/tour-de-france/hommes/direct-tour-de-france-2026-qui-endossera-le-premier-maillot-jaune-a-barcelone-suivez-le-contre-la-montre-par-equipes-inaugural-avec-tadej-pogacar-jonas-vingegaard-et-paul-seixas_8093831.html"}, {"name": "Serbia", "cc": "RI", "lat": 44.0, "lon": 21.0, "n": 2, "art": 18, "url": "https://www.danas.rs/dijalog/licni-stavovi/sledece-godine-preskocite-vidovdan/"}, {"name": "Tarbes, Midi-Pyr\u00e9es, France", "cc": "FR", "lat": 43.233, "lon": 0.083, "n": 1, "art": 8, "url": "https://www.ladepeche.fr/2026/07/04/mort-de-lyhanna-les-viols-que-nous-subissons-ne-sont-pas-des-stocks-a-gerer-pres-de-cent-personnes-manifestent-dans-les-rues-de-tarbes-contre-les-13453164.php"}, {"name": "Sindelfingen, Baden-W\u00fcberg, Germany", "cc": "GM", "lat": 48.7, "lon": 9.017, "n": 2, "art": 10, "url": "http://www.thejakartapost.com/business/2026/07/04/mercedes-demos-set-stage-for-wave-of-german-auto-protests"}, {"name": "Cairo, Al Qahirah, Egypt", "cc": "EG", "lat": 30.05, "lon": 31.25, "n": 1, "art": 5, "url": "https://dailygalaxy.com/2026/07/egyptian-stone-disk-modern-hubcap/"}, {"name": "Balochistan, Balochistan, Pakistan", "cc": "PK", "lat": 28.479, "lon": 65.644, "n": 5, "art": 40, "url": "https://aninews.in/news/world/europe/baloch-activist-ends-hunger-strike-in-london-demanding-uk-government-action-on-pakistan20260704193414/"}, {"name": "Beit Shean, Ha?afon, Israel", "cc": "IS", "lat": 32.5, "lon": 35.5, "n": 1, "art": 10, "url": "https://www.haaretz.co.il/news/politi/2026-07-04/ty-article/0000019f-2d6a-d746-adff-ff6b47f10000"}, {"name": "Lima, Lima, Peru", "cc": "PE", "lat": -12.05, "lon": -77.05, "n": 1, "art": 10, "url": "https://nikvesti.com/news/municipal/320665-u-mikolaievi-na-vulitsi-kosmonavtiv-proryvy-kanalizatsii"}, {"name": "Serhat, \u00c7nakkale, Turkey", "cc": "TU", "lat": 39.739, "lon": 26.703, "n": 1, "art": 5, "url": "https://instinctmagazine.com/pride-turkey-detain-50-lgbtq/"}, {"name": "Thomas Academy, Washington, United States", "cc": "US", "lat": 47.35, "lon": -122.23, "n": 1, "art": 8, "url": "https://www.ewtnnews.com/world/us/12-catholic-americans-who-helped-shape-the-united-states"}, {"name": "Maryland, United States", "cc": "US", "lat": 39.072, "lon": -76.79, "n": 2, "art": 5, "url": "https://www.cathstan.org/voices/a-july-4-remembrance-of-americas-catholic-founding-father"}, {"name": "India", "cc": "IN", "lat": 20.0, "lon": 77.0, "n": 5, "art": 40, "url": "https://www.tribuneindia.com/news/reflections/the-cruellest-taxing-month/"}, {"name": "Khagrachari, Bangladesh (general), Bangladesh", "cc": "BG", "lat": 23.1, "lon": 91.967, "n": 1, "art": 10, "url": "https://www.dailynayadiganta.com/bangladesh/country-news/Qz64Q5XLt6Mq"}, {"name": "Louth, Louth, Ireland", "cc": "EI", "lat": 53.949, "lon": -6.541, "n": 1, "art": 10, "url": "https://www.rte.ie/news/dublin/2026/0704/1581767-ukrainians-citywest/"}, {"name": "Ikpoba, Nigeria (general), Nigeria", "cc": "NI", "lat": 6.35, "lon": 5.65, "n": 2, "art": 10, "url": "https://quicknews-africa.net/army-takes-free-healthcare-to-edo-community-treats-over-3000-residents/"}, {"name": "Ranchi, Jharkhand, India", "cc": "IN", "lat": 23.35, "lon": 85.333, "n": 1, "art": 10, "url": "https://indianexpress.com/article/india/ranchi-hospital-death-case-hemant-soren-probe-medical-negligence-billing-10771638/"}, {"name": "Lezha, Qarku i Lezhes, Albania", "cc": "AL", "lat": 41.784, "lon": 19.644, "n": 1, "art": 10, "url": "https://www.hashtag.al/index.php/2026/07/04/autokolona-e-diaspores-mberrin-ne-lezhe-nis-mobilizimi-per-protesten-e-35-te-para-kryeministrise/"}, {"name": "Los Angeles, California, United States", "cc": "US", "lat": 34.052, "lon": -118.244, "n": 1, "art": 10, "url": "https://www.lavanguardia.com/local/madrid/20260704/11584447/protesta-desalojo-casa-arabe-escuelas-aguirre-madrid.html"}, {"name": "As Iran, Az\u00afarbayjan-e Sharqi, Iran", "cc": "IR", "lat": 39.025, "lon": 47.07, "n": 1, "art": 10, "url": "https://lactualite.com/actualites/debut-des-ceremonies-funeraires-du-defunt-guide-supreme-de-liran-ali-khamenei/"}, {"name": "Kosovo", "cc": "KV", "lat": 42.583, "lon": 21.0, "n": 2, "art": 10, "url": "https://albeu.com/lajme/bllokohet-pika-kufitare-e-morines-kolona-kilometrike-ne-kufirin-me-shqiperine/911644/"}, {"name": "Castries, Castries, Saint Lucia", "cc": "ST", "lat": 14.0, "lon": -61.0, "n": 1, "art": 4, "url": "https://www.jamaicaobserver.com/2026/07/04/pierre-calls-stronger-regional-unity-caricom-day/"}, {"name": "Karnataka, Karnataka, India", "cc": "IN", "lat": 13.5, "lon": 76.0, "n": 1, "art": 4, "url": "https://www.thehindu.com/news/cities/Tiruchirapalli/anbumani-calls-upon-youth-of-tamil-nadu-to-protest-against-karnataka-plan-to-build-dam-at-mekedatu/article71182547.ece"}, {"name": "Great Salt Lake, Utah, United States", "cc": "US", "lat": 41.164, "lon": -112.548, "n": 4, "art": 10, "url": "https://www.eastidahonews.com/2026/07/a-waterless-ai-data-center-a-big-experiment-is-under-way-in-rural-utah/"}, {"name": "Calcasieu, Louisiana, United States", "cc": "US", "lat": 31.09, "lon": -92.712, "n": 1, "art": 5, "url": "https://www.tickerreport.com/banking-finance/13495692/biloxi-marsh-lands-otcmktsblmc-and-venture-global-nysevg-critical-comparison.html"}, {"name": "Visakhapatnam, Andhra Pradesh, India", "cc": "IN", "lat": 17.7, "lon": 83.3, "n": 1, "art": 10, "url": "https://www.deccanchronicle.com/southern-states/andhra-pradesh/students-protest-proposed-liquor-sales-at-visakhapatnam-beaches-1968404"}, {"name": "Jakarta, Jakarta Raya, Indonesia", "cc": "ID", "lat": -6.174, "lon": 106.829, "n": 1, "art": 10, "url": "https://www.beritasatu.com/lifestyle/3008131/isi-3-petisi-boikot-sarwendah-desak-brand-hingga-tv-putus-kontrak"}, {"name": "Majitha, Punjab, India", "cc": "IN", "lat": 31.758, "lon": 74.954, "n": 1, "art": 2, "url": "https://www.tribuneindia.com/news/amritsar/bikram-majithia-2-associates-granted-regular-bail-in-majitha-police-station-storming-case/"}, {"name": "Sussex, East Sussex, United Kingdom", "cc": "UK", "lat": 50.917, "lon": -0.083, "n": 2, "art": 10, "url": "https://www.express.co.uk/news/royal/2225367/security-threats-stopping-prince-harry-uk-visit"}, {"name": "Manila, Manila, Philippines", "cc": "RP", "lat": 14.604, "lon": 120.982, "n": 2, "art": 26, "url": "https://www.manilatimes.net/2026/07/05/news/both-sides-ready-for-vp-saras-impeachment-trial/2378481"}, {"name": "Moldova", "cc": "MD", "lat": 47.0, "lon": 29.0, "n": 1, "art": 10, "url": "https://www.dw.com/ru/v-kisineve-prekratil-rabotu-russkij-dom/a-77832730"}, {"name": "Saint-Brieuc, Bretagne, France", "cc": "FR", "lat": 48.511, "lon": -2.766, "n": 3, "art": 10, "url": "https://saint-brieuc.maville.com/actu/actudet_-pourquoi-ils-sont-venus-en-famille-manifester-a-saint-brieuc-contre-les-violences-faites-aux-femmes-et-aux-enfants-_fil-7391965_actu.Htm"}, {"name": "Cyprus", "cc": "CY", "lat": 35.0, "lon": 33.0, "n": 3, "art": 20, "url": "https://engineeringevil.com/2013/03/23/cyprus-troika-agree-to-20-tax-on-deposits-over-100000-euros-at-bank-of-cyprus/"}, {"name": "Ratnagiri, Orissa, India", "cc": "IN", "lat": 20.633, "lon": 86.333, "n": 1, "art": 1, "url": "https://www.prokerala.com/news/articles/a1783877.html"}, {"name": "Tadgaon, Maharashtra, India", "cc": "IN", "lat": 18.469, "lon": 72.977, "n": 1, "art": 4, "url": "https://www.prokerala.com/news/articles/a1783877.html"}, {"name": "Kinabalu, Sabah, Malaysia", "cc": "MY", "lat": 5.975, "lon": 116.072, "n": 1, "art": 10, "url": "https://www.theborneopost.com/2026/07/04/gempur-rasuah-sabah-rally-outlines-four-key-demands-during-kota-kinabalu-city-march/"}, {"name": "Belfast, Belfast, United Kingdom", "cc": "UK", "lat": 54.583, "lon": -5.933, "n": 1, "art": 8, "url": "https://www.irishnews.com/news/northern-ireland/pro-life-rally-protests-new-council-bye-laws-aimed-at-noise-nuisance-and-graphic-imagery-in-belfast-city-centre-D55QAYO2RNDONCJX4G6O6M7WGM/"}, {"name": "Sweida, As Suwayda', Syria", "cc": "SY", "lat": 32.709, "lon": 36.569, "n": 1, "art": 2, "url": "https://www.thenationalnews.com/news/mena/2026/07/04/syria-begins-public-trials-over-deadly-2025-violence-in-sweida/"}, {"name": "Lviv, L'vivs'ka Oblast', Ukraine", "cc": "UP", "lat": 49.841, "lon": 24.03, "n": 2, "art": 10, "url": "https://gazeta.ua/articles/life/_zaskliti-pislya-obstriliv-teper-dorogo-v-ukrayini-na-40-podorozhchali-plastikovi-vikna/1253929"}, {"name": "Bangkok, Krung Thep Mahanakhon, Thailand", "cc": "TH", "lat": 13.75, "lon": 100.517, "n": 1, "art": 20, "url": "https://www.jugantor.com/bank/1122370"}, {"name": "Belgium", "cc": "BE", "lat": 50.833, "lon": 4.0, "n": 2, "art": 16, "url": "https://www.patrisnews.com/voles-tis-athinas-onasi-gia-ton-proin-dikigoro-tis-poy-ergazetai-pleon-gia-tin-etaireia-tops/"}, {"name": "Slovak Republic", "cc": "LO", "lat": 48.667, "lon": 19.5, "n": 2, "art": 20, "url": "https://bitacora.com.uy/los-eslovacos-votan-en-referendum-sobre-los-pagos-vitalicios-para-el-lider-populista-fico/"}, {"name": "Nandigram, West Bengal, India", "cc": "IN", "lat": 22.017, "lon": 87.967, "n": 1, "art": 10, "url": "https://www.thehindu.com/news/national/west-bengal/mamata-hits-out-at-trinamool-rebels-dares-them-to-join-bjp/article71183544.ece"}, {"name": "Karnaphuli, Chittagong, Bangladesh", "cc": "BG", "lat": 22.221, "lon": 91.807, "n": 1, "art": 10, "url": "https://www.dailynayadiganta.com/bangladesh/country-news/ydi943hHCh6U"}, {"name": "Belgrade, Serbia (general),", "cc": "RB", "lat": 44.819, "lon": 20.468, "n": 3, "art": 30, "url": "http://www.nspm.rs/hronika/beograd-pod-sloganom-jedan-tri-jedan-dva-%E2%80%93-sluge-okupatora-odrzan-protest-ispred-policijske-uprave-u-rakovici-okupljeni-zatrazili-smenu-nacelnika-milana-pekovica.html"}, {"name": "Turkey", "cc": "TU", "lat": 39.059, "lon": 34.912, "n": 1, "art": 10, "url": "https://www.inewsgr.com/441/germania-i-sygkrousi-ton-akron--akroaristeroi-epitethikan-se-synedrio-tis-AfD.htm"}, {"name": "Mashhad, (IR30), Iran", "cc": "IR", "lat": 36.297, "lon": 59.606, "n": 1, "art": 7, "url": "https://www.hindustantimes.com/world-news/us-news/trump-takes-jibe-at-iran-as-us-grants-week-off-for-ali-khamenis-funeral-they-re-dying-to-101783180911971.html"}, {"name": "Lalmonirhat District, Rangpur, Bangladesh", "cc": "BG", "lat": 26.0, "lon": 89.25, "n": 1, "art": 4, "url": "https://dailyinqilab.com/national/news/912616"}, {"name": "Bangladesh", "cc": "BG", "lat": 24.0, "lon": 90.0, "n": 1, "art": 10, "url": "https://dailyinqilab.com/bangladesh/news/912669"}, {"name": "Barranquilla, Atl\u00e1ico, Colombia", "cc": "CO", "lat": 10.964, "lon": -74.796, "n": 1, "art": 10, "url": "https://www.eluniversal.com.co/regional/atlantico/2026/07/04/hoy-no-abrieron-sus-negocios-los-comerciantes-y-tenderos-de-soledad-y-sur-de-barranquilla/"}, {"name": "Narbonne, Languedoc-Roussillon, France", "cc": "FR", "lat": 43.184, "lon": 3.009, "n": 1, "art": 10, "url": "https://www.bfmtv.com/podcasts/la-question-info/edouard-philippe-parvient-il-a-s-imposer-en-tant-que-candidat-a-l-election-presidentielle_EN-202607040352.html"}, {"name": "Wloclawek, Kujawsko-Pomorskie, Poland", "cc": "PL", "lat": 52.651, "lon": 19.073, "n": 1, "art": 2, "url": "https://www.niedziela.pl/artykul/125722/Znak-lez"}, {"name": "Namibia", "cc": "WA", "lat": -22.0, "lon": 17.0, "n": 1, "art": 10, "url": "https://www.ansa.it/sito/notizie/cronaca/2026/07/04/accadeoggi_dd38a7d3-309c-4e12-a6b9-d7b1590e0cf6.html"}, {"name": "Cidu, Jilong Shi, Taiwan", "cc": "TW", "lat": 25.097, "lon": 121.713, "n": 1, "art": 6, "url": "https://www.taipeitimes.com/News/taiwan/archives/2026/07/05/2003860264"}, {"name": "Port Harcourt, Rivers, Nigeria", "cc": "NI", "lat": 4.789, "lon": 6.999, "n": 3, "art": 9, "url": "https://www.thetidenewsonline.com/2021/05/"}, {"name": "Rivers State, Rivers, Nigeria", "cc": "NI", "lat": 4.75, "lon": 6.833, "n": 1, "art": 2, "url": "https://www.thetidenewsonline.com/2015/03/"}, {"name": "Ethiope, Delta, Nigeria", "cc": "NI", "lat": 5.9, "lon": 5.692, "n": 1, "art": 5, "url": "https://www.thetidenewsonline.com/2015/04/"}, {"name": "Niger Delta, Nigeria (general), Nigeria", "cc": "NI", "lat": 4.833, "lon": 6.0, "n": 1, "art": 3, "url": "https://www.thetidenewsonline.com/2020/08/"}, {"name": "Lebanon", "cc": "LE", "lat": 33.833, "lon": 35.833, "n": 1, "art": 10, "url": "https://www.haberler.com/guncel/berlin-de-filistin-e-destek-gosterisi-isgale-son-verin-20019921-haberi/"}, {"name": "Chalon, Bourgogne, France", "cc": "FR", "lat": 46.789, "lon": 4.849, "n": 2, "art": 10, "url": "https://www.ici.fr/bourgogne-franche-comte/saone-et-loire-71/chalon-sur-saone/on-ne-lachera-pas-des-manifestants-determines-a-la-marche-contre-les-violences-sexuelles-a-chalon-sur-saone-5427379"}, {"name": "Istanbul, Istanbul, Turkey", "cc": "TU", "lat": 41.019, "lon": 28.965, "n": 1, "art": 10, "url": "https://www.skai.gr/news/world/pos-to-bromance-tramp-erntogan-enisxyei-ti-thesi-tis-tourkias-sto-nato"}, {"name": "Offaly, Offaly, Ireland", "cc": "EI", "lat": 53.25, "lon": -7.5, "n": 1, "art": 10, "url": "https://www.nova.ie/ukrainian-residents-of-the-citywest-hotel-must-leave-by-september/"}, {"name": "Bicol, Camarines Sur, Philippines", "cc": "RP", "lat": 13.359, "lon": 123.337, "n": 1, "art": 6, "url": "https://www.manilatimes.net/2026/07/05/news/national/palace-vows-hands-off-marcoleta-case/2378472"}, {"name": "Navotas, Laoag, Philippines", "cc": "RP", "lat": 18.231, "lon": 120.563, "n": 3, "art": 8, "url": "https://www.manilatimes.net/2026/07/05/news/national/palace-vows-hands-off-marcoleta-case/2378472"}, {"name": "Suriname", "cc": "NS", "lat": 4.0, "lon": -56.0, "n": 1, "art": 10, "url": "https://www.waterkant.net/suriname/2026/07/04/schoten-gelost-bij-halskettingroof-vrouw-staat-uit-vrees-haar-ketting-af/"}, {"name": "Milan, Lombardia, Italy", "cc": "IT", "lat": 45.467, "lon": 9.2, "n": 2, "art": 20, "url": "https://www.jugantor.com/tp-lastpage/1122407"}, {"name": "Romania", "cc": "RO", "lat": 46.0, "lon": 25.0, "n": 1, "art": 10, "url": "https://www.dcnews.ro/2-milioane-de-romani-sub-18-ani-sunt-in-strainatate-ce-ne-dorim-sa-mentinem-exodul-romanilor-sau-sa-oprim-fenomenul_1066811.html"}, {"name": "La Bastille, Rh\u00f4Alpes, France", "cc": "FR", "lat": 45.2, "lon": 5.725, "n": 1, "art": 10, "url": "https://www.yahoo.com/news/world/articles/thousands-protesters-march-throughout-france-182013470.html"}, {"name": "Pompeii, Campania, Italy", "cc": "IT", "lat": 40.75, "lon": 14.483, "n": 1, "art": 10, "url": "https://www.metropolisweb.it/2026/07/04/poggiomarino-longola-riparte-gli-incendi/"}, {"name": "Lahore, Punjab, Pakistan", "cc": "PK", "lat": 31.55, "lon": 74.344, "n": 1, "art": 5, "url": "https://tribune.com.pk/story/2616479/quota-clash-sparks-bureaucratic-tensions"}, {"name": "Pukalani, Hawaii, United States", "cc": "US", "lat": 20.837, "lon": -156.337, "n": 2, "art": 6, "url": "https://mauinow.com/2026/07/04/on-250th-anniversary-of-united-states-native-hawaiians-remember-struggle-to-keep-their-own-history-alive/"}, {"name": "Hawaii, United States", "cc": "US", "lat": 21.11, "lon": -157.531, "n": 2, "art": 3, "url": "https://mauinow.com/2026/07/04/on-250th-anniversary-of-united-states-native-hawaiians-remember-struggle-to-keep-their-own-history-alive/"}, {"name": "Netherlands", "cc": "NL", "lat": 52.5, "lon": 5.75, "n": 1, "art": 4, "url": "https://www.patrisnews.com/voles-tis-athinas-onasi-gia-ton-proin-dikigoro-tis-poy-ergazetai-pleon-gia-tin-etaireia-tops/"}, {"name": "Demiraj, Qarku Shkoder, Albania", "cc": "AL", "lat": 42.18, "lon": 19.475, "n": 1, "art": 2, "url": "https://gazetadielli.com/gezuar-diten-e-pavaresise-shteteve-te-bashkuara-te-amerikes/"}, {"name": "Gandhinagar, Gujarat, India", "cc": "IN", "lat": 23.217, "lon": 72.683, "n": 1, "art": 3, "url": "https://timesofindia.indiatimes.com/city/ahmedabad/youth-will-power-ai-with-made-in-india-chips-modi/articleshow/132187035.cms"}, {"name": "Colombo, Western, Sri Lanka", "cc": "CE", "lat": 6.932, "lon": 79.848, "n": 1, "art": 4, "url": "https://www.sundaytimes.lk/260705/columns/judiciary-in-the-spotlight-as-opposition-mounts-over-govt-bid-to-extend-judges-retirement-age-648359.html"}, {"name": "Pune, Maharashtra, India", "cc": "IN", "lat": 18.533, "lon": 73.867, "n": 1, "art": 6, "url": "https://timesofindia.indiatimes.com/city/pune/teachers-organisations-in-maha-to-hold-statewide-protest-against-tet-exam-negligence-on-july-9/articleshow/132187137.cms"}, {"name": "Vukovar, Vukovarsko-Srijemska, Croatia", "cc": "HR", "lat": 45.343, "lon": 19.0, "n": 1, "art": 2, "url": "https://www.nacional.hr/mladi-jastreb-u-drzavnom-ztc-u-moju-sigurnosnu-provjeru-rijesit-ce-andrej-plenkovic-i-tomo-medved/"}, {"name": "Plaza De Espana, Andaluc\u00edSP, Spain", "cc": "SP", "lat": 37.377, "lon": -5.987, "n": 1, "art": 10, "url": "https://www.publico.es/mujer/miles-personas-exigen-manifestacion-orgullo-lgtbiq-pacto-discursos-odio-queda-mucho-camino.html"}, {"name": "Ivano-Frankivsk, Ivano-Frankivs'ka Oblast', Ukraine", "cc": "UP", "lat": 48.922, "lon": 24.71, "n": 2, "art": 20, "url": "https://styknews.info/novyny/novyny/2026/07/04/v-ivano-frankivsku-provedut-v-ostanniu-put-serzhanta-vasylia-rozumnoho-hrafik-proshchannia-ta-marshrut-khody"}, {"name": "Rustavi, Georgia (general), Georgia", "cc": "GG", "lat": 41.55, "lon": 44.993, "n": 1, "art": 10, "url": "https://www.eng.kavkaz-uzel.eu/articles/76664"}, {"name": "Arizona, United States", "cc": "US", "lat": 33.771, "lon": -111.388, "n": 1, "art": 3, "url": "https://tucson.com/news/local/subscriber/article_6a6af104-87dc-4b0c-ae79-dc5acbafd2a1.html"}, {"name": "Kavkasia, Georgia (general), Georgia", "cc": "GG", "lat": 42.0, "lon": 45.0, "n": 1, "art": 2, "url": "https://www.eng.kavkaz-uzel.eu/articles/76664"}, {"name": "Dnipropetrovsk, Dnipropetrovs'ka Oblast', Ukraine", "cc": "UP", "lat": 48.463, "lon": 35.039, "n": 1, "art": 10, "url": "https://www.facenews.ua/news/2026/534941/"}, {"name": "Guayaquil, Guayas, Ecuador", "cc": "EC", "lat": -2.167, "lon": -79.9, "n": 1, "art": 10, "url": "https://www.expreso.ec/guayaquil/quinto-puente-moradores-guasmo-vuelven-protestar-expropiaciones-288079.html"}, {"name": "Orseg, Vas, Hungary", "cc": "HU", "lat": 46.917, "lon": 16.5, "n": 1, "art": 10, "url": "https://www.vajma.info/cikk/magyarorszag/27892/Magyar-Peter-A-kormany-neveben-benyujtottam-az-Alaptorveny-17_-modositasat.html"}, {"name": "Volyn, Ukraine (general), Ukraine", "cc": "UP", "lat": 51.0, "lon": 26.0, "n": 1, "art": 4, "url": "https://iz.ru/2127256/2026-07-04/v-varshave-proshel-marsh-pamiati-zhertv-volynskoi-rezni"}, {"name": "Slovenia", "cc": "SI", "lat": 46.25, "lon": 15.167, "n": 1, "art": 10, "url": "https://www.ladepeche.fr/2026/07/04/tour-de-france-2026-pourquoi-tadej-pogacar-porte-le-maillot-a-pois-a-lissue-du-contre-la-montre-par-equipes-et-pourquoi-cela-envoie-un-signal-fort-13453459.php"}, {"name": "Baghdad, Baghdad, Iraq", "cc": "IZ", "lat": 33.339, "lon": 44.394, "n": 1, "art": 8, "url": "https://www.nrk.no/urix/xl/khamenei-begraves-i-iran-1.17947248"}, {"name": "Georgia, United States", "cc": "US", "lat": 32.987, "lon": -83.649, "n": 3, "art": 8, "url": "https://www.lanacion.com.ar/el-mundo/carceles-torturas-y-una-represion-cada-vez-mas-feroz-dentro-de-rusia-nid04072026/"}, {"name": "Sanaa, San\u0091a', Yemen", "cc": "YM", "lat": 15.355, "lon": 44.207, "n": 1, "art": 10, "url": "https://www.alriyadh.com/2196469"}, {"name": "Uttar Pradesh, Uttar Pradesh, India", "cc": "IN", "lat": 27.25, "lon": 80.75, "n": 1, "art": 5, "url": "https://www.tribuneindia.com/news/india/rss-bjp-shedding-crocodile-tears-over-ram-temple-donation-theft-congress/"}, {"name": "La Paz, La Paz, Bolivia", "cc": "BL", "lat": -16.5, "lon": -68.15, "n": 1, "art": 10, "url": "https://www.erbol.com.bo/seguridad/aprehenden-vicente-salazar-uno-de-los-l%C3%ADderes-de-los-bloqueos"}, {"name": "Dnipro, Ukraine (general), Ukraine", "cc": "UP", "lat": 46.498, "lon": 32.309, "n": 1, "art": 10, "url": "https://glavcom.ua/world/observe/postrazhdalij-u-monako-biznesmen-jermolajev-vijshov-z-komi-1129631.html"}, {"name": "District of Columbia, United States", "cc": "US", "lat": 38.896, "lon": -77.026, "n": 1, "art": 2, "url": "https://truthout.org/articles/defiance-against-trump-drives-rise-of-democratic-socialist-in-dc-mayors-race/"}, {"name": "Morocco", "cc": "MO", "lat": 32.0, "lon": -5.0, "n": 1, "art": 10, "url": "https://www.at5.nl/artikelen/238989/uitzinnige-marokko-fans-na-ruime-overwinning-op-canada-ben-trots-op-alle-marokkanen"}, {"name": "Madlanga, Eastern Cape, South Africa", "cc": "SF", "lat": -30.982, "lon": 29.263, "n": 1, "art": 3, "url": "https://www.timeslive.co.za/opinion/2026-07-04-barney-mthombothi-mkhwanazi-hero-maverick-or-loose-cannon/"}, {"name": "Ekiti State, Ekiti, Nigeria", "cc": "NI", "lat": 7.667, "lon": 5.25, "n": 1, "art": 4, "url": "https://www.thisdaylive.com/2026/07/04/state-police-all-36-states-in-full-support-and-will-give-it-speedy-approval-says-oyebanji/"}, {"name": "Dakar, Dakar, Senegal", "cc": "SG", "lat": 14.737, "lon": -17.634, "n": 1, "art": 6, "url": "https://www.jalopnik.com/2206827/vespa-spent-first-decade-racing/"}, {"name": "Chapare, Cochabamba, Bolivia", "cc": "BL", "lat": -16.5, "lon": -65.5, "n": 1, "art": 10, "url": "https://www.diariolibre.com/mundo/america-latina/2026/07/04/detencion-de-lider-campesino-en-bolivia-por-protestas/3589436"}, {"name": "Caraballeda, Vargas, Venezuela", "cc": "VE", "lat": 10.611, "lon": -66.852, "n": 1, "art": 6, "url": "https://www.cubaheadlines.com/articles/334183"}, {"name": "Sussex, New Brunswick, Canada", "cc": "CA", "lat": 45.717, "lon": -65.517, "n": 1, "art": 10, "url": "https://ottawacitizen.com:443/news/young-girl-taken-to-hospital-in-critical-condition-after-fall-from-11th-floor-balcony"}, {"name": "Kamiina, Nagano, Japan", "cc": "JA", "lat": 35.841, "lon": 137.937, "n": 1, "art": 4, "url": "https://screenrant.com/crunchyroll-green-yuri-guy-she-was-interested-january-2027/"}, {"name": "Beirut, Beyrouth, Lebanon", "cc": "LE", "lat": 33.872, "lon": 35.51, "n": 1, "art": 3, "url": "https://www.arabnews.com/node/2649688"}, {"name": "Seoul, Soul-t'ukpyolsi, South Korea", "cc": "KS", "lat": 37.566, "lon": 127.0, "n": 1, "art": 10, "url": "https://www.hankookilbo.com/news/article/A2026070419480003493"}, {"name": "Kentriki Makedonia, Perifereia Kentrikis Makedonias, Greece", "cc": "GR", "lat": 40.833, "lon": 22.9, "n": 1, "art": 10, "url": "https://www.efsyn.gr/ellada/1420534/anexelegkti-i-fotia-sto-oraiokastro-thessalonikis-enishythikan-oi-dynameis-anafores-gia-ekrixeis-eikones/"}]