[{"name": "Tehran, Tehran, Iran", "cc": "IR", "lat": 35.75, "lon": 51.515, "n": 19, "art": 131, "url": "https://www.presstv.ir/Detail/2026/07/13/772189/Iran-Experts-Assembly-statement-Leader-revenge-call"}, {"name": "Morocco", "cc": "MO", "lat": 32.0, "lon": -5.0, "n": 5, "art": 30, "url": "https://www.prealpina.it/news/valli-e-laghi/520015/spunta-la-chat-mao-hunting-spariamogli.html"}, {"name": "Virginia, United States", "cc": "US", "lat": 37.768, "lon": -78.206, "n": 3, "art": 22, "url": "https://www.yahoo.com/news/us/articles/feds-launch-groundbreaking-electric-plane-092645122.html"}, {"name": "Mexico", "cc": "MX", "lat": 23.0, "lon": -102.0, "n": 10, "art": 64, "url": "https://www.excelsior.com.mx/nacional/senado-mexicano-protesta-muerte-lorenzo-salgado-manos-ice"}, {"name": "Alicante, Valenciana, Spain", "cc": "SP", "lat": 38.346, "lon": -0.488, "n": 1, "art": 10, "url": "https://www.eldiario.es/comunitat-valenciana/memoria-obrera/di-cat-brer_132_13374932.html"}, {"name": "Johannesburg, Gauteng, South Africa", "cc": "SF", "lat": -26.2, "lon": 28.083, "n": 15, "art": 62, "url": "https://www.winnipegfreepress.com/world/2026/07/13/more-than-53000-immigrants-have-been-deported-or-repatriated-by-south-africa-in-a-crackdown"}, {"name": "Hillbrow, Gauteng, South Africa", "cc": "SF", "lat": -26.189, "lon": 28.049, "n": 2, "art": 8, "url": "https://themedialine.org/by-region/south-africas-anti-immigrant-unrest-tests-its-pan-african-standing/"}, {"name": "Bahrain", "cc": "BA", "lat": 26.0, "lon": 50.5, "n": 3, "art": 12, "url": "https://globalpost.com/stories/gulf-monarchies-turn-iran-war-into-a-crackdown-on-shiites/"}, {"name": "Washington, District of Columbia, United States", "cc": "US", "lat": 38.895, "lon": -77.036, "n": 9, "art": 36, "url": "https://www.ciudadania-express.com/2026/politica/justicia-para-migrantes-mexicanos-exige-salomon-jara"}, {"name": "Gaza, Israel (general), Israel", "cc": "IS", "lat": 31.417, "lon": 34.333, "n": 15, "art": 63, "url": "https://www.jns.org/news/u-s-news/pen-america-president-resigns-in-protest-after-organization-shares-report-on-anti-jewish-discrimination"}, {"name": "Iran", "cc": "IR", "lat": 32.0, "lon": 53.0, "n": 17, "art": 121, "url": "https://www.elcorreo.com/opinion/pablo-martinez-zarracina-testar-franceses-20260714000639-nt.html"}, {"name": "Duqm, Al Wust\u00e1U, Oman", "cc": "MU", "lat": 19.65, "lon": 57.7, "n": 1, "art": 1, "url": "https://www.el-balad.com/17031899"}, {"name": "Nouakchott, Trarza, Mauritania", "cc": "MR", "lat": 18.119, "lon": -16.041, "n": 1, "art": 10, "url": "https://www.financialafrik.com/2026/07/13/regional-health-invest-forum-la-mauritanie-rejoint-la-foasps-et-affirme-ses-ambitions-africaines-a-la-veille-de-louverture-du-rendez-vous-de-nouakchott/"}, {"name": "Kyiv, Kyyiv, Misto, Ukraine", "cc": "UP", "lat": 50.433, "lon": 30.517, "n": 3, "art": 12, "url": "https://www.abc.net.au/news/2026-07-14/ukraine-and-allies-join-to-protect-europe-from-missiles/106911826"}, {"name": "Paris, France (general), France", "cc": "FR", "lat": 48.867, "lon": 2.333, "n": 9, "art": 49, "url": "https://www.abc.net.au/news/2026-07-14/ukraine-and-allies-join-to-protect-europe-from-missiles/106911826"}, {"name": "Guinea", "cc": "GV", "lat": 11.0, "lon": -10.0, "n": 1, "art": 4, "url": "https://www.batiactu.com/communique/independance-avec-fabien-l-adn-artisanal-est-une-force-156472.php"}, {"name": "Kiev, Ukraine (general), Ukraine", "cc": "UP", "lat": 50.433, "lon": 30.517, "n": 11, "art": 78, "url": "https://week.ukrainianwall.com/166897-berit-veliki-torbi-z-vivtorka-vsih-hto-zaraz-u-kiyevi-zabezpechat-produktami-grafiki-ta-adresi"}, {"name": "Dnipropetrovsk, Dnipropetrovs'ka Oblast', Ukraine", "cc": "UP", "lat": 48.463, "lon": 35.039, "n": 1, "art": 2, "url": "https://www.aol.co.uk/articles/ukraine-war-briefing-zelenskyy-replaces-004227000.html"}, {"name": "Syzran, Samarskaya Oblast', Russia", "cc": "RS", "lat": 53.158, "lon": 48.468, "n": 1, "art": 2, "url": "https://www.aol.co.uk/articles/ukraine-war-briefing-zelenskyy-replaces-004227000.html"}, {"name": "Bhaktapur, Nepal (general), Nepal", "cc": "NP", "lat": 27.673, "lon": 85.43, "n": 2, "art": 5, "url": "https://www.eurasiareview.com/13072026-nepal-the-first-100-days-promise-pace-and-a-test-of-governance-analysis/"}, {"name": "Beijing, Beijing, China", "cc": "CH", "lat": 39.929, "lon": 116.388, "n": 7, "art": 28, "url": "https://www.straitstimes.com/opinion/when-online-outrage-gets-in-the-way-of-beijings-diplomatic-outreach"}, {"name": "Manila, Manila, Philippines", "cc": "RP", "lat": 14.604, "lon": 120.982, "n": 2, "art": 5, "url": "https://www.manilatimes.net/2026/07/13/tmt-newswire/globenewswire/oxford-brain-diagnostics-advances-vision-for-measuring-brain-health-and-neurodegenerative-disease-with-five-new-studies-at-aaic-2026/2383097"}, {"name": "Romania", "cc": "RO", "lat": 46.0, "lon": 25.0, "n": 3, "art": 30, "url": "https://www.stiripesurse.ro/ultimatum-pentru-guvern-angajatii-din-finante-ies-din-nou-in-strada-si-ameninta-cu-blocarea-sistemului-actuala-lege-a-salarizarii-este-profund-dezavantajoasa_3902888"}, {"name": "Jakarta, Jakarta Raya, Indonesia", "cc": "ID", "lat": -6.174, "lon": 106.829, "n": 4, "art": 30, "url": "https://www.tribunnews.com/bisnis/7853690/petani-sawit-protes-program-b50-nilai-janji-pemerintah-ke-petani-masih-minim"}, {"name": "Brazil", "cc": "BR", "lat": -10.0, "lon": -55.0, "n": 1, "art": 10, "url": "https://www.kompas.com/global/read/2026/07/13/071359570/as-kembalikan-dua-patung-abad-ke-8-ke-indonesia-hasil-jarahan-douglas"}, {"name": "New Delhi, Delhi, India", "cc": "IN", "lat": 28.6, "lon": 77.2, "n": 9, "art": 57, "url": "https://www.theweek.in/theweek/current/2026/07/11/why-poks-anti-pakistan-uprising-is-a-missed-opportunity-for-india.html"}, {"name": "Dhaka, Dhaka, Bangladesh", "cc": "BG", "lat": 23.723, "lon": 90.409, "n": 1, "art": 2, "url": "https://www.orissapost.com/hasina-conundrum-2/"}, {"name": "Tirana, Tirane, Albania", "cc": "AL", "lat": 41.328, "lon": 19.819, "n": 8, "art": 54, "url": "https://gazetadielli.com/albanian-americans-support-the-protests-in-tirana/"}, {"name": "Athens, Attik\u00edR, Greece", "cc": "GR", "lat": 37.983, "lon": 23.733, "n": 8, "art": 82, "url": "https://www.sofokleousin.gr/epikairotita/ellada/athina-pote-stamata-o-daktylios-gia-to-kalokairi-kai-pote-epistre"}, {"name": "Northern Ireland, Craigavon, United Kingdom", "cc": "UK", "lat": 54.5, "lon": -6.5, "n": 4, "art": 14, "url": "https://www.breakingnews.ie/ireland/burning-effigies-and-flags-on-loyalist-bonfires-cannot-be-accepted-as-normal-1926373.html"}, {"name": "Lagos, Lagos, Nigeria", "cc": "NI", "lat": 6.453, "lon": 3.396, "n": 4, "art": 15, "url": "https://thesun.ng/afe-babalola-to-receive-honorary-doctor-of-laws-from-american-canadian-varsities/"}, {"name": "Aughnacloy, Dungannon, United Kingdom", "cc": "UK", "lat": 54.417, "lon": -6.967, "n": 4, "art": 4, "url": "https://www.aol.co.uk/articles/tens-thousands-set-streets-twelfth-014506000.html"}, {"name": "Sweden", "cc": "SW", "lat": 62.0, "lon": 15.0, "n": 17, "art": 99, "url": "https://www.diariojunio.com.ar/trabajadores-de-granja-tres-arroyos-profundizan-la-protesta-y-activan-el-fondo-de-huelga-ante-la-falta-de-respuestas/"}, {"name": "El Cobre, Santiago de Cuba, Cuba", "cc": "CU", "lat": 20.049, "lon": -75.947, "n": 7, "art": 27, "url": "https://www.cubaheadlines.com/articles/334947"}, {"name": "Matanzas, Matanzas, Cuba", "cc": "CU", "lat": 23.041, "lon": -81.578, "n": 2, "art": 10, "url": "https://www.cubaheadlines.com/articles/334943"}, {"name": "South Africa", "cc": "SF", "lat": -30.0, "lon": 26.0, "n": 8, "art": 58, "url": "https://www.africa.com/whats-happening/aubc-and-mtn-convene-high-level-dialogue-on-satellite-broadband-digital-inclusion-and-consumer-protection"}, {"name": "France", "cc": "FR", "lat": 46.0, "lon": 2.0, "n": 10, "art": 77, "url": "https://www.inewsgr.com/255/afto-einai-to-neo-stolidi-sto-gkaraz-tou-fernanto-alonso.htm"}, {"name": "Israel", "cc": "IS", "lat": 31.5, "lon": 34.75, "n": 27, "art": 167, "url": "https://kpfa.org/episode/womens-magazine-july-13-2026/"}, {"name": "Havana, Ciudad de La Habana, Cuba", "cc": "CU", "lat": 23.132, "lon": -82.364, "n": 1, "art": 8, "url": "https://www.cubaheadlines.com/articles/334951"}, {"name": "Miami, Florida, United States", "cc": "US", "lat": 25.774, "lon": -80.194, "n": 1, "art": 2, "url": "https://www.cubaheadlines.com/articles/334951"}, {"name": "Massachusetts, United States", "cc": "US", "lat": 42.237, "lon": -71.531, "n": 3, "art": 18, "url": "https://www.salemnews.com/news/nurses-return-to-work-after-weeklong-lockout/article_614588de-d087-5db5-95aa-99f9bcbec543.html"}, {"name": "Taiwan", "cc": "TW", "lat": 24.0, "lon": 121.0, "n": 1, "art": 10, "url": "https://www.abc.com.py/internacionales/2026/07/12/china-protesta-ante-japon-por-reivindicar-el-laudo-del-mar-de-china-meridional/"}, {"name": "Texas, United States", "cc": "US", "lat": 31.106, "lon": -97.647, "n": 4, "art": 32, "url": "https://slate.com/news-and-politics/2026/07/supreme-court-voting-tariffs-trump-shameless.html"}, {"name": "Zvernec, Vlore, Albania", "cc": "AL", "lat": 40.515, "lon": 19.417, "n": 1, "art": 4, "url": "https://www.cei.int/ansa/177775"}, {"name": "Caracas, Distrito Federal, Venezuela", "cc": "VE", "lat": 10.5, "lon": -66.917, "n": 5, "art": 34, "url": "https://runrun.es/rr-es-plus/614657/angel-pauso-su-vida-para-ayudar-en-los-rescates-de-la-guaira/"}, {"name": "Delhi, Delhi, India", "cc": "IN", "lat": 28.667, "lon": 77.217, "n": 19, "art": 109, "url": "https://www.rediff.com/news/report/wangchuk-loses-82-kg-as-fast-enters-16th-day-lives-at-stake-says-dipke/20260713.htm"}, {"name": "Kerala, Kerala, India", "cc": "IN", "lat": 10.0, "lon": 76.5, "n": 4, "art": 20, "url": "https://navbharattimes.indiatimes.com/india/sonam-wangchuk-hunger-strike-day-16-abhijeet-dipke-says-vo-mar-jayenge-alleged-tarpaulin-issue-delhi-police-jantar-mantar-cjp-protest/articleshow/132361847.cms"}, {"name": "Nasrapur, Maharashtra, India", "cc": "IN", "lat": 18.25, "lon": 73.9, "n": 2, "art": 10, "url": "https://www.rediff.com/news/report/security-guard-held-protests-erupt-after-sexual-assault-on-8-year-old-girl/20260713.htm"}, {"name": "California, United States", "cc": "US", "lat": 36.17, "lon": -119.746, "n": 7, "art": 37, "url": "https://www.dallasobserver.com/news/target-the-money-activists-say-love-field-ice-protests-are-working-40695657/"}, {"name": "Italy", "cc": "IT", "lat": 42.833, "lon": 12.833, "n": 9, "art": 68, "url": "https://www.ilmessaggero.it:443/economia/volkswagen_esce_allo_scoperto_rischio_altri_50_mila_posti-9649253.html"}, {"name": "United States", "cc": "US", "lat": 39.828, "lon": -98.579, "n": 17, "art": 113, "url": "https://www.diariolibre.com/revista/cultura/2026/07/13/protesta-en-palacio-de-buckingham-contra-el-exprincipe-andres/3598318"}, {"name": "India", "cc": "IN", "lat": 20.0, "lon": 77.0, "n": 3, "art": 13, "url": "https://timesofindia.indiatimes.com/city/bhubaneswar/no-violation-of-scriptures-related-to-lord-jagannath-iskcon-on-its-rath-yatras-abroad/articleshow/132365327.cms"}, {"name": "Budapest, Budapest, Hungary", "cc": "HU", "lat": 47.5, "lon": 19.083, "n": 8, "art": 53, "url": "https://www.maariv.co.il/news/world/article-1344172"}, {"name": "Mauritius", "cc": "MP", "lat": 16.0, "lon": 146.0, "n": 2, "art": 20, "url": "https://fr.allafrica.com/stories/202607130165.html"}, {"name": "Jhapa, Nepal (general), Nepal", "cc": "NP", "lat": 26.485, "lon": 87.856, "n": 2, "art": 16, "url": "https://kathmandupost.com/national/2026/07/13/police-actions-against-gen-z-activists-raise-concerns-over-shrinking-space-for-dissent"}, {"name": "Kathmandu, Bagmati, Nepal", "cc": "NP", "lat": 27.717, "lon": 85.317, "n": 9, "art": 46, "url": "https://www.indiablooms.com/world/nepal-erupts-again-gen-z-returns-to-streets-after-ride-sharing-drivers-death-sparks-fury-against-pm-balen-shah/details"}, {"name": "Suzhou, Jiangsu, China", "cc": "CH", "lat": 31.311, "lon": 120.618, "n": 1, "art": 2, "url": "https://www.bjreview.com/Business/202607/t20260701_800440936.html"}, {"name": "Poland", "cc": "PL", "lat": 52.0, "lon": 20.0, "n": 6, "art": 35, "url": "https://www.ynet.co.il/judaism/article/sjoio5mvze"}, {"name": "Kirtipur, Nepal (general), Nepal", "cc": "NP", "lat": 27.68, "lon": 85.275, "n": 6, "art": 45, "url": "https://kathmandupost.com/national/2026/07/13/squatter-children-endure-repeated-displacement-and-a-future-in-limbo"}, {"name": "White House, District of Columbia, United States", "cc": "US", "lat": 38.895, "lon": -77.036, "n": 4, "art": 13, "url": "https://colorlines.com/article/project/latest-ice-surge-political-violence"}, {"name": "Ficksburg, Free State, South Africa", "cc": "SF", "lat": -28.874, "lon": 27.881, "n": 2, "art": 10, "url": "https://www.businessday.co.za/opinion/2026-07-13-anthony-kaziboni-water-protests-expose-a-deeper-crisis-of-democratic-accountability/"}, {"name": "Morang District, Nepal (general), Nepal", "cc": "NP", "lat": 26.667, "lon": 87.5, "n": 2, "art": 10, "url": "https://economictimes.indiatimes.com/news/international/world-news/hundreds-protest-nepals-eviction-of-landless-squatters-as-activists-face-police-crackdown/articleshow/132356422.cms"}, {"name": "Germany", "cc": "GM", "lat": 51.5, "lon": 10.5, "n": 19, "art": 106, "url": "https://www.wsws.org/en/articles/2026/07/13/eese-j13.html"}, {"name": "Ituri, Congo, Democratic Republic of The (general), Democratic Republic Of The Congo", "cc": "CG", "lat": 1.85, "lon": 29.967, "n": 1, "art": 10, "url": "https://mizonews.net/world/14676/"}, {"name": "Bodinga, Jigawa, Nigeria", "cc": "NI", "lat": 11.345, "lon": 9.521, "n": 4, "art": 4, "url": "https://punchng.com/ghost-villages-the-sokoto-communities-that-disappeared-overnight/"}, {"name": "Jega, Kebbi, Nigeria", "cc": "NI", "lat": 12.217, "lon": 4.379, "n": 10, "art": 16, "url": "https://punchng.com/ghost-villages-the-sokoto-communities-that-disappeared-overnight/"}, {"name": "Madang, Madang, Papua New Guinea", "cc": "PP", "lat": -5.225, "lon": 145.797, "n": 1, "art": 2, "url": "https://www.thenational.com.pg/dwu-hosts-workshop-to-safeguard-linguistic-heritage/"}, {"name": "Leszno, Mazowieckie, Poland", "cc": "PL", "lat": 52.983, "lon": 20.917, "n": 1, "art": 10, "url": "https://wiadomosci.wp.pl/miliony-w-bloto-sztandarowa-instytucja-czasow-pis-rozliczona-7305976570407264a"}, {"name": "Belgium", "cc": "BE", "lat": 50.833, "lon": 4.0, "n": 1, "art": 10, "url": "https://www.dna.fr/sante/2026/07/13/la-mort-en-face"}, {"name": "Justicia, Santiago de Cuba, Cuba", "cc": "CU", "lat": 19.952, "lon": -75.751, "n": 2, "art": 14, "url": "https://www.cubaheadlines.com/articles/334956"}, {"name": "Chigubo, Gaza, Mozambique", "cc": "MZ", "lat": -22.829, "lon": 33.524, "n": 5, "art": 15, "url": "https://allafrica.com/stories/202607130068.html"}, {"name": "Cumbria, Cumbria, United Kingdom", "cc": "UK", "lat": 54.583, "lon": -2.833, "n": 1, "art": 5, "url": "https://www.thewestmorlandgazette.co.uk/news/26273280.kendal-farmers-market-gets-national-food-drink-award/"}, {"name": "Ciego, Provincia de Las Tunas, Cuba", "cc": "CU", "lat": 21.133, "lon": -77.067, "n": 1, "art": 2, "url": "https://www.cubaheadlines.com/articles/334956"}, {"name": "Rivers State, Rivers, Nigeria", "cc": "NI", "lat": 4.75, "lon": 6.833, "n": 3, "art": 8, "url": "https://leadership.ng/igho-sanomi-the-visionary-entrepreneur-who-built-an-african-energy-powerhouse/"}, {"name": "Agbor, Delta, Nigeria", "cc": "NI", "lat": 6.266, "lon": 6.151, "n": 1, "art": 2, "url": "https://leadership.ng/igho-sanomi-the-visionary-entrepreneur-who-built-an-african-energy-powerhouse/"}, {"name": "Calabar, Cross River, Nigeria", "cc": "NI", "lat": 4.952, "lon": 8.322, "n": 1, "art": 10, "url": "https://dailypost.ng/2026/07/13/nigerian-newspapers-10-things-you-need-to-know-monday-morning-138/"}, {"name": "Borno State, Borno, Nigeria", "cc": "NI", "lat": 11.5, "lon": 13.0, "n": 4, "art": 12, "url": "https://saharareporters.com/2026/07/12/rescue-abducted-borno-schoolchildren-too-coalition-northern-groups-tells-tinubu-hails"}, {"name": "Abuja, Abuja Federal Capital Territory, Nigeria", "cc": "NI", "lat": 9.083, "lon": 7.533, "n": 3, "art": 25, "url": "https://dailypost.ng/2026/07/13/appeal-court-upholds-order-stopping-inec-from-recognising-adc-state-congresses/"}, {"name": "Greece", "cc": "GR", "lat": 39.0, "lon": 22.0, "n": 3, "art": 30, "url": "https://www.ethnos.gr/Politics/article/414437/dhmoskophshgpoprothhnddeyterhhelasptoshgiapasokkaielpida"}, {"name": "Basij, Fars, Iran", "cc": "IR", "lat": 30.608, "lon": 53.187, "n": 1, "art": 2, "url": "https://www.winnipegfreepress.com/arts-and-life/life/faith/2026/07/13/iran-persecutes-its-bahai-minority-fiercely-in-a-year-of-protests-and-war-rights-groups-say"}, {"name": "Seoul, Soul-t'ukpyolsi, South Korea", "cc": "KS", "lat": 37.566, "lon": 127.0, "n": 2, "art": 8, "url": "https://www.prokerala.com/news/articles/a1787214.html"}, {"name": "Sumatra, Indonesia (general), Indonesia", "cc": "ID", "lat": 0.0, "lon": 102.0, "n": 1, "art": 10, "url": "https://regional.kompas.com/read/2026/07/13/122355078/mahasiswa-uin-padang-dijemput-aparat-kejati-usai-demo-jampidsus-kejati-itu"}, {"name": "Kashmiri, Punjab, Pakistan", "cc": "PK", "lat": 32.039, "lon": 73.751, "n": 7, "art": 36, "url": "https://organiser.org/2026/07/13/369682/world/pojk-protests-hit-white-house-as-kashmiri-diaspora-shouts-anti-pakistan-slogans-muzaffarabad-rises-against-abuse/"}, {"name": "Manzil, Balochistan, Pakistan", "cc": "PK", "lat": 29.25, "lon": 63.083, "n": 1, "art": 2, "url": "https://organiser.org/2026/07/13/369522/bharat/why-kashmiri-hindus-observe-july-13-as-black-day-the-history-behind-the-demand/"}, {"name": "Taganrog, Rostovskaya Oblast', Russia", "cc": "RS", "lat": 47.236, "lon": 38.897, "n": 1, "art": 10, "url": "https://war.obozrevatel.com/zona-mertvyih-korablej-stremitelnaya-operatsiya-ukrainyi-lishila-rossiyu-v-azovskom-more-deesposobnogo-tankernogo-flota.htm"}, {"name": "Dakar, Dakar, Senegal", "cc": "SG", "lat": 14.737, "lon": -17.634, "n": 1, "art": 10, "url": "https://senego.com/feminicides-au-senegal-9-femmes-tuees-depuis-janvier-les-feministes-reclament-des-actes-forts_1982664.html"}, {"name": "United Kingdom", "cc": "UK", "lat": 54.0, "lon": -4.0, "n": 15, "art": 143, "url": "https://www.dnes.bg/a/2-svyat/728329-obrat-razsledvaneto-za-smartta-na-bivshiya-britanski-ministar-se-poema-ot-antiteroristite"}, {"name": "Istanbul, Istanbul, Turkey", "cc": "TU", "lat": 41.019, "lon": 28.965, "n": 2, "art": 20, "url": "https://www.abc.com.py/internacionales/2026/07/13/turquia-detiene-a-casi-mil-personas-por-presunta-implicacion-en-el-golpe-de-2016/"}, {"name": "Florida, United States", "cc": "US", "lat": 27.833, "lon": -81.717, "n": 11, "art": 82, "url": "https://www.yahoo.com/news/politics/articles/now-know-manatee-elementary-recognized-222938833.html"}, {"name": "Rossnowlagh, Donegal, Ireland", "cc": "EI", "lat": 54.569, "lon": -8.211, "n": 5, "art": 16, "url": "https://www.el-balad.com/17031980"}, {"name": "Donegal, Donegal, Ireland", "cc": "EI", "lat": 54.65, "lon": -8.117, "n": 3, "art": 7, "url": "https://www.rte.ie/news/regional/2026/0713/1583051-orange-order-parades/"}, {"name": "Maynooth, Kildare, Ireland", "cc": "EI", "lat": 53.385, "lon": -6.594, "n": 1, "art": 1, "url": "https://www.irishtimes.com/ireland/2026/07/13/its-part-of-our-culture-sun-and-ice-cream-mark-orange-orders-rossnowlagh-parade/"}, {"name": "Heidelberg, Baden-W\u00fcberg, Germany", "cc": "GM", "lat": 48.317, "lon": 8.917, "n": 1, "art": 4, "url": "https://www.news.de/politik/859715628/demos-gegen-rechtsextremismus-gegen-afd-heute-montag-13-juli-2026-demonstrationen-koeln-bonn-dresden-goerlitz-trier-passau-duisburg-gera/1/"}, {"name": "Saxony, Sachsen, Germany", "cc": "GM", "lat": 51.0, "lon": 13.0, "n": 1, "art": 6, "url": "https://www.news.de/politik/859715628/demos-gegen-rechtsextremismus-gegen-afd-heute-montag-13-juli-2026-demonstrationen-koeln-bonn-dresden-goerlitz-trier-passau-duisburg-gera/1/"}, {"name": "Belgrade, Serbia (general),", "cc": "RB", "lat": 44.819, "lon": 20.468, "n": 2, "art": 12, "url": "https://naslovi.net/2026-07-13/masina/napadi-na-vise-aktivista-zivimo-u-atmosferi-gde-svako-moze-biti-napadnut-bilo-zbog-politicke-represije-ili-hira-nasilnika/42080908"}, {"name": "Turkey", "cc": "TU", "lat": 39.059, "lon": 34.912, "n": 2, "art": 26, "url": "https://www.inewsgr.com/351/to-kke-fernei-stin-komision-tin-agria-katastoli-ton-antinatoikon-kinitopoiiseon-stin-tourkia.htm"}, {"name": "Cabo Delgado, Cabo Delgado, Mozambique", "cc": "MZ", "lat": -10.707, "lon": 40.633, "n": 1, "art": 10, "url": "https://allafrica.com/stories/202607130122.html"}, {"name": "Pune, Maharashtra, India", "cc": "IN", "lat": 18.533, "lon": 73.867, "n": 3, "art": 7, "url": "https://www.freepressjournal.in/pune/beed-23-year-old-murdered-over-old-rivalry-in-ambajogai-5-detained"}, {"name": "Boss In, Mecklenburg-Vorpommern, Germany", "cc": "GM", "lat": 53.867, "lon": 14.1, "n": 1, "art": 10, "url": "https://www.focus.de/politik/deutschland/linken-chefin-schwerdtner-liefert-im-ard-sommerinterview-statt-loesungen-nur-billigen-populismus_bcb8862f-4108-4f78-8734-f47a5048aa52.html"}, {"name": "Volhynia, Ukraine (general), Ukraine", "cc": "UP", "lat": 51.0, "lon": 26.0, "n": 2, "art": 10, "url": "https://dorzeczy.pl/opinie/913981/dudek-broni-slow-lukasiewicza-powiedzial-racjonalnie.html"}, {"name": "China", "cc": "CH", "lat": 35.0, "lon": 105.0, "n": 7, "art": 64, "url": "https://dailyinqilab.com/national/article/916186"}, {"name": "Maiduguri, Borno, Nigeria", "cc": "NI", "lat": 11.846, "lon": 13.16, "n": 1, "art": 10, "url": "https://dailytrust.com/parents-of-abducted-borno-pupils-mount-pressure-after-oyo-rescue/"}, {"name": "Caerleon, Newport, United Kingdom", "cc": "UK", "lat": 51.613, "lon": -2.959, "n": 1, "art": 6, "url": "https://www.express.co.uk/news/uk/2228369/m4-traffic-live-crash-j25-j25-delays"}, {"name": "Kolkata, West Bengal, India", "cc": "IN", "lat": 22.57, "lon": 88.37, "n": 2, "art": 15, "url": "https://www.thehindu.com/news/national/west-bengal/calcutta-high-court-to-hear-tmc-mamata-banerjee-led-factions-petition-for-permission-for-rally-on-july-15/article71216927.ece"}, {"name": "Hungary", "cc": "HU", "lat": 47.0, "lon": 20.0, "n": 13, "art": 77, "url": "https://unn.ua/ru/news/vengerskii-parlament-odobril-popravku-kotoraya-fakticheski-prekrashchaet-polnomochiya-prezidenta"}, {"name": "Cuba", "cc": "CU", "lat": 22.0, "lon": -79.5, "n": 3, "art": 28, "url": "https://planoinformativo.com/1156927/crisis-severa-protestas-a-diario-y-presos-politicos-cuba-luego-de-cinco-anos-del-11j"}, {"name": "Portugal", "cc": "PO", "lat": 39.5, "lon": -8.0, "n": 4, "art": 40, "url": "https://jornaleconomico.sapo.pt/noticias/abrir-uma-empresa-em-portugal-demora-horas/"}, {"name": "Petersburg, Sankt-Peterburg, Russia", "cc": "RS", "lat": 59.894, "lon": 30.264, "n": 2, "art": 20, "url": "https://www.obozrevatel.com/ukr/ekonomika-glavnaya/economy/zavod-z-irlandii-postachae-v-rosiyu-kritichnu-sirovinu-dlya-raket-rozsliduvannya-viyavilo-masshtabnu-shemu.htm"}, {"name": "Cyprus", "cc": "CY", "lat": 35.0, "lon": 33.0, "n": 2, "art": 20, "url": "https://www.politis.com.cy/auto/1018884/to-aplo-kolpo-poy-meiwnei-tin-katanalosi-venzinis-stoys-dromoys-tis-kyproy"}, {"name": "Alpena County, Michigan, United States", "cc": "US", "lat": 45.033, "lon": -83.65, "n": 1, "art": 10, "url": "https://www.thealpenanews.com/news/2026/07/montmorency-county-police-update-18/"}, {"name": "Ankara, Ankara, Turkey", "cc": "TU", "lat": 39.927, "lon": 32.864, "n": 8, "art": 35, "url": "https://www.brightonandhovenews.org/2026/07/13/brighton-woman-on-hunger-strike-in-turkey-after-nato-summit-protest-arrest/"}, {"name": "Qeshm, Kordestan, Iran", "cc": "IR", "lat": 35.442, "lon": 47.351, "n": 3, "art": 8, "url": "https://www.omanobserver.om/article/1192746/world/region/us-iran-strikes-latest-developments"}, {"name": "Oman", "cc": "MU", "lat": 21.0, "lon": 57.0, "n": 1, "art": 2, "url": "https://www.omanobserver.om/article/1192746/world/region/us-iran-strikes-latest-developments"}, {"name": "Busoga, Bugiri, Uganda", "cc": "UG", "lat": 0.5, "lon": 33.65, "n": 1, "art": 4, "url": "https://en.people.cn/n3/2026/0713/c98649-20477041.html"}, {"name": "Kuwait", "cc": "KU", "lat": 29.5, "lon": 47.75, "n": 5, "art": 40, "url": "https://www.newkerala.com/news/a/kuwait-condemns-attacks-its-basra-consulate-urges-iraq-837.htm"}, {"name": "Yiwu, Zhejiang, China", "cc": "CH", "lat": 30.14, "lon": 119.397, "n": 2, "art": 10, "url": "http://spanish.china.org.cn/txt/2026-07/13/content_118596600.htm"}, {"name": "Warsaw, (PL67), Poland", "cc": "PL", "lat": 52.25, "lon": 21.0, "n": 1, "art": 10, "url": "https://forsal.pl/kraj/aktualnosci/artykuly/11275078,zakaz-wykonywania-obowiazkow-podczas-upalow-jezeli-wymagane-warunki-nie-zostana-spelnione-firma-bedzie-musiala-wstrzymac-dzialalnosc.html"}, {"name": "Nagaland, Nagaland, India", "cc": "IN", "lat": 26.0, "lon": 94.25, "n": 1, "art": 10, "url": "https://orissadiary.com/national-conference-on-nextgen-administrative-e-gov-reforms-to-be-held-in-shillong-on-13-14-july-2026/"}, {"name": "Mumbai, Maharashtra, India", "cc": "IN", "lat": 18.975, "lon": 72.826, "n": 8, "art": 44, "url": "https://www.mid-day.com/mumbai/mumbai-news/article/maharashtra-pan-vendors-announce-statewide-protest-on-july-14-over-alleged-use-of-mcoca-23639603"}, {"name": "Cairo, Al Qahirah, Egypt", "cc": "EG", "lat": 30.05, "lon": 31.25, "n": 1, "art": 10, "url": "https://www.vetogate.com/5692323"}, {"name": "Qatar", "cc": "QA", "lat": 25.5, "lon": 51.25, "n": 4, "art": 28, "url": "https://www.mk.ru/culture/2026/07/13/lichnye-istorii-snyatye-zhenshhinami-luchshaya-glukhaya-iz-ispanii.html"}, {"name": "Lebanon", "cc": "LE", "lat": 33.833, "lon": 35.833, "n": 1, "art": 10, "url": "https://www.almanar.com.lb/article/1017047/"}, {"name": "Khayelitsha, Western Cape, South Africa", "cc": "SF", "lat": -34.039, "lon": 18.679, "n": 3, "art": 10, "url": "https://www.citizen.co.za/news/power-outage-protests-shut-down-soweto-these-roads-are-affected/"}, {"name": "Anatolia, Turkey (general), Turkey", "cc": "TU", "lat": 39.0, "lon": 35.0, "n": 1, "art": 6, "url": "https://www.hurriyetdailynews.com/turkish-olive-oil-legacy-introduced-to-international-culinary-world-224303"}, {"name": "Minneapolis, Minnesota, United States", "cc": "US", "lat": 44.98, "lon": -93.264, "n": 1, "art": 10, "url": "https://www.wsws.org/en/articles/2026/07/13/jthq-j13.html"}, {"name": "Spain", "cc": "SP", "lat": 40.0, "lon": -4.0, "n": 3, "art": 24, "url": "https://www.calibre800.com/2026/07/13/colectivo-exige-respuestas-sobre-la-coleccion-gelman/"}, {"name": "Brussels, Bruxelles-Capitale, Belgium", "cc": "BE", "lat": 50.833, "lon": 4.333, "n": 2, "art": 20, "url": "https://top-channel.tv/2026/07/13/live-dita-e-44-te-e-tubimit-ne-tirane-qytetaret-marshojne-ne-rruget-e-kryeqytetit-nuk-do-te-terhiqemi-deri-ne-shtator3232323/"}, {"name": "Budanov, Ternopil's'ka Oblast', Ukraine", "cc": "UP", "lat": 49.162, "lon": 25.709, "n": 1, "art": 8, "url": "https://vz.ru/world/2026/7/13/1434339.html"}, {"name": "Kincardine, Fife, United Kingdom", "cc": "UK", "lat": 56.067, "lon": -3.717, "n": 1, "art": 6, "url": "https://www.scottishconstructionnow.com/articles/scottish-national-investment-bank-expands-housing-commitment-in-sector-agnostic-strategy"}, {"name": "Adamawa, Nigeria (general), Nigeria", "cc": "NI", "lat": 11.483, "lon": 10.967, "n": 1, "art": 10, "url": "https://leadership.ng/tinubus-renomination-of-shettima-signals-stability-continuity-namdas/"}, {"name": "Battaramulla, Western, Sri Lanka", "cc": "CE", "lat": 6.896, "lon": 79.918, "n": 1, "art": 6, "url": "https://srilankamirror.com/news/wildlife-officials-fall-sick-today/"}, {"name": "Vadodara, Gujarat, India", "cc": "IN", "lat": 22.3, "lon": 73.2, "n": 1, "art": 10, "url": "https://indianexpress.com/article/cities/ahmedabad/protests-against-adani-power-project-farmers-to-hold-a-padyatra-in-morbi-on-july-14-submit-a-representation-to-collector-against-gr-10783864/"}, {"name": "Buenos Aires, Distrito Federal, Argentina", "cc": "AR", "lat": -34.587, "lon": -58.672, "n": 2, "art": 12, "url": "https://en.mercopress.com/2026/07/13/argentina-weighs-protest-over-british-patrol-ship-s-passage-to-chile"}, {"name": "Qingdao, Shandong, China", "cc": "CH", "lat": 36.099, "lon": 120.372, "n": 4, "art": 10, "url": "https://www.rfi.fr/en/podcasts/international-report/20260713-china-s-missile-test-overshadowed-by-iran-war-but-pacific-nations-are-watching"}, {"name": "Genoa, Liguria, Italy", "cc": "IT", "lat": 44.417, "lon": 8.95, "n": 2, "art": 10, "url": "https://www.elplural.com/politica/espana/vox-busca-blanquearse-bajo-ala-grandes-empresas-cobija-pp_395437102"}, {"name": "Ireland", "cc": "EI", "lat": 53.0, "lon": -8.0, "n": 1, "art": 10, "url": "https://www2.fundsforngos.org/individuals/artists-care-exchange-professional-development-programme-ireland/"}, {"name": "Saudi Arabia", "cc": "SA", "lat": 25.0, "lon": 45.0, "n": 2, "art": 12, "url": "https://www.thenewhumanitarian.org/investigation/2020/05/27/Ethiopia-Oromia-Shakiso-gold-mine-health-problems"}, {"name": "Japan", "cc": "JA", "lat": 36.0, "lon": 138.0, "n": 1, "art": 10, "url": "https://www.news-medical.net/news/20260713/Tescan-joins-Shimadzu-Group-to-accelerate-innovation-and-deliver-greater-value-to-customers.aspx"}, {"name": "Oyo State, Oyo, Nigeria", "cc": "NI", "lat": 8.0, "lon": 4.0, "n": 1, "art": 8, "url": "https://www2.fundsforngos.org/environment-2/cfps-youth-empowerment-and-reintegration-project-nigeria/"}, {"name": "Rome, Lazio, Italy", "cc": "IT", "lat": 41.9, "lon": 12.483, "n": 6, "art": 24, "url": "https://www.pressenza.com/2026/07/the-jewish-brigade/"}, {"name": "Saint Martins, Perth and Kinross, United Kingdom", "cc": "UK", "lat": 56.45, "lon": -3.383, "n": 1, "art": 5, "url": "https://aninews.in/news/entertainment/out-of-box/relan8482-circular-design-challenge-2026-uk-jury-selects-farouk-braimohs-rwrk-studio-as-finalist20260713141540/"}, {"name": "Anambra State, Anambra, Nigeria", "cc": "NI", "lat": 6.333, "lon": 7.0, "n": 1, "art": 10, "url": "https://thesun.ng/politicians-need-judges-not-voters-to-win-power-odinkalu/"}, {"name": "Shiv, Rajasthan, India", "cc": "IN", "lat": 26.183, "lon": 71.25, "n": 10, "art": 30, "url": "https://www.mangalorean.com/maha-uddhav-thackeray-backs-sonam-wangchuk-student-stir/"}, {"name": "Gombe, Gombe, Nigeria", "cc": "NI", "lat": 10.29, "lon": 11.167, "n": 1, "art": 8, "url": "https://www.opinionnigeria.com/pantamis-church-visit-that-healed-more-than-buildings-by-sani-danaudi-mohammed/"}, {"name": "Hollywood, California, United States", "cc": "US", "lat": 34.098, "lon": -118.327, "n": 4, "art": 15, "url": "https://swimsuit.si.com/fashion/shop-summer-sunglasses-trends"}, {"name": "Mahshahr, Khuzestan, Iran", "cc": "IR", "lat": 30.559, "lon": 49.198, "n": 1, "art": 2, "url": "https://www.presstv.ir/Detail/2026/07/13/772143/One-killed,-four-injured-US-strike-agricultural-water-pumping-station-Iran"}, {"name": "Gaza Strip", "cc": "GZ", "lat": 31.425, "lon": 34.373, "n": 2, "art": 13, "url": "https://news.am/en/news/1049524"}, {"name": "Moscow, Moskva, Russia", "cc": "RS", "lat": 55.752, "lon": 37.616, "n": 17, "art": 81, "url": "https://www.aljazeera.net/politics/2026/7/14/%D9%85%D8%A7%D8%B0%D8%A7-%D9%88%D8%B1%D8%A7%D8%A1-%D8%B9%D9%85%D9%84%D9%8A%D8%A9-%D8%A7%D9%84%D8%B3%D8%B7%D9%88-%D8%A7%D9%84%D8%A3%D9%85%D8%B1%D9%8A%D9%83%D9%8A%D8%A9-%D8%B9%D9%84%D9%89"}, {"name": "Jesus Ramirez, Tamaulipas, Mexico", "cc": "MX", "lat": 23.967, "lon": -98.233, "n": 1, "art": 10, "url": "https://almomento.mx/indice-politico-698/"}, {"name": "Timiryazevskiy, Lipetskaya Oblast', Russia", "cc": "RS", "lat": 52.335, "lon": 38.313, "n": 1, "art": 10, "url": "https://www.mk.ru/incident/2026/07/13/aktyor-treskunova-oshtrafovali-za-ignorirovanie-zakona-ob-inoagentakh.html"}, {"name": "Dembi, Oromiya, Ethiopia", "cc": "ET", "lat": 8.033, "lon": 36.95, "n": 1, "art": 5, "url": "https://www.thenewhumanitarian.org/investigation/2020/05/27/Ethiopia-Oromia-Shakiso-gold-mine-health-problems"}, {"name": "Sydney, New South Wales, Australia", "cc": "AS", "lat": -33.883, "lon": 151.217, "n": 2, "art": 10, "url": "https://www.abc.net.au/news/2026-07-13/sam-neill-his-brilliant-careers-/106911240"}, {"name": "Calgary, Alberta, Canada", "cc": "CA", "lat": 51.083, "lon": -114.083, "n": 1, "art": 3, "url": "https://www.thenewhumanitarian.org/investigation/2020/05/27/Ethiopia-Oromia-Shakiso-gold-mine-health-problems"}, {"name": "Kano, Kano, Nigeria", "cc": "NI", "lat": 11.996, "lon": 8.517, "n": 1, "art": 10, "url": "https://blueprint.ng/glad-tidings-from-the-oil-industry/"}, {"name": "Shakiso, Oromiya, Ethiopia", "cc": "ET", "lat": 5.75, "lon": 38.917, "n": 1, "art": 7, "url": "https://www.thenewhumanitarian.org/investigation/2020/05/27/Ethiopia-Oromia-Shakiso-gold-mine-health-problems"}, {"name": "Malawi", "cc": "MI", "lat": -13.5, "lon": 34.0, "n": 1, "art": 10, "url": "https://mwnation.com/author/anyondo/"}, {"name": "Ajaokuta, Kogi, Nigeria", "cc": "NI", "lat": 7.46, "lon": 6.695, "n": 2, "art": 10, "url": "https://blueprint.ng/glad-tidings-from-the-oil-industry/"}, {"name": "Amsterdam, Noord-Holland, Netherlands", "cc": "NL", "lat": 52.35, "lon": 4.917, "n": 1, "art": 4, "url": "https://nltimes.nl/2026/07/13/nazi-looted-painting-goudstikker-collection-found-amsterdam-street-trash"}, {"name": "Santiago Apostol, Asturias, Spain", "cc": "SP", "lat": 43.45, "lon": -5.2, "n": 1, "art": 8, "url": "https://www.elperiodico.com/es/politica/miguel-angel-blanco-asesinato-eta-sh/"}, {"name": "New Zealand", "cc": "NZ", "lat": -42.0, "lon": 174.0, "n": 4, "art": 22, "url": "https://www.librered.net/varias-islas-del-pacifico-protestan-ante-pekin-por-el-impacto-de-un-misil-chino-en-su-territorio/"}, {"name": "Nakuru, Rift Valley, Kenya", "cc": "KE", "lat": -0.283, "lon": 36.067, "n": 1, "art": 10, "url": "https://www.the-star.co.ke/news/2026-07-13-faith-odhiambo-sounds-alarm-over-rising-school-riots"}, {"name": "Vietnam, Republic Of", "cc": "VM", "lat": 16.167, "lon": 107.833, "n": 2, "art": 3, "url": "https://patriotpost.us/articles/129006-vietnams-surprising-impact-on-china-and-taiwan-2026-07-13"}, {"name": "Saint Cross, Suffolk, United Kingdom", "cc": "UK", "lat": 52.4, "lon": 1.367, "n": 1, "art": 10, "url": "https://es.mercopress.com/2026/07/13/argentina-evalua-una-protesta-por-el-paso-de-un-patrullero-britanico-rumbo-a-chile"}, {"name": "Argentina", "cc": "AR", "lat": -34.0, "lon": -64.0, "n": 2, "art": 20, "url": "https://www.anred.org/veni-a-jugar-el-partido-decisivo-movilizan-al-polo-cientifico-por-la-prorroga-de-400-becarios-y-becarias/"}, {"name": "Gaibandha, Rangpur, Bangladesh", "cc": "BG", "lat": 25.329, "lon": 89.544, "n": 2, "art": 10, "url": "https://aninews.in/news/world/asia/bangladesh-police-arrest-hindu-youth-on-money-laundering-charges20260713150036/"}, {"name": "Gambia", "cc": "GA", "lat": 13.5, "lon": -15.5, "n": 1, "art": 5, "url": "https://thepoint.gm/africa/gambia/headlines/the-bar-association-got-it-wrong-why-edi-m-o-faal-meets-the-constitutional-standard-for-chief-justice-a-case-for-interpreting-section-1392-in-a-manner-consistent-with-the-realities-of-modern-common-law-practice"}, {"name": "Montana, United States", "cc": "US", "lat": 46.905, "lon": -110.326, "n": 5, "art": 7, "url": "https://blooloop.com/rlmg-electrosonic-ruckus/"}, {"name": "Hyderabad, Andhra Pradesh, India", "cc": "IN", "lat": 17.375, "lon": 78.474, "n": 5, "art": 29, "url": "https://aninews.in/news/national/politics/telangana-brs-youth-student-wing-hold-blood-donation-drive-in-protest-against-cm-revanth-reddys-blood-and-belt-treatment-remarks20260713221748/"}, {"name": "Berlin, Berlin, Germany", "cc": "GM", "lat": 52.517, "lon": 13.4, "n": 21, "art": 138, "url": "https://www.ont.by/ru/policy-ru/view/rossija-vyrazila-protest-germanii-iz-za-atak-kieva-na-grazhdanskie-objekty-322013-2026"}, {"name": "Omsk, Omskaya Oblast', Russia", "cc": "RS", "lat": 55.0, "lon": 73.4, "n": 1, "art": 10, "url": "https://ipress.ua/articles/ukraina_peretvoryuie_azovske_more_na_pastku_dlya_rosii_tramp_tym_chasom_daruie_putinu_chas_dlya_novyh_udariv__fillips_obrayen_387828.html"}, {"name": "Las Medulas, Castilla y Le\u00f3P, Spain", "cc": "SP", "lat": 42.456, "lon": -6.769, "n": 1, "art": 8, "url": "https://www.ecoticias.com/medio-ambiente/las-tormentas-tras-los-incendios-forestales-agravan-la-emergencia-ambiental"}, {"name": "Orsay, France (general), France", "cc": "FR", "lat": 48.696, "lon": 2.187, "n": 1, "art": 10, "url": "https://centralasia.media/news:2500820/"}, {"name": "Belluno, Veneto, Italy", "cc": "IT", "lat": 46.145, "lon": 12.221, "n": 1, "art": 10, "url": "https://www.zazoom.it/2026-07-13/la-mappa-che-cancella-il-passato-little-italy-new-york-e-la-guerra-sulla-memoria/19455485/"}, {"name": "Maine, United States", "cc": "US", "lat": 44.607, "lon": -69.398, "n": 16, "art": 67, "url": "https://www.washingtonexaminer.com/policy/immigration/4646518/susan-collins-office-stormed-ice-shooting-maine/"}, {"name": "Illinois, United States", "cc": "US", "lat": 40.336, "lon": -89.002, "n": 2, "art": 4, "url": "https://www.yahoo.com/news/politics/articles/want-fewer-platners-politics-stop-100425311.html"}, {"name": "Michigan, United States", "cc": "US", "lat": 43.35, "lon": -84.56, "n": 3, "art": 10, "url": "https://www.9and10news.com/2026/07/13/cadillac-man-convicted-of-child-sexual-assault-in-wexford-county/"}, {"name": "New York, United States", "cc": "US", "lat": 42.15, "lon": -74.938, "n": 8, "art": 41, "url": "https://qns.com/2026/07/community-board-demographics-queens-2026/"}, {"name": "Idaho, United States", "cc": "US", "lat": 44.239, "lon": -114.51, "n": 2, "art": 10, "url": "https://cdapress.com/news/2026/jul/13/idaho-labor-economist-ran-anonymous-accounts-promoting-pro-russian-far-right-views/"}, {"name": "Russia", "cc": "RS", "lat": 60.0, "lon": 100.0, "n": 13, "art": 121, "url": "https://www.stiripesurse.ro/un-primar-din-rusia-dezvaluie-amploare-crizei-economice_3903030"}, {"name": "Chicago, Illinois, United States", "cc": "US", "lat": 41.85, "lon": -87.65, "n": 2, "art": 12, "url": "https://www.yahoo.com/news/politics/articles/want-fewer-platners-politics-stop-100425311.html"}, {"name": "West Palm Beach, Florida, United States", "cc": "US", "lat": 26.715, "lon": -80.053, "n": 2, "art": 6, "url": "https://www.yahoo.com/news/politics/articles/want-fewer-platners-politics-stop-100425311.html"}, {"name": "Boston, Massachusetts, United States", "cc": "US", "lat": 42.358, "lon": -71.06, "n": 2, "art": 10, "url": "https://www.yahoo.com/news/us/articles/person-killed-shooting-involving-ice-144205907.html"}, {"name": "Ukraine", "cc": "UP", "lat": 49.0, "lon": 32.0, "n": 10, "art": 78, "url": "https://nikvesti.com/news/incidents/321085-pyanyy-nikolayivets-vlashtuvav-konflikt-zi-strilyanoyu-bilya-supermarketu"}, {"name": "Muzaffarabad, Punjab, Pakistan", "cc": "PK", "lat": 30.134, "lon": 71.368, "n": 9, "art": 25, "url": "https://organiser.org/2026/07/13/369682/world/pojk-protests-hit-white-house-as-kashmiri-diaspora-shouts-anti-pakistan-slogans-muzaffarabad-rises-against-abuse/"}, {"name": "Golders Green, Barnet, United Kingdom", "cc": "UK", "lat": 51.567, "lon": -0.217, "n": 2, "art": 10, "url": "https://www.thejc.com/news/uk/new-police-patrols-golders-green-stamford-hill-p9e8vftp"}, {"name": "Islamabad, Islamabad, Pakistan", "cc": "PK", "lat": 33.7, "lon": 73.167, "n": 9, "art": 35, "url": "https://organiser.org/2026/07/13/369591/politics/pojk-uprising-against-continued-colonisation/"}, {"name": "Georgia, United States", "cc": "US", "lat": 32.987, "lon": -83.649, "n": 1, "art": 6, "url": "https://lenta.ru/news/2026/07/13/premier-gruzii-nazval-uslovie-dlya-dalneyshego-sotrudnichestva-s-pa-obse/"}, {"name": "Baku, Baki*, Azerbaijan", "cc": "AJ", "lat": 40.395, "lon": 49.882, "n": 2, "art": 11, "url": "https://www.yeniazerbaycan.com/Iqtisadiyyat_e146537_az.html"}, {"name": "Longueval, Picardie, France", "cc": "FR", "lat": 49.358, "lon": 3.654, "n": 3, "art": 4, "url": "https://defenceweb.co.za/joint/diplomacy-a-peace/ramaphosa-strengthens-defence-ties-with-france-honours-delville-wood-anniversary/"}, {"name": "Nesle, Champagne-Ardenne, France", "cc": "FR", "lat": 49.049, "lon": 3.714, "n": 3, "art": 10, "url": "https://innovationintextiles.com/moving-to-industrialisation-with-silk-proteins/"}, {"name": "Kashmir, North-West Frontier, Pakistan", "cc": "PK", "lat": 34.796, "lon": 72.15, "n": 5, "art": 14, "url": "https://organiser.org/2026/07/13/369682/world/pojk-protests-hit-white-house-as-kashmiri-diaspora-shouts-anti-pakistan-slogans-muzaffarabad-rises-against-abuse/"}, {"name": "Nagpur, Maharashtra, India", "cc": "IN", "lat": 21.15, "lon": 79.1, "n": 1, "art": 18, "url": "https://www.deccanchronicle.com/nation/uddhav-backs-sonam-wangchuk-cjp-pleads-for-end-to-hunger-strike-1970542"}, {"name": "Kremlin, Moskva, Russia", "cc": "RS", "lat": 55.752, "lon": 37.616, "n": 4, "art": 36, "url": "https://glavred.info/analytics/diagnoz-dlya-rf-i-paket-iz-5-shagov-chto-poluchit-ukraina-posle-peregovorov-v-parizhe-10780367.html"}, {"name": "Bedford, North Carolina, United States", "cc": "US", "lat": 35.558, "lon": -77.384, "n": 1, "art": 2, "url": "https://wbsm.com/new-bedford-mural-jibreel-khazan/"}, {"name": "North Carolina, United States", "cc": "US", "lat": 35.641, "lon": -79.843, "n": 3, "art": 16, "url": "https://www.carolinajournal.com/police-group-takes-note-of-wake-das-arguments-in-covid-arrest-suit/"}, {"name": "Shkodra, Qarku Shkoder, Albania", "cc": "AL", "lat": 42.068, "lon": 19.513, "n": 1, "art": 10, "url": "https://telegraf.al/speciale/kriza-e-besimit-ndaj-politikes-klienteliste-sfida-me-e-madhe-e-kombit-dhe-debatit-publik/"}, {"name": "Datia, Madhya Pradesh, India", "cc": "IN", "lat": 25.667, "lon": 78.467, "n": 1, "art": 10, "url": "https://www.jagran.com/madhya-pradesh/bhopal-narottam-mishra-emotional-at-datia-byelection-nomination-40304989.html"}, {"name": "Orissa, Orissa, India", "cc": "IN", "lat": 20.5, "lon": 84.417, "n": 1, "art": 3, "url": "https://www.orissapost.com/cjp-protest-day-24-wangchuk-loses-8-2-kg-during-fast/"}, {"name": "Greenisland, Carrickfergus, United Kingdom", "cc": "UK", "lat": 54.7, "lon": -5.867, "n": 2, "art": 4, "url": "https://www.rte.ie/news/regional/2026/0713/1583051-orange-order-parades/"}, {"name": "Philippines", "cc": "RP", "lat": 13.0, "lon": 122.0, "n": 1, "art": 10, "url": "https://lampung.tribunnews.com/lampung/1213542/residivis-tega-habisi-nyawa-wanita-di-lampung-utara-demi-memenuhi-gaya-hidup-haram"}, {"name": "Netherlands", "cc": "NL", "lat": 52.5, "lon": 5.75, "n": 3, "art": 30, "url": "https://pravda.if.ua/u-frankivsioku-znovu-ne-znajshlosya-ohochyh-kupyty-ofisnyj-kompleks-zbankrutiloyi-kompaniyi-z-grupy-pryvat/"}, {"name": "Narte, Vlore, Albania", "cc": "AL", "lat": 40.499, "lon": 19.457, "n": 2, "art": 20, "url": "https://sot.com.al/politike/te-krijohen-parti-fuga-disa-elemente-do-ta-pasuronin-skenen-politike-bota-moderne-nuk-njeh-menyre-tjeter/"}, {"name": "Yalta, Donets'ka Oblast', Ukraine", "cc": "UP", "lat": 48.047, "lon": 36.752, "n": 1, "art": 10, "url": "https://espreso.tv/viyna-z-rosiyeyu-ya-krimchanin-i-znayu-z-vlasnikh-dzherel-seleznov-zayaviv-pro-kritichnu-gumanitarnu-situatsiyu-u-sevastopoli"}, {"name": "Quebec, Quebec, Canada", "cc": "CA", "lat": 47.5, "lon": -72.0, "n": 1, "art": 10, "url": "https://www.lapresse.ca/actualites/chroniques/2026-07-13/perte-de-terrain-au-profit-des-regions/bye-montreal-ca-ne-me-manque-pas.php"}, {"name": "Albania", "cc": "AL", "lat": 41.0, "lon": 20.0, "n": 6, "art": 54, "url": "https://24-ore.com/rama-protestat-pasqyrojne-rritjen-e-pritshmerive-te-qytetareve-jo-vetem-pakenaqesite/"}, {"name": "Balochistan, Balochistan, Pakistan", "cc": "PK", "lat": 28.479, "lon": 65.644, "n": 2, "art": 14, "url": "https://balochwarna.com/2026/07/baloch-diaspora-protests-in-germany-over-sentencing-of-rights-activists-by-pakistan/"}, {"name": "Nsukka, Enugu, Nigeria", "cc": "NI", "lat": 6.856, "lon": 7.393, "n": 1, "art": 3, "url": "https://blueprint.ng/certificate-forgery-court-grants-ex-minister-uche-nnaji-n20m-bail/"}, {"name": "Enugu State, Enugu, Nigeria", "cc": "NI", "lat": 6.5, "lon": 7.5, "n": 1, "art": 2, "url": "https://blueprint.ng/certificate-forgery-court-grants-ex-minister-uche-nnaji-n20m-bail/"}, {"name": "Uganda", "cc": "UG", "lat": 2.0, "lon": 33.0, "n": 2, "art": 15, "url": "https://redpepper.co.ug/insure-to-secure-how-equity-bank-is-protecting-ugandas-families-businesses-and-wealth/149573/"}, {"name": "Luxembourg", "cc": "LU", "lat": 49.75, "lon": 6.167, "n": 1, "art": 10, "url": "https://www.lessentiel.lu/fr/story/pride-au-luxembourg-les-grandes-entreprises-foutez-le-camp-de-la-luxpride-103602254"}, {"name": "London, London, City of, United Kingdom", "cc": "UK", "lat": 51.5, "lon": -0.117, "n": 7, "art": 33, "url": "https://www.wsws.org/en/articles/2026/07/13/zexu-j13.html"}, {"name": "Bandar Abbas, Hormozgan, Iran", "cc": "IR", "lat": 27.186, "lon": 56.281, "n": 1, "art": 10, "url": "https://www.eremnews.com/news/world/yde82vx"}, {"name": "Batchewana Bay, Ontario, Canada", "cc": "CA", "lat": 46.883, "lon": -84.5, "n": 1, "art": 15, "url": "http://www.albuquerqueexpress.com/news/279184508/sterling-metals-continues-to-intersect-continuous-copper-mineralization-from-surface"}, {"name": "Longview, Texas, United States", "cc": "US", "lat": 32.501, "lon": -94.74, "n": 1, "art": 6, "url": "https://marshallnewsmessenger.com/2026/07/13/horrifically-sad-longview-vigil-remembers-man-killed-by-ice-in-houston/"}, {"name": "Houston, Texas, United States", "cc": "US", "lat": 29.763, "lon": -95.363, "n": 2, "art": 4, "url": "https://newrepublic.com/post/213008/house-republicans-absent-mike-johnson"}, {"name": "Balibo, Nusa Tenggara Timur, Indonesia", "cc": "ID", "lat": -9.473, "lon": 124.838, "n": 1, "art": 10, "url": "https://kupang.tribunnews.com/provinsi-ntt/971708/sejumlah-rekan-dokter-icha-hadir-dalam-aksi-demontrasi-di-kantor-dprd-kabupaten-ttu"}, {"name": "Geneina, Gharb Darfur, Sudan", "cc": "SU", "lat": 13.45, "lon": 22.45, "n": 2, "art": 6, "url": "https://www.middleeasteye.net/news/sudan-court-sentences-rsf-commander-death-over-west-darfur-killings"}, {"name": "Sanaa, San\u0091a', Yemen", "cc": "YM", "lat": 15.355, "lon": 44.207, "n": 4, "art": 25, "url": "https://26sep.net/index.php/local/131178-2026-07-13-19-27-39"}, {"name": "Limassol, Limassol, Cyprus", "cc": "CY", "lat": 34.675, "lon": 33.033, "n": 1, "art": 10, "url": "https://www.politis.com.cy/politis-news/cyprus/1018876/otan-o-rafaele-fito-afise-tis-brikselles-ghia-mia-mera-sti-pitsilia-o-kipriakos-kafes-zivania-kai-koyventes-ston-aghio-ioanni-ikones"}, {"name": "Vancouver, British Columbia, Canada", "cc": "CA", "lat": 49.25, "lon": -123.133, "n": 2, "art": 20, "url": "https://paherald.sk.ca/bc-nurses-escalate-strike-by-picketing-major-hospitals/"}, {"name": "Shanghai, Shanghai, China", "cc": "CH", "lat": 31.222, "lon": 121.458, "n": 1, "art": 5, "url": "https://www.newsday.co.zw/opinion-analysis/article/200058269/talent-cultivation-and-sci-tech-self-reliance"}, {"name": "Otago, Tasmania, Australia", "cc": "AS", "lat": -42.809, "lon": 147.298, "n": 1, "art": 4, "url": "https://pagesix.com/2026/07/13/celebrity-news/jurassic-park-star-sam-neill-made-eerie-comments-about-dying-3-years-before-death/"}, {"name": "Australia", "cc": "AS", "lat": -25.0, "lon": 135.0, "n": 3, "art": 10, "url": "https://www.today.com/health/celebrity-health/sam-neill-death-blood-cancer-health-history-rcna587278"}, {"name": "Ortak, Edirne, Turkey", "cc": "TU", "lat": 41.785, "lon": 26.737, "n": 1, "art": 10, "url": "https://www.dailysabah.com/turkiye/istanbul/istanbul-landmarks-preserve-memory-of-july-15-coup-attempt-resistance"}, {"name": "Algeria", "cc": "AG", "lat": 28.0, "lon": 3.0, "n": 3, "art": 20, "url": "https://www.who.int/news/item/13-07-2026-el-salvador-validated-by-who-as-having-eliminated-trachoma-as-a-public-health-problem"}, {"name": "Guanajay, Provincia de Artemisa, Cuba", "cc": "CU", "lat": 22.926, "lon": -82.688, "n": 2, "art": 16, "url": "https://havanatimes.org/news/cuban-political-prisoner-anibal-palau-jacinto-released/"}, {"name": "Orenburg, Orenburgskaya Oblast', Russia", "cc": "RS", "lat": 51.773, "lon": 55.099, "n": 1, "art": 2, "url": "https://www.actualno.com/asia/obrat-severnokorejcite-otkazvat-da-rabotjat-v-rusija-za-jylti-kopejki-news_2617552.html"}, {"name": "North Korea", "cc": "KN", "lat": 40.0, "lon": 127.0, "n": 2, "art": 16, "url": "https://www.actualno.com/asia/obrat-severnokorejcite-otkazvat-da-rabotjat-v-rusija-za-jylti-kopejki-news_2617552.html"}, {"name": "Mali", "cc": "ML", "lat": 17.0, "lon": -4.0, "n": 1, "art": 2, "url": "https://www.actualno.com/africa/kak-kokainyt-na-bednite-zavladja-cjal-kontinent-a-vagner-i-sinyt-na-prigojin-stanaha-novite-narkokrale-news_2617544.html"}, {"name": "Mozambique", "cc": "MZ", "lat": -18.25, "lon": 35.0, "n": 1, "art": 8, "url": "https://www.actualno.com/africa/kak-kokainyt-na-bednite-zavladja-cjal-kontinent-a-vagner-i-sinyt-na-prigojin-stanaha-novite-narkokrale-news_2617544.html"}, {"name": "Manhattan, New York, United States", "cc": "US", "lat": 40.783, "lon": -73.966, "n": 1, "art": 6, "url": "https://www.huffingtonpost.gr/diethnes/ola-ta-vlemmata-ston-ourano-tis-neas-yorkis-to-manhattanhenge-magepse-chiliades-me-to-monadiko-tou-iliovasilema-eikones-vinteo/"}, {"name": "Witbank, Mpumalanga, South Africa", "cc": "SF", "lat": -25.871, "lon": 29.233, "n": 1, "art": 10, "url": "https://iharare.com/man-and-nephew-die-after-eating-biscuits-taken-during-mpumalanga-looting/"}, {"name": "Hong Kong", "cc": "HK", "lat": 22.25, "lon": 114.167, "n": 1, "art": 2, "url": "https://livenews.co.nz/2026/07/13/polyu-signs-tripartite-mou-with-dassault-systemes-and-paievo-in-paris-to-advance-cross-continental-collaboration-in-research-innovation/"}, {"name": "Larne, Larne, United Kingdom", "cc": "UK", "lat": 54.85, "lon": -5.817, "n": 4, "art": 8, "url": "https://www.lbc.co.uk/article/northern-ireland-orange-order-parade-bonfire-5HjddWZ_2/"}, {"name": "Podujevo, Podujevo, Kosovo", "cc": "KV", "lat": 42.911, "lon": 21.19, "n": 1, "art": 10, "url": "https://www.botasot.info/opinione/2505850/pse-perparim-rama-nuk-mund-te-jete-kryetar-i-ldk-se/"}, {"name": "Mississippi, United States", "cc": "US", "lat": 32.767, "lon": -89.681, "n": 2, "art": 2, "url": "https://chicagocrusader.com/the-naacp-leaders-killed-in-the-line-of-duty/"}, {"name": "Xinjiang, Jiangxi, China", "cc": "CH", "lat": 27.748, "lon": 116.274, "n": 2, "art": 19, "url": "https://thediplomat.com/2026/07/xi-jinpings-forging-of-ethnic-unity-and-progress/"}, {"name": "Kazakhstan", "cc": "KZ", "lat": 48.0, "lon": 68.0, "n": 1, "art": 1, "url": "https://www.bjreview.com/Xinjiang_Today/202606/t20260625_800440455.html"}, {"name": "Ghana", "cc": "GH", "lat": 8.0, "lon": -2.0, "n": 4, "art": 33, "url": "https://observador.pt/especiais/deportacoes-violencia-e-xenofobia-na-africa-do-sul-a-vaga-de-protestos-contra-a-imigracao-africana/"}, {"name": "Oradea, Bihor, Romania", "cc": "RO", "lat": 47.067, "lon": 21.933, "n": 1, "art": 2, "url": "https://www.bihon.ro/stirile-judetului-bihor/s-a-deschis-oxygen-gym-functionalpilates-in-p-ta-creanga-a-patra-locatie-in-oradea-un-nou-concept-premium-cu-terasa-5336175/"}, {"name": "Culiacan, Sinaloa, Mexico", "cc": "MX", "lat": 24.0, "lon": -107.033, "n": 1, "art": 10, "url": "https://lajornadasanluis.com.mx/eu-omiso-en-asesinato-de-mexicano/"}, {"name": "Iraq", "cc": "IZ", "lat": 33.0, "lon": 44.0, "n": 4, "art": 40, "url": "https://www.zazoom.it/2026-07-13/blocca-il-traffico-la-reazione-violenta-del-militante-pro-vannacci-interviene-il-sindaco/19457316/"}, {"name": "Bengaluru, Karnataka, India", "cc": "IN", "lat": 12.983, "lon": 77.583, "n": 1, "art": 10, "url": "https://www.freepressjournal.in/india/watch-women-farmers-hit-officials-with-brooms-as-karnatakas-bidadi-township-survey-sparks-violent-protests"}, {"name": "Akash, Balochistan, Pakistan", "cc": "PK", "lat": 29.657, "lon": 65.792, "n": 2, "art": 12, "url": "https://www.geo.tv/latest/672840-karachi-doctor-killed-as-robbers-snatch-rs25m-near-teen-talwar"}, {"name": "Karachi, Sindh, Pakistan", "cc": "PK", "lat": 24.867, "lon": 67.05, "n": 3, "art": 10, "url": "https://arynews.tv/fuuast-financial-relief-hec-orders-release-of-rs-507-6-million-for-fy-2026-27"}, {"name": "Kharkiv, Kharkivs'ka Oblast', Ukraine", "cc": "UP", "lat": 49.981, "lon": 36.253, "n": 1, "art": 16, "url": "https://www.bankingnews.gr/diethni/articles/887862/finish-them-opportunity-for-russia-to-bring-kyiv-to-its-knees-it-will-drop-1-400-missiles-on-ukraine-until-the-patriots-arrive"}, {"name": "Harderwijk, Gelderland, Netherlands", "cc": "NL", "lat": 52.35, "lon": 5.633, "n": 2, "art": 10, "url": "https://www.rd.nl/artikel/1156193-gemeente-nijkerk-wil-meewerken-aan-bouwplan-vredeskerk-miljoenensubsidie-voor-restauratie-walburgiskerk-zutphen-en-ander-plaatselijk-kerknieuws"}, {"name": "Odessa, Odes'ka Oblast, Ukraine", "cc": "UP", "lat": 46.464, "lon": 30.739, "n": 1, "art": 2, "url": "https://diena.lt/naujienos/pasaulis/konfliktai-nelaimes/ukrainos-ir-rusijos-smugius-abiejose-salyse-zuvo-keli-zmones-1765464"}, {"name": "Bucharest, Bucuresti, Romania", "cc": "RO", "lat": 44.433, "lon": 26.1, "n": 1, "art": 10, "url": "https://www.thediplomat.ro/2026/07/13/hidroelectrica-delivers-141-total-shareholder-return-three-years-after-ipo/"}, {"name": "Accra, Greater Accra, Ghana", "cc": "GH", "lat": 5.55, "lon": -0.217, "n": 2, "art": 14, "url": "https://www.modernghana.com/news/1510235/beyond-the-noise-of-witch-hunting-why-ghanas.html"}, {"name": "South Korea", "cc": "KS", "lat": 37.0, "lon": 127.5, "n": 2, "art": 10, "url": "https://www.mediafax.ro/social/maturatorii-stradali-din-coreea-de-nord-refuza-sa-lucreze-in-rusia-din-cauza-salariilor-mici-23771437"}, {"name": "Denmark", "cc": "DA", "lat": 56.0, "lon": 10.0, "n": 7, "art": 28, "url": "https://finance.yahoo.com/markets/stocks/articles/bravida-holding-ab-stu-bv0-190030310.html"}, {"name": "Phnom Penh, (CB11), Cambodia", "cc": "CB", "lat": 11.55, "lon": 104.917, "n": 1, "art": 6, "url": "https://phnompenhpost.com/opinion/cambodia-reaffirms-deep-friendship-and-gratitude-toward-france/"}, {"name": "Gomez Palacio, Durango, Mexico", "cc": "MX", "lat": 25.567, "lon": -103.5, "n": 1, "art": 10, "url": "https://www.lanuovaecologia.it/messico-attivisti-chiedono-rilascio-28-incarcerati-per-essersi-opposti-a-miniera-fronte-unito-laguna/"}, {"name": "Sao Paulo, S\u00e3Paulo, Brazil", "cc": "BR", "lat": -23.533, "lon": -46.617, "n": 1, "art": 10, "url": "https://jornalpequeno.com.br/2026/07/13/brasil-abre-29-milhoes-de-pequenos-negocios-no-1o-semestre-de-2026/"}, {"name": "Apold, Romania (general), Romania", "cc": "RO", "lat": 46.117, "lon": 24.817, "n": 1, "art": 10, "url": "https://ziare.com/timisoara/fost-cunoscut-primar-decedat-rol-marcant-revolutie-2023976"}, {"name": "Rotherham, Rotherham, United Kingdom", "cc": "UK", "lat": 53.433, "lon": -1.35, "n": 1, "art": 15, "url": "http://www.jpost.com/international/article-902377"}, {"name": "Inverness, Highland, United Kingdom", "cc": "UK", "lat": 57.467, "lon": -4.233, "n": 1, "art": 6, "url": "https://www.inverness-courier.co.uk/news/inverness-city-centre-to-host-multiple-protests-this-weekend-439888/"}, {"name": "Biddeford, Maine, United States", "cc": "US", "lat": 43.493, "lon": -70.453, "n": 8, "art": 44, "url": "https://www.centralmaine.com/2026/07/13/lingering-tensions-from-january-ice-surge-boil-over-in-wake-of-biddeford-shooting/"}, {"name": "Lviv, L'vivs'ka Oblast', Ukraine", "cc": "UP", "lat": 49.841, "lon": 24.03, "n": 1, "art": 4, "url": "https://zaxid.net/noviy_tsentr_rozvitku_yakisnoyi_neruhomosti_yak_zminyuyetsya_zhitlo_biznes_klasu_u_lvovi_n1641161"}, {"name": "Belfast, Belfast, United Kingdom", "cc": "UK", "lat": 54.583, "lon": -5.933, "n": 3, "art": 20, "url": "https://www.theguardian.com/commentisfree/2026/jul/13/jewish-communities-antisemitism-uk-schools-synagogues-police-protection"}, {"name": "Rathfriland, Banbridge, United Kingdom", "cc": "UK", "lat": 54.25, "lon": -6.167, "n": 1, "art": 16, "url": "https://www.wirralglobe.co.uk/news/national/26276134.orange-order-chief-says-northern-ireland-not-left-european-limbo/"}, {"name": "Glasgow, Glasgow City, United Kingdom", "cc": "UK", "lat": 55.833, "lon": -4.25, "n": 3, "art": 25, "url": "https://www.glasgowtimes.co.uk/news/scottish-news/26276904.recent-protests-glasgow-causing-fear-alarm/"}, {"name": "Lagos State, Lagos, Nigeria", "cc": "NI", "lat": 6.583, "lon": 3.75, "n": 1, "art": 10, "url": "https://thesun.ng/tested-by-water-trusted-by-firefighters-the-itel-power-80-story/"}, {"name": "Zacatecas, Zacatecas, Mexico", "cc": "MX", "lat": 22.783, "lon": -102.583, "n": 1, "art": 10, "url": "https://plumaslibres.com.mx/2026/07/13/sheinbaum-advierte-a-la-cnte-que-la-modificacion-al-sistema-de-evaluacion-docente-se-definira-mediante-una-consulta-nacional/"}, {"name": "Finland", "cc": "FI", "lat": 64.0, "lon": 26.0, "n": 1, "art": 10, "url": "https://www.vesti.ru/ns/greta-tunberg-prikleila-sebya-k-asfaltu-u-ofisa-rheinmetall-v-berline"}, {"name": "Almoloya De Juarez, M\u00e9co, Mexico", "cc": "MX", "lat": 19.369, "lon": -99.762, "n": 1, "art": 6, "url": "https://www.tiempo.com.mx/cronos/columna-hoy-candidatura-de-morena-grupos-nacionales-pt-organiza-evento-apoyo-a-andrea-santiago-lleno-lago-dicomo-mujeres-duarte-testigo-protegido/"}, {"name": "Ladakh, Jammu and Kashmir, India", "cc": "IN", "lat": 34.5, "lon": 77.5, "n": 4, "art": 24, "url": "https://www.newindianexpress.com/india/2026/Jul/13/uddhav-announces-support-for-cjp-protest-appeals-to-wangchuk-to-end-hunger-strike"}, {"name": "Otukpo, Cross River, Nigeria", "cc": "NI", "lat": 6.815, "lon": 8.653, "n": 1, "art": 2, "url": "https://www.premiumtimesng.com/regional/north-central/894977-peter-obi-demands-end-to-relentless-cycle-of-bloodshed-in-benue-plateau.html"}, {"name": "Reggio Calabria, Calabria, Italy", "cc": "IT", "lat": 38.1, "lon": 15.65, "n": 1, "art": 10, "url": "https://www.strettoweb.com/2026/07/anniversario-della-rivolta-di-reggio-sara-presente-il-sindaco-cannizzaro-frecciata-al-centrosinistra-per-12-anni-hanno-tentato-di-sminuirla-ora-il-comune-torna-a-ricordare/2112946/"}, {"name": "Benidorm, Valenciana, Spain", "cc": "SP", "lat": 38.539, "lon": -0.136, "n": 1, "art": 10, "url": "https://www.larazon.es/cultura/espana-reconquista-bodega-fermin_202607136a54f92cc0b5fb431c53313a.html"}, {"name": "Hebei, Jilin, China", "cc": "CH", "lat": 43.1, "lon": 129.768, "n": 1, "art": 20, "url": "https://www.tanea.gr/2026/07/13/world/otan-i-fysi-trelainetai-o-tyfonas-mpavi-nikise-ti-varytita-kai-dimioyrgise-to-fainomeno-to/"}, {"name": "Kathmandu Valley, Nepal (general), Nepal", "cc": "NP", "lat": 27.667, "lon": 85.35, "n": 1, "art": 10, "url": "https://www.mzamin.com/article/28111"}, {"name": "Senegal", "cc": "SG", "lat": 14.0, "lon": -14.0, "n": 2, "art": 10, "url": "https://www.antena3.ro/externe/maturatorii-nord-coreeni-refuza-sa-lucreze-in-rusia-din-cauza-salariilor-mici-sunt-ca-niste-roboti-dar-nu-putem-sa-le-dam-cat-cer-795475.html"}, {"name": "Madhya Pradesh, Madhya Pradesh, India", "cc": "IN", "lat": 23.5, "lon": 78.5, "n": 2, "art": 15, "url": "https://countercurrents.org/2026/07/a-muslim-judge-under-siege-what-the-judge-tabassum-khan-case-says-about-minority-rights-in-todays-india/"}, {"name": "Kangpokpi, Manipur, India", "cc": "IN", "lat": 25.133, "lon": 93.967, "n": 1, "art": 6, "url": "https://indianexpress.com/article/political-pulse/manipur-naga-kuki-conflict-church-mizoram-intervention-delhi-10784818/"}, {"name": "Bermuda", "cc": "BD", "lat": 32.333, "lon": -64.75, "n": 1, "art": 10, "url": "https://www.rockpapershotgun.com/this-week-in-pc-games-vert-ramping-trains-a-retold-murder-mystery-and-cthulhus-new-gig-as-an-ai-director"}, {"name": "Ayodhya, Uttar Pradesh, India", "cc": "IN", "lat": 26.8, "lon": 82.2, "n": 1, "art": 10, "url": "https://www.oneindia.com/india/will-hindus-need-bjps-permission-to-recite-sundarkand-aaps-sanjay-singh-slams-bjp-over-kejriwa-014-8145239.html"}, {"name": "Oregon, United States", "cc": "US", "lat": 44.567, "lon": -122.127, "n": 2, "art": 10, "url": "https://dailybaro.orangemedianetwork.com/32262/daily-barometer-news/classified-employees-extend-contract/"}, {"name": "Wolfsburg, Niedersachsen, Germany", "cc": "GM", "lat": 52.433, "lon": 10.8, "n": 1, "art": 6, "url": "https://www.dailysabah.com/business/economy/volkswagen-may-need-to-cut-50000-more-jobs-ceo-confirms"}, {"name": "Bidadi, Karnataka, India", "cc": "IN", "lat": 12.817, "lon": 77.4, "n": 4, "art": 28, "url": "https://www.mangalorean.com/kumaraswamy-warns-ktaka-govt-police-as-farmers-resist-bidadi-survey/"}, {"name": "Odesa, Odes'ka Oblast, Ukraine", "cc": "UP", "lat": 46.464, "lon": 30.739, "n": 4, "art": 47, "url": "http://www.thegazette.com/news/national/ukraine-and-9-other-countries-announce-a-coalition-to-protect-europe-from-ballistic-missiles/article_c1a661cd-3843-59fb-bd48-5e9276dac13f.html"}, {"name": "Pretoria, Gauteng, South Africa", "cc": "SF", "lat": -25.707, "lon": 28.229, "n": 3, "art": 24, "url": "https://observador.pt/especiais/deportacoes-violencia-e-xenofobia-na-africa-do-sul-a-vaga-de-protestos-contra-a-imigracao-africana/"}, {"name": "Gauteng, Gauteng, South Africa", "cc": "SF", "lat": -26.083, "lon": 28.25, "n": 1, "art": 6, "url": "https://www.gov.za/news/media-advisories/government-activities/deputy-minister-bernice-swarts-addresses-africa-clean"}, {"name": "Sweida, As Suwayda', Syria", "cc": "SY", "lat": 32.709, "lon": 36.569, "n": 4, "art": 8, "url": "https://syriauntold.com/2026/07/13/if-i-could-sleep/"}, {"name": "Iowa, United States", "cc": "US", "lat": 42.005, "lon": -93.214, "n": 3, "art": 10, "url": "https://www.yahoo.com/news/politics/articles/trump-moves-tighten-federal-control-070129002.html"}, {"name": "Poonch, Jammu and Kashmir, India", "cc": "IN", "lat": 33.768, "lon": 74.09, "n": 1, "art": 6, "url": "https://organiser.org/2026/07/13/369591/politics/pojk-uprising-against-continued-colonisation/"}, {"name": "Arizona, United States", "cc": "US", "lat": 33.771, "lon": -111.388, "n": 1, "art": 2, "url": "https://www.kjzz.org/elections/2026-07-13/gop-hopefuls-walk-tightrope-between-maga-and-moderates-in-arizona-governor-primary"}, {"name": "Sao Luis, Maranh\u00e3BR, Brazil", "cc": "BR", "lat": -2.517, "lon": -44.267, "n": 1, "art": 10, "url": "https://g1.globo.com/ma/maranhao/noticia/2026/07/13/estudantes-do-maranhao-vencem-torneio-internacional-de-robotica-na-coreia-do-sul.ghtml"}, {"name": "Cahuzac, Midi-Pyr\u00e9es, France", "cc": "FR", "lat": 43.638, "lon": -0.022, "n": 1, "art": 10, "url": "https://engineeringevil.com/2012/09/30/thousands-take-to-the-streets-of-paris-in-move-described-by-government-minister-as-fundamental-error-against-austerity/"}, {"name": "Yushin, Hamgyong-bukto, North Korea", "cc": "KN", "lat": 40.686, "lon": 129.293, "n": 1, "art": 8, "url": "https://www.newhavenindependent.org/2026/07/13/surviving-the-fire/"}, {"name": "Gwangju, Kwangju-gwangyoksi, South Korea", "cc": "KS", "lat": 35.155, "lon": 126.916, "n": 1, "art": 2, "url": "https://www.newhavenindependent.org/2026/07/13/surviving-the-fire/"}, {"name": "San Antonio, Texas, United States", "cc": "US", "lat": 29.424, "lon": -98.494, "n": 1, "art": 5, "url": "https://wibailoutpeople.org/2026/07/13/starbucks-workers-united-propaganda-were-not-falling-for/"}, {"name": "Estarreja, Aveiro, Portugal", "cc": "PO", "lat": 40.757, "lon": -8.572, "n": 1, "art": 8, "url": "https://www.theportugalnews.com/news/2026-07-13/portugal-cities-among-finalists-for-the-european-green-capital-and-european-green-leaf-awards/1054444"}, {"name": "Nigeria", "cc": "NI", "lat": 10.0, "lon": 8.0, "n": 1, "art": 10, "url": "https://www.novosti.rs/planeta/svet/1627399/masovno-otimaju-decu-djaci-nastavnici-strajkuju-zbog-lose-bezbednosne-situacije-nigeriji"}, {"name": "City Of Rittman, Ohio, United States", "cc": "US", "lat": 40.974, "lon": -81.784, "n": 1, "art": 10, "url": "https://www.cleveland19.com/2026/07/13/rittman-community-holds-food-truck-rally-support-families-shooting-victims/"}, {"name": "Berkshire, United Kingdom (general), United Kingdom", "cc": "UK", "lat": 51.5, "lon": -1.25, "n": 1, "art": 10, "url": "https://www.foodmanufacture.co.uk/Article/2026/07/13/interview-why-mars-has-bet-big-on-uk-manufacturing/"}, {"name": "Astana, Gorod Astana, Kazakhstan", "cc": "KZ", "lat": 51.181, "lon": 71.428, "n": 2, "art": 10, "url": "https://timesca.com/kazakhstan-demining-afghanistan/"}, {"name": "Cambodia", "cc": "CB", "lat": 13.0, "lon": 105.0, "n": 1, "art": 5, "url": "https://timesca.com/kazakhstan-demining-afghanistan/"}, {"name": "Libya", "cc": "LY", "lat": 25.0, "lon": 17.0, "n": 1, "art": 10, "url": "https://pelop.gr/agia-galini-diakopes/"}, {"name": "Bicske, Fej\u00e9HU, Hungary", "cc": "HU", "lat": 47.484, "lon": 18.644, "n": 2, "art": 6, "url": "https://nepszava.hu/3328713_allami-gondozott-fiatalok-magyarorszag-utca-korkep"}, {"name": "Casablanca, Grand Casablanca, Morocco", "cc": "MO", "lat": 33.59, "lon": -7.61, "n": 1, "art": 10, "url": "https://www.esquerda.net/artigo/ali-lmrabet-jornalista-dissidente-marroquino-foi-detido-em-tanger/98588"}, {"name": "Congo", "cc": "CF", "lat": -1.0, "lon": 15.0, "n": 2, "art": 20, "url": "https://www.news4jax.com/news/2026/07/13/dozens-at-an-ebola-treatment-center-in-northeast-congo-strike-over-unpaid-salaries-and-bonuses/"}, {"name": "Telangana, Andhra Pradesh, India", "cc": "IN", "lat": 18.0, "lon": 79.5, "n": 4, "art": 18, "url": "https://aninews.in/news/national/politics/telangana-brs-youth-student-wing-hold-blood-donation-drive-in-protest-against-cm-revanth-reddys-blood-and-belt-treatment-remarks20260713221748/"}, {"name": "Mysuru, Karnataka, India", "cc": "IN", "lat": 12.307, "lon": 76.65, "n": 1, "art": 10, "url": "https://starofmysore.com/the-sensible-noble-heart-of-mysuru/"}, {"name": "South China Sea, Brunei (general), Brunei", "cc": "BX", "lat": 15.0, "lon": 115.0, "n": 2, "art": 5, "url": "https://mb.com.ph/2026/07/14/the-arbitral-victory-that-cannot-be-erased"}, {"name": "Hillsdale College, Michigan, United States", "cc": "US", "lat": 41.933, "lon": -84.633, "n": 1, "art": 5, "url": "https://thefederalist.com/2026/07/13/revolutionary-america-documentary-helps-americans-understand-our-great-inheritance/"}, {"name": "Bessarabka, Odes'ka Oblast, Ukraine", "cc": "UP", "lat": 47.16, "lon": 29.869, "n": 1, "art": 8, "url": "https://week.ukrainianwall.com/166897-berit-veliki-torbi-z-vivtorka-vsih-hto-zaraz-u-kiyevi-zabezpechat-produktami-grafiki-ta-adresi"}, {"name": "Sherbrooke, Quebec, Canada", "cc": "CA", "lat": 45.4, "lon": -71.9, "n": 2, "art": 10, "url": "https://www.lesaffaires.com/mon-entreprise/entrepreneuriat-et-pme/la-cremerie-ams-a-sherbrooke-consigne-ses-pots-de-creme-glacee/"}, {"name": "Bahia, Bahia, Brazil", "cc": "BR", "lat": -12.983, "lon": -38.517, "n": 1, "art": 10, "url": "https://www.correio24horas.com.br/colunistas/in-seguranca/bastidores-do-crime-binho-galinha-a-advogada-do-cv-e-o-esquema-de-celulares-em-presidio-0726"}, {"name": "Philadelphia, Pennsylvania, United States", "cc": "US", "lat": 39.952, "lon": -75.164, "n": 1, "art": 10, "url": "https://ildispaccio.it/calabria/2026/07/13/maxiprocesso-maestrale-olimpo-imperium-la-procura-generale-ricorre-in-cassazione-contro-lo-stop-agli-appelli-della-dda/"}, {"name": "Pakistan", "cc": "PK", "lat": 30.0, "lon": 70.0, "n": 1, "art": 10, "url": "https://roma.repubblica.it/cronaca/2026/07/13/news/aggressione_poliziotto_lanuvio_minimarket_anzio-425468308/"}, {"name": "Haryana, Haryana, India", "cc": "IN", "lat": 29.616, "lon": 76.981, "n": 1, "art": 10, "url": "https://www.dainiktribuneonline.com/news/haryana/not-an-inch-of-railway-line-laid-in-12-years-deepender-hooda-targets-bjp-also-makes-serious-allegations-regarding-the-ram-temple-dispute/"}, {"name": "Sulyok, Szabolcs-Szatm\u00e1Bereg, Hungary", "cc": "HU", "lat": 47.75, "lon": 21.85, "n": 4, "art": 25, "url": "https://www.thetablet.co.uk/news/budapest-archdiocese-warns-clergy-against-activism-after-priest-speaks-at-fidesz-rally/"}, {"name": "Herat, Herat, Afghanistan", "cc": "AF", "lat": 34.348, "lon": 62.2, "n": 1, "art": 5, "url": "https://www.news24.com/world/women-gripped-by-fear-as-taliban-cracks-down-on-dress-code-in-afghan-city-20260713-0841"}, {"name": "Durban, KwaZulu-Natal, South Africa", "cc": "SF", "lat": -29.85, "lon": 31.017, "n": 7, "art": 28, "url": "https://www.winnipegfreepress.com/world/2026/07/13/more-than-53000-immigrants-have-been-deported-or-repatriated-by-south-africa-in-a-crackdown"}, {"name": "Sydenham, Eastern Cape, South Africa", "cc": "SF", "lat": -33.925, "lon": 25.602, "n": 2, "art": 8, "url": "https://groundup.org.za/article/durban-residents-protest-to-oppose-proposed-student-housing/"}, {"name": "Baghdad, Baghdad, Iraq", "cc": "IZ", "lat": 33.339, "lon": 44.394, "n": 5, "art": 17, "url": "https://www.azzaman.com/%D8%A5%D8%B3%D8%AA%D8%B1%D8%AF%D8%A7%D8%AF-%D8%B3%D8%A8%D8%A7%D8%A6%D9%83-%D8%B0%D9%87%D8%A8-%D9%88%D8%B9%D9%82%D8%A7%D8%B1%D8%A7%D8%AA-%D9%85%D8%B3%D8%AC%D9%91%D9%84%D8%A9-%D8%A8%D8%A3%D8%B3%D9%85/"}, {"name": "Edinburgh, Edinburgh, City of, United Kingdom", "cc": "UK", "lat": 55.95, "lon": -3.2, "n": 1, "art": 10, "url": "https://www.gamedeveloper.com/business/-a-kick-in-the-teeth-game-workers-protest-alleged-misconduct-at-mindseye-developer-build-a-rocket-boy"}, {"name": "Barcelona, Comunidad Autonoma de Cataluna, Spain", "cc": "SP", "lat": 41.383, "lon": 2.183, "n": 1, "art": 10, "url": "https://www.bfmtv.com/podcasts/la-question-info/climateflation-pourquoi-le-phenomene-el-nino-risque-t-il-de-faire-flamber-les-prix-alimentaires-mondiaux_EN-202607130512.html"}, {"name": "Monaco", "cc": "MN", "lat": 43.733, "lon": 7.4, "n": 2, "art": 20, "url": "https://www.prensa-latina.cu/2026/07/13/presidente-dominicano-defiende-plan-anticrisis-tras-malestar-social/"}, {"name": "Entebbe, Wakiso, Uganda", "cc": "UG", "lat": 0.064, "lon": 32.447, "n": 2, "art": 11, "url": "https://edition.cnn.com/2026/07/13/middleeast/israel-boycott-operation-entebbe-commemoration-netanyahu-intl"}, {"name": "Tangshan, Hebei, China", "cc": "CH", "lat": 39.633, "lon": 118.183, "n": 1, "art": 10, "url": "https://www.globaltimes.cn/page/202607/1365854.shtml"}, {"name": "Rondonia, Rond\u00f4, Brazil", "cc": "BR", "lat": -10.867, "lon": -61.95, "n": 1, "art": 2, "url": "https://www.rondoniadinamica.com/noticias/2026/07/vitimas-de-fogo-amigo-ou-de-fake-news-acir-gurgacz-nao-desiste-redano-fala-de-operacao,249113.shtml"}, {"name": "Manaus, Amazonas, Brazil", "cc": "BR", "lat": -3.113, "lon": -60.025, "n": 1, "art": 10, "url": "https://www.rondoniadinamica.com/noticias/2026/07/vitimas-de-fogo-amigo-ou-de-fake-news-acir-gurgacz-nao-desiste-redano-fala-de-operacao,249113.shtml"}, {"name": "Canada", "cc": "CA", "lat": 60.0, "lon": -96.0, "n": 2, "art": 10, "url": "https://ensegundos.do/2026/07/13/protestas-en-el-seibo-tras-muerte-de-joven-de-la-que-acusan-a-la-policia/"}, {"name": "Bratislava, Bratislavsky Kraj, Slovak Republic", "cc": "LO", "lat": 48.15, "lon": 17.117, "n": 1, "art": 10, "url": "https://www.bratislavskenoviny.sk/doprava/89227-prva-nizkopodlazna-elektricka-presla-velkou-opravou-ulice-bratislavy-brazdi-ako-nova"}, {"name": "Belize", "cc": "BH", "lat": 17.25, "lon": -88.75, "n": 3, "art": 15, "url": "https://amandala.com.bz/news/udp-tests-its-strength-in-the-streets-on-friday/"}, {"name": "Gloucester, Gloucestershire, United Kingdom", "cc": "UK", "lat": 51.833, "lon": -2.25, "n": 1, "art": 4, "url": "https://www.herefordtimes.com/news/26276665.duchess-gloucester-visits-little-princess-trust-hereford/"}, {"name": "Yerevan, Yerevan*, Armenia", "cc": "AM", "lat": 40.181, "lon": 44.514, "n": 1, "art": 10, "url": "https://www.sardarabad.com.ar/armenia10477/10477-protesta-de-empleados-de-ararat-tras-la-detencion-de-tsarukian"}, {"name": "Utah, United States", "cc": "US", "lat": 40.114, "lon": -111.854, "n": 1, "art": 10, "url": "https://www.mondaq.com:443/unitedstates/corporate-governance/1816296/why-didnt-anyone-do-anything-teaching-employees-to-step-in-not-just-speak-up"}, {"name": "Saint Vincent And The Grenadines", "cc": "VC", "lat": 13.083, "lon": -61.2, "n": 1, "art": 10, "url": "https://confirmado.com.ve/son-ateos-los-cientificos-4/"}, {"name": "Karyes, Perifereia Thessalias, Greece", "cc": "GR", "lat": 39.53, "lon": 21.778, "n": 1, "art": 10, "url": "https://www.agronews.gr/politismos/230144/o-platanos-tou-vasilia-menelaou-sto-diktuo-aionovion-dendron/"}, {"name": "Buckingham Palace, Westminster, United Kingdom", "cc": "UK", "lat": 51.5, "lon": -0.133, "n": 5, "art": 20, "url": "https://www.ibtimes.co.uk/republic-activists-demand-democratic-reform-1808402"}, {"name": "Hanover, Niedersachsen, Germany", "cc": "GM", "lat": 52.367, "lon": 9.717, "n": 1, "art": 10, "url": "https://gds.it/articoli/economia/2026/07/13/volkswagen-a-rischio-50mila-posti-di-lavoro-2c0be926-2d78-400b-b458-4d30154410dd/"}, {"name": "Tbilisi, Georgia (general), Georgia", "cc": "GG", "lat": 41.725, "lon": 44.791, "n": 2, "art": 7, "url": "https://www.yeniazerbaycan.com/Iqtisadiyyat_e146537_az.html"}, {"name": "Tunisia", "cc": "TS", "lat": 34.0, "lon": 9.0, "n": 3, "art": 10, "url": "https://www.zazoom.it/2026-07-13/la-mafia-in-riviera-cera-davvero-confermate-tutte-le-condanne-i-territori-sanno-reagire/19457226/"}, {"name": "Ankara Gari, Ankara, Turkey", "cc": "TU", "lat": 39.937, "lon": 32.841, "n": 1, "art": 10, "url": "https://www.kibrispostasi.com/c36-TURKIYE/n607799-turkiye-suriyede-duzenledigi-operasyonda-deasin-ust-duzey-yoneticisini-yakaladi"}, {"name": "Sangachal, Baki*, Azerbaijan", "cc": "AJ", "lat": 40.169, "lon": 49.464, "n": 1, "art": 1, "url": "https://www.yeniazerbaycan.com/Iqtisadiyyat_e146537_az.html"}, {"name": "Ceyhan, Adana, Turkey", "cc": "TU", "lat": 37.025, "lon": 35.818, "n": 1, "art": 1, "url": "https://www.yeniazerbaycan.com/Iqtisadiyyat_e146537_az.html"}, {"name": "Golaghat, Assam, India", "cc": "IN", "lat": 26.517, "lon": 93.967, "n": 1, "art": 8, "url": "https://scroll.in/latest/1094235/rush-hour-sc-sets-aside-order-declaring-27-as-foreigners-tn-cow-slaughter-ban-stayed-and-more"}, {"name": "Kaziranga, Assam, India", "cc": "IN", "lat": 26.6, "lon": 93.467, "n": 2, "art": 12, "url": "https://www.survivalinternational.org/news/14531"}, {"name": "Kilrea, Coleraine, United Kingdom", "cc": "UK", "lat": 54.967, "lon": -6.583, "n": 1, "art": 4, "url": "https://www.belfastlive.co.uk/news/northern-ireland/orange-order-write-incoming-prime-34273016"}, {"name": "Piranshahr, Az\u00afarbayjan-e Gharbi, Iran", "cc": "IR", "lat": 36.701, "lon": 45.141, "n": 2, "art": 8, "url": "http://www.bignewsnetwork.com/news/279185228/heres-where-americas-next-strike-on-iran-will-come-from"}, {"name": "Donegall, Cork, Ireland", "cc": "EI", "lat": 51.514, "lon": -9.37, "n": 2, "art": 9, "url": "https://www.belfastlive.co.uk/news/northern-ireland/this-hatred-first-minister-speaks-34284519"}, {"name": "Karnataka, Karnataka, India", "cc": "IN", "lat": 13.5, "lon": 76.0, "n": 1, "art": 1, "url": "https://timesofindia.indiatimes.com/city/hubballi/ratna-bharat-raitha-samaj-demands-crop-loan-waiver-in-hubballi/articleshow/132372413.cms"}, {"name": "Abu Dhabi, Abu Z\u00b8aby, United Arab Emirates", "cc": "AE", "lat": 24.467, "lon": 54.367, "n": 1, "art": 3, "url": "https://www.gdnonline.com:443/Details/1400415"}, {"name": "Melena Del Sur, Provincia de Mayabeque, Cuba", "cc": "CU", "lat": 22.788, "lon": -82.151, "n": 2, "art": 10, "url": "https://havanatimes.org/news/cuban-political-prisoner-anibal-palau-jacinto-released/"}, {"name": "Dharwad, Karnataka, India", "cc": "IN", "lat": 15.467, "lon": 75.017, "n": 1, "art": 3, "url": "https://timesofindia.indiatimes.com/city/hubballi/ratna-bharat-raitha-samaj-demands-crop-loan-waiver-in-hubballi/articleshow/132372413.cms"}, {"name": "Bethesda, Maryland, United States", "cc": "US", "lat": 38.981, "lon": -77.1, "n": 6, "art": 18, "url": "https://www.kitguru.net/gaming/matthew-wilson/bethesda-employees-plan-protest-over-microsoft-layoffs/"}, {"name": "San Isidro, Sancti Sp\u00edtus, Cuba", "cc": "CU", "lat": 21.9, "lon": -79.433, "n": 1, "art": 2, "url": "https://havanatimes.org/news/cuban-political-prisoner-anibal-palau-jacinto-released/"}, {"name": "Milan, Lombardia, Italy", "cc": "IT", "lat": 45.467, "lon": 9.2, "n": 1, "art": 10, "url": "https://www.zazoom.it/2026-07-13/caldo-e-lavoro-protesta-dei-lavoratori-dei-musei-rider-in-sciopero/19457361/"}, {"name": "Indore, Madhya Pradesh, India", "cc": "IN", "lat": 22.717, "lon": 75.833, "n": 2, "art": 10, "url": "https://www.freepressjournal.in/indore/traders-protest-over-shop-redevelopment-in-jhabua"}, {"name": "Nebraska, United States", "cc": "US", "lat": 41.129, "lon": -98.288, "n": 1, "art": 8, "url": "https://www.washingtonexaminer.com/news/campaigns/4645945/mamdani-continue-work-strategist-morris-katz-after-platner-scandal/"}, {"name": "Durres, Qarku i Durresit, Albania", "cc": "AL", "lat": 41.323, "lon": 19.441, "n": 1, "art": 10, "url": "https://sot.com.al/opinion-editorial/politika-e-pas-viteve-90-grabiti-vodhi-tradhtoi-dhe-e-kriminalizoi-shtetin/"}, {"name": "Mulhouse, Alsace, France", "cc": "FR", "lat": 47.738, "lon": 7.348, "n": 1, "art": 10, "url": "https://www.ici.fr/grand-est/alsace-cea/moosch/tour-de-france-en-alsace-ecran-geant-animations-musicales-et-repas-marcaires-dans-la-fan-zone-de-moosch-2002384"}, {"name": "Tokyo, Tokyo, Japan", "cc": "JA", "lat": 35.685, "lon": 139.751, "n": 3, "art": 14, "url": "https://www.straitstimes.com/opinion/when-online-outrage-gets-in-the-way-of-beijings-diplomatic-outreach"}, {"name": "Tijuana, Baja California, Mexico", "cc": "MX", "lat": 32.533, "lon": -117.017, "n": 1, "art": 6, "url": "https://www.dailymail.com/tvshowbiz/article-15963521/Richard-Pryor-drunk-addict-cheater-N-word.html"}, {"name": "Paraguay", "cc": "PA", "lat": -22.993, "lon": -57.996, "n": 1, "art": 10, "url": "https://www.ultimahora.com/promueven-pension-graciable-para-la-mama-de-rodrigo-quintana"}, {"name": "Negros Occidental, Negros Occidental, Philippines", "cc": "RP", "lat": 10.417, "lon": 123.0, "n": 4, "art": 10, "url": "https://www.claycord.com/2026/07/13/contra-costa-county-sugar-showdown-escalates-as-cargo-ship-finally-docks-at-ch-during-strike/"}, {"name": "Sacramento, California, United States", "cc": "US", "lat": 38.582, "lon": -121.494, "n": 1, "art": 6, "url": "https://timesofsandiego.com/health/2026/07/13/kaiser-nurses-technology-patient-care/"}, {"name": "San Francisco, California, United States", "cc": "US", "lat": 37.775, "lon": -122.419, "n": 2, "art": 8, "url": "https://timesofsandiego.com/health/2026/07/13/kaiser-nurses-technology-patient-care/"}, {"name": "Chad", "cc": "CD", "lat": 15.0, "lon": 19.0, "n": 1, "art": 2, "url": "https://timesofsandiego.com/health/2026/07/13/kaiser-nurses-technology-patient-care/"}, {"name": "Puebla, Puebla, Mexico", "cc": "MX", "lat": 19.05, "lon": -98.2, "n": 1, "art": 6, "url": "https://www.elimparcial.com/tij/tijuana/2026/07/13/guardia-nacional-realiza-toma-de-posesion-del-nuevo-coordinador-interino-del-batallon-de-apoyo-a-aduanas-en-baja-california/"}, {"name": "Anzio, Lazio, Italy", "cc": "IT", "lat": 41.45, "lon": 12.617, "n": 1, "art": 10, "url": "https://www.ilfaroonline.it/2026/07/13/lavinio-testata-al-poliziotto-era-intervenuto-per-sedare-una-lite/642997"}, {"name": "Cervia, Emilia-Romagna, Italy", "cc": "IT", "lat": 44.262, "lon": 12.359, "n": 1, "art": 10, "url": "https://www.ilrestodelcarlino.it/cesena/cronaca/mafia-riviera--tkthurxd"}, {"name": "Chapel Hill, North Carolina, United States", "cc": "US", "lat": 35.943, "lon": -82.709, "n": 2, "art": 8, "url": "https://www.piratemedia1.com/theeastcarolinian/article_6fb46755-0cd3-4c63-b48a-b5e3d821bc38.html"}, {"name": "Great Lakes, Michigan, United States", "cc": "US", "lat": 45.688, "lon": -84.438, "n": 1, "art": 2, "url": "https://courthousenews.com/the-next-big-races-between-moderates-and-progressives-are-in-pivotal-midwestern-states/"}, {"name": "Piedmont, Piemonte, Italy", "cc": "IT", "lat": 45.0, "lon": 8.0, "n": 1, "art": 10, "url": "https://www.italpress.com/space-economy-filiera-da-31-miliardi/"}, {"name": "Bombay, Maharashtra, India", "cc": "IN", "lat": 18.975, "lon": 72.826, "n": 1, "art": 5, "url": "https://countercurrents.org/2026/07/a-muslim-judge-under-siege-what-the-judge-tabassum-khan-case-says-about-minority-rights-in-todays-india/"}, {"name": "Harlingen, Texas, United States", "cc": "US", "lat": 26.191, "lon": -97.696, "n": 1, "art": 2, "url": "https://www.dallasobserver.com/news/target-the-money-activists-say-love-field-ice-protests-are-working-40695657/"}, {"name": "Portland, Oregon, United States", "cc": "US", "lat": 45.523, "lon": -122.676, "n": 1, "art": 2, "url": "https://www.klcc.org/politics-government/2026-07-13/tear-gas-use-at-portland-ice-facility-once-again-before-federal-appeals-court"}, {"name": "Brasilia, Distrito Federal, Brazil", "cc": "BR", "lat": -15.783, "lon": -47.917, "n": 1, "art": 10, "url": "https://revistaforum.com.br/debates/terras-raras-carta-aberta/"}, {"name": "Windhoek, Khomas, Namibia", "cc": "WA", "lat": -22.57, "lon": 17.084, "n": 1, "art": 10, "url": "https://www.namibian.com.na/2-600-nursing-graduates-fail-national-hpcna-assessment/"}, {"name": "Qarchak, Tehran, Iran", "cc": "IR", "lat": 35.439, "lon": 51.569, "n": 1, "art": 5, "url": "https://www.ncr-iran.org/en/ncri-statements/statement-human-rights/raid-by-iranian-regimes-henchmen-on-female-political-prisoners-ward-in-evin/"}, {"name": "Lemoniz, Pais Vasco, Spain", "cc": "SP", "lat": 43.383, "lon": 4.617, "n": 1, "art": 10, "url": "https://www.eldiario.es/cultura/comics/lemoniz-historia-tragedia-convertida-ficcion-victimas-eta-han-cargado-verguenza-durante-anos_1_13376027.html"}, {"name": "Gabon", "cc": "GB", "lat": -1.0, "lon": 11.75, "n": 1, "art": 10, "url": "https://www.gabonews.com/fr/actus/cooperation/article/louise-pierrette-mvono-recue-par-le-representant"}, {"name": "Darfur, Gharb Darfur, Sudan", "cc": "SU", "lat": 13.5, "lon": 23.5, "n": 4, "art": 11, "url": "https://sudanile.com/%D9%85%D8%AC%D9%84%D8%B3-%D8%A7%D9%84%D8%A3%D9%85%D9%86-%D9%88%D8%A7%D9%84%D8%AF%D9%81%D8%A7%D8%B9-%D8%A7%D9%84%D8%B3%D9%88%D8%AF%D8%A7%D9%86%D9%8A-%D9%8A%D9%82%D8%B1-%D8%A8%D9%80/"}, {"name": "Vlora, Vlore, Albania", "cc": "AL", "lat": 40.467, "lon": 19.49, "n": 2, "art": 10, "url": "https://sot.com.al/aktualitet/shqiptaret-protestojne-ne-nju-jork-kunder-rames-media-amerikane-i-bejne-thirrje-dhe-ish-kryebashkiakut/"}, {"name": "Dublin, Dublin, Ireland", "cc": "EI", "lat": 53.333, "lon": -6.249, "n": 1, "art": 1, "url": "https://nypost.com/2026/07/13/world-news/migrant-who-fled-ireland-after-murder-of-ny-mom-jamey-carney-arrested-in-jordan/"}, {"name": "Sazan, Vlore, Albania", "cc": "AL", "lat": 40.492, "lon": 19.275, "n": 1, "art": 8, "url": "https://www.zerohedge.com/news/2026-07-13/anti-corruption-probe-links-kushner-luxury-resort-international-drug-trafficking"}, {"name": "Kentucky, United States", "cc": "US", "lat": 37.669, "lon": -84.651, "n": 1, "art": 2, "url": "https://www.thedailybeast.com/maga-memes-mock-mcconnells-proof-of-life-photo-release/"}, {"name": "Quetta, Balochistan, Pakistan", "cc": "PK", "lat": 30.199, "lon": 67.01, "n": 2, "art": 4, "url": "https://balochwarna.com/2026/07/baloch-diaspora-protests-in-germany-over-sentencing-of-rights-activists-by-pakistan/"}, {"name": "Mancherial, Andhra Pradesh, India", "cc": "IN", "lat": 18.867, "lon": 79.433, "n": 1, "art": 8, "url": "https://www.deccanchronicle.com/southern-states/telangana/seven-held-25-litres-of-hash-oil-seized-1970720"}, {"name": "Singareni, Andhra Pradesh, India", "cc": "IN", "lat": 17.5, "lon": 80.267, "n": 1, "art": 2, "url": "https://www.deccanchronicle.com/southern-states/telangana/seven-held-25-litres-of-hash-oil-seized-1970720"}, {"name": "Zionsville, Indiana, United States", "cc": "US", "lat": 39.951, "lon": -86.262, "n": 2, "art": 5, "url": "https://www.clevelandjewishnews.com/jns/fbi-investigating-possible-hate-crime-after-indiana-home-displaying-us-israeli-flags-set-on-fire/article_5ce77d39-f022-5bbc-8d61-38cc0c199397.html"}, {"name": "Indiana, United States", "cc": "US", "lat": 39.865, "lon": -86.26, "n": 3, "art": 5, "url": "https://www.clevelandjewishnews.com/jns/fbi-investigating-possible-hate-crime-after-indiana-home-displaying-us-israeli-flags-set-on-fire/article_5ce77d39-f022-5bbc-8d61-38cc0c199397.html"}, {"name": "Catamarca, Catamarca, Argentina", "cc": "AR", "lat": -28.47, "lon": -65.785, "n": 1, "art": 10, "url": "https://www.elesquiu.com/regionales/2026/7/13/vecinos-de-aguas-calientes-cortan-la-ruta-40-en-el-eje-para-reclamar-f-588809.html"}, {"name": "Patagonia, Argentina (general), Argentina", "cc": "AR", "lat": -44.0, "lon": -68.0, "n": 1, "art": 6, "url": "http://www.hawaiitelegraph.com/news/279185398/ameerex-advances-north-american-resource-program-and-ameerex-patagonia-lithium-jv"}, {"name": "Palanka, Zadarska, Croatia", "cc": "HR", "lat": 44.144, "lon": 16.067, "n": 2, "art": 20, "url": "https://www.glas-slavonije.hr/novosti/svijet/2026/07/13/blokirali-cestu-zbog-problema-na-hrvatskoj-granici-ugrozen-nam-je-svakodnevni-zivot-774332/"}, {"name": "Tel Aviv, Tel Aviv, Israel", "cc": "IS", "lat": 32.067, "lon": 34.767, "n": 1, "art": 4, "url": "https://www.ynetnews.com/culture/article/bycjfqfnmx"}, {"name": "Jerusalem, Israel (general), Israel", "cc": "IS", "lat": 31.767, "lon": 35.233, "n": 1, "art": 4, "url": "https://www.ynetnews.com/culture/article/bycjfqfnmx"}, {"name": "Hillsdale, New York, United States", "cc": "US", "lat": 42.179, "lon": -73.526, "n": 1, "art": 5, "url": "https://thefederalist.com/2026/07/13/revolutionary-america-documentary-helps-americans-understand-our-great-inheritance-1/"}, {"name": "Ciudad De Mexico, Distrito Federal, Mexico", "cc": "MX", "lat": 19.434, "lon": -99.139, "n": 1, "art": 8, "url": "https://bitacora.com.uy/trump-se-reunira-con-el-lider-de-la-examen-venezolana-posteriormente-de-acercarse-al-sucesor-de-formado/"}, {"name": "Stockholm, Stockholm, Sweden", "cc": "SW", "lat": 59.333, "lon": 18.05, "n": 1, "art": 10, "url": "https://www.algemeiner.com/2026/07/13/swedish-jewish-doctor-alleges-antisemitic-abuse-by-colleague-after-losing-healthcare-position/"}, {"name": "Nestin, , Serbia", "cc": "RI", "lat": 45.226, "lon": 19.451, "n": 2, "art": 8, "url": "https://www.jutarnji.hr/vijesti/hrvatska/blokada-nestin-vizic-sengenska-pravila-tranzit-granica-hrvatska-15727600"}, {"name": "Chilkat, Alaska, United States", "cc": "US", "lat": 59.4, "lon": -135.896, "n": 1, "art": 5, "url": "https://www.knba.org/news/2026-07-13/klukwan-could-get-1-2-million-from-fema-for-landslide-project"}, {"name": "Cobram, Victoria, Australia", "cc": "AS", "lat": -35.921, "lon": 145.641, "n": 1, "art": 10, "url": "https://www.examiner.com.au/story/9309403/oversight-of-tasmania-police-oc-spray-use-crucial-lawyer-argues/"}, {"name": "Gulf Of Oman, Iran (general), Iran", "cc": "IR", "lat": 25.449, "lon": 57.794, "n": 1, "art": 10, "url": "https://www.wyomingpublicmedia.org/2026-07-13/the-u-s-strikes-iran-after-trump-announces-a-renewed-blockade-and-tolls-in-hormuz"}, {"name": "Colorado, United States", "cc": "US", "lat": 39.065, "lon": -105.327, "n": 1, "art": 10, "url": "https://www.prnewswire.com/news-releases/sierra-space-awarded-798-million-missile-defense-contract-in-support-of-golden-dome-for-america-302824258.html"}, {"name": "Pernambuco, Estado de Pernambuco, Brazil", "cc": "BR", "lat": -8.05, "lon": -34.9, "n": 1, "art": 10, "url": "https://regiaonoroeste.com/obras-contra-alagamentos-interditam-trecho-da-rua-pernambuco-em-fernandopolis/"}, {"name": "Ascoli Piceno, Marche, Italy", "cc": "IT", "lat": 42.85, "lon": 13.567, "n": 1, "art": 10, "url": "https://www.ilrestodelcarlino.it/ascoli/cronaca/il-giustiziere-di-san-benedetto-o2jl4dge"}, {"name": "Nea Ionia, Perifereia Attikis, Greece", "cc": "GR", "lat": 38.033, "lon": 23.75, "n": 1, "art": 4, "url": "https://zonews.gr/perroti-agia-olga-nosokomio-2026-07-11/"}, {"name": "Tachira, T\u00e1ira, Venezuela", "cc": "VE", "lat": 8.115, "lon": -72.257, "n": 2, "art": 2, "url": "https://runrun.es/rr-es-plus/614657/angel-pauso-su-vida-para-ayudar-en-los-rescates-de-la-guaira/"}, {"name": "Beirut, Beyrouth, Lebanon", "cc": "LE", "lat": 33.872, "lon": 35.51, "n": 1, "art": 10, "url": "https://ansabrasil.com.br/brasil/noticias/mundo/2026/07/13/italia-mediara-rodada-de-negociacoes-entre-israel-e-libano-entre-14-e-157_0bb392e7-a9e3-41a7-850e-d8c62a7ece6d.html"}, {"name": "Ben-Gurion, HaMerkaz, Israel", "cc": "IS", "lat": 32.011, "lon": 34.887, "n": 2, "art": 8, "url": "https://www.pressenza.com/2026/07/the-jewish-brigade/"}, {"name": "Mashhad, (IR30), Iran", "cc": "IR", "lat": 36.297, "lon": 59.606, "n": 1, "art": 2, "url": "https://alhurra.com/26704"}, {"name": "Jordan", "cc": "JO", "lat": 31.0, "lon": 36.0, "n": 1, "art": 10, "url": "https://sonara.net/%D9%87%D9%8A%D9%81%D8%A7%D8%A1-%D9%88%D9%87%D8%A8%D9%8A-%D8%AA%D9%83%D8%B4%D9%81-%D9%84%D8%A3%D9%88%D9%84-%D9%85%D8%B1%D8%A9-%D8%B3%D8%A8%D8%A8-%D8%A5%D9%84%D8%BA%D8%A7%D8%A1-%D8%AF%D9%8A%D9%88/"}, {"name": "Black Sea, Oceans (general), Oceans", "cc": "OS", "lat": 43.0, "lon": 35.0, "n": 1, "art": 10, "url": "https://www.globalsecurity.org/military/library/news/2026/07/mil-260713-usnpr01.htm"}, {"name": "Minnesota, United States", "cc": "US", "lat": 45.733, "lon": -93.92, "n": 1, "art": 2, "url": "https://www.forbes.com/sites/forbes-personal-shopper/2026/07/13/10-shark-tank-sleep-brands/"}, {"name": "Berkeley, California, United States", "cc": "US", "lat": 37.872, "lon": -122.273, "n": 1, "art": 1, "url": "https://kpfa.org/episode/womens-magazine-july-13-2026/"}]