[{"name": "Trichy, Tamil Nadu, India", "cc": "IN", "lat": 10.805, "lon": 78.686, "n": 2, "art": 10, "url": "https://www.deccanchronicle.com/southern-states/tamil-nadu/committee-to-assess-palani-temple-properties-1973187"}, {"name": "Kyiv, Kyyiv, Misto, Ukraine", "cc": "UP", "lat": 50.433, "lon": 30.517, "n": 13, "art": 136, "url": "https://www.irishtimes.com/opinion/editorials/2026/07/23/the-irish-times-view-on-war-in-ukraine-zelenskiy-makes-his-choice/"}, {"name": "Kremlin, Moskva, Russia", "cc": "RS", "lat": 55.752, "lon": 37.616, "n": 9, "art": 54, "url": "https://www.alo.rs/vesti/ukrajina/16864509/analiticar-u-rusiji-bi-mogao-da-usledi-novi-talas-mobilizacije.html"}, {"name": "Rocky Mountain, Montana, United States", "cc": "US", "lat": 47.812, "lon": -112.8, "n": 2, "art": 4, "url": "https://www.spokesman.com/stories/2026/jul/22/american-scientists-see-prosecutions-as-part-of-fe/"}, {"name": "Montana, United States", "cc": "US", "lat": 46.905, "lon": -110.326, "n": 1, "art": 1, "url": "https://www.spokesman.com/stories/2026/jul/22/american-scientists-see-prosecutions-as-part-of-fe/"}, {"name": "Georgia, United States", "cc": "US", "lat": 32.987, "lon": -83.649, "n": 4, "art": 21, "url": "https://www.foxnews.com/politics/hidden-left-wing-network-powering-conservative-rebellion-against-major-trump-priority"}, {"name": "Israel", "cc": "IS", "lat": 31.5, "lon": 34.75, "n": 16, "art": 82, "url": "https://www.triesteprima.it/cronaca/yacht-usa-manifestazione-palestina.html"}, {"name": "Ladakh, Jammu and Kashmir, India", "cc": "IN", "lat": 34.5, "lon": 77.5, "n": 3, "art": 10, "url": "https://www.moneycontrol.com/education/from-journalism-graduate-to-cjp-founder-abhijeet-dipke-s-educational-background-career-and-everything-you-need-to-know-article-13981574.html"}, {"name": "London, London, City of, United Kingdom", "cc": "UK", "lat": 51.5, "lon": -0.117, "n": 16, "art": 92, "url": "http://usa.chinadaily.com.cn/a/202607/24/WS6a6248d7a310986e2b466fca.html"}, {"name": "Reed College, Oregon, United States", "cc": "US", "lat": 45.481, "lon": -122.63, "n": 1, "art": 6, "url": "http://www.jpost.com/diaspora/antisemitism/article-903374"}, {"name": "Illinois, United States", "cc": "US", "lat": 40.336, "lon": -89.002, "n": 4, "art": 16, "url": "https://iecc.edu/occ/occ-and-wvc-named-illinois-top-lpn-programs"}, {"name": "California, United States", "cc": "US", "lat": 36.17, "lon": -119.746, "n": 3, "art": 30, "url": "https://www.sheknows.com/entertainment/articles/1235036693/scout-willis-naked-birthday-photoshoot/"}, {"name": "Bakhmut, Donets'ka Oblast', Ukraine", "cc": "UP", "lat": 48.596, "lon": 38.0, "n": 1, "art": 10, "url": "https://www.dailymail.com/news/article-15997741/Why-power-struggle-Ukraines-two-military-geniuses-reflects-truth-modern-warfare-nation-confront.html"}, {"name": "Rhode Island, United States", "cc": "US", "lat": 41.677, "lon": -71.51, "n": 3, "art": 16, "url": "https://www.bostonglobe.com/2026/07/23/metro/chan-hong-ice-deportation-protest-warwick-rhode-island/"}, {"name": "Iran", "cc": "IR", "lat": 32.0, "lon": 53.0, "n": 13, "art": 103, "url": "https://24-ore.com/para-kuvendit-jane-njerezit-e-partive-te-vogla-bido-ne-proteste-grupime-te-iranit-dhe/"}, {"name": "Vietnam, Republic Of", "cc": "VM", "lat": 16.167, "lon": 107.833, "n": 2, "art": 10, "url": "https://www.history.com/articles/how-a-postal-strike-became-a-national-emergency-for-richard-nixon"}, {"name": "Paris, France (general), France", "cc": "FR", "lat": 48.867, "lon": 2.333, "n": 8, "art": 32, "url": "https://pravda.if.ua/u-frankivsioku-planuyutio-rozshyryty-problemnyj-trotuar-na-vulyczi-bandery/"}, {"name": "Tehran, Tehran, Iran", "cc": "IR", "lat": 35.75, "lon": 51.515, "n": 8, "art": 40, "url": "https://news.webindia123.com/news/Articles/World/20260723/4478449.html"}, {"name": "El Bolson, Catamarca, Argentina", "cc": "AR", "lat": -27.922, "lon": -65.868, "n": 1, "art": 10, "url": "https://www.rionegro.com.ar/politica/desregulacion-inmobiliaria-las-claves-del-proyecto-que-impulsa-el-gobierno-4657596/"}, {"name": "Argentina", "cc": "AR", "lat": -34.0, "lon": -64.0, "n": 6, "art": 60, "url": "https://www.tvn.cl/deportes/mundial-2026/una-verguenza-interrumpen-a-franco-colapinto-al-referirse-al-fracaso"}, {"name": "Cambodia", "cc": "CB", "lat": 13.0, "lon": 105.0, "n": 1, "art": 1, "url": "https://turnto10.com/news/local/supporters-rally-cambodian-born-caregiver-facing-deportation-ice-officers-police-immigration-customs-enforcement-july-22-2026"}, {"name": "Arroyo Hondo, Distrito Nacional, Dominican Republic", "cc": "DR", "lat": 18.496, "lon": -69.936, "n": 2, "art": 10, "url": "https://dominicantoday.com/abinader-inaugurates-porto-town-center-expected-to-strengthen-commerce-in-arroyo-hondo/"}, {"name": "Pierce County, Washington, United States", "cc": "US", "lat": 47.033, "lon": -122.118, "n": 2, "art": 5, "url": "https://www.uschamber.com/improving-government/u-s-chamber-endorses-rep-marilyn-strickland-for-washingtons-tenth-district"}, {"name": "Washington, United States", "cc": "US", "lat": 47.392, "lon": -121.571, "n": 2, "art": 5, "url": "https://www.uschamber.com/improving-government/u-s-chamber-endorses-rep-marilyn-strickland-for-washingtons-tenth-district"}, {"name": "Atlanta, Georgia, United States", "cc": "US", "lat": 33.749, "lon": -84.388, "n": 1, "art": 2, "url": "https://www.wkyufm.org/2026-07-22/mans-account-sparks-concerns-about-disability-care-in-ice-detention-facilities"}, {"name": "Florida, United States", "cc": "US", "lat": 27.833, "lon": -81.717, "n": 2, "art": 4, "url": "https://www.theverge.com/policy/969667/humans-first-data-center-protest-hernando-county-florida-republicans"}, {"name": "University Of Miami, Florida, United States", "cc": "US", "lat": 25.72, "lon": -80.279, "n": 1, "art": 4, "url": "https://www.capitalgazette.com/2026/07/22/climate-coral-rescue/"}, {"name": "Italy", "cc": "IT", "lat": 42.833, "lon": 12.833, "n": 12, "art": 92, "url": "https://www.ilfattoquotidiano.it/2026/07/23/imputabilita-minori-ddl-governo-notizie/8457249/"}, {"name": "Ukraine", "cc": "UP", "lat": 49.0, "lon": 32.0, "n": 15, "art": 99, "url": "https://news.az/news/what-weapons-is-russia-using-in-zaporizhzhia-attacks"}, {"name": "Washington, District of Columbia, United States", "cc": "US", "lat": 38.895, "lon": -77.036, "n": 13, "art": 55, "url": "https://www.leparisien.fr/international/20-milliards-de-dollars-de-dommage-provoque-par-le-seisme-au-venezuela-selon-la-banque-mondiale-23-07-2026-QZM2VAX5WNAWBGOZFDPRGML7BI.php"}, {"name": "Antioquia, Cundinamarca, Colombia", "cc": "CO", "lat": 4.6, "lon": -74.4, "n": 1, "art": 2, "url": "https://www.hsbnoticias.com/escudo-de-las-americas-medellin-sede-colombia/"}, {"name": "Cuernavaca, Morelos, Mexico", "cc": "MX", "lat": 18.917, "lon": -99.25, "n": 1, "art": 6, "url": "https://laopinion.com/2026/07/22/asesinan-en-morelos-al-alcalde-de-temoac-valentin-lavin-romero-en-un-ataque-armado-en-la-presidencia-municipal/"}, {"name": "Morelos, M\u00e9co, Mexico", "cc": "MX", "lat": 19.601, "lon": -99.052, "n": 2, "art": 4, "url": "https://laopinion.com/2026/07/22/asesinan-en-morelos-al-alcalde-de-temoac-valentin-lavin-romero-en-un-ataque-armado-en-la-presidencia-municipal/"}, {"name": "Sweden", "cc": "SW", "lat": 62.0, "lon": 15.0, "n": 15, "art": 136, "url": "https://www.elinformador.com.co/index.php/la-ciudad/81-distrito/355976-bloqueo-en-acceso-al-aeropuerto-de-santa-marta-por-falta-de-agua-potable"}, {"name": "Delhi, Delhi, India", "cc": "IN", "lat": 28.667, "lon": 77.217, "n": 254, "art": 1243, "url": "https://indianexpress.com/article/cities/delhi/please-talk-to-the-children-physicswallah-ceo-appeals-to-government-10800877/"}, {"name": "Saudi Arabia", "cc": "SA", "lat": 25.0, "lon": 45.0, "n": 5, "art": 30, "url": "https://www.dailymail.com/news/article-16000037/UK-drivers-pump-prices-Iran-war-oil-barrel-Trump.html"}, {"name": "Rome, Lazio, Italy", "cc": "IT", "lat": 41.9, "lon": 12.483, "n": 7, "art": 70, "url": "https://socialistworker.co.uk/international/protests-and-strikes-demand-justice-for-italys-george-floyd/"}, {"name": "Kiev, Ukraine (general), Ukraine", "cc": "UP", "lat": 50.433, "lon": 30.517, "n": 27, "art": 204, "url": "https://fondsk.ru/news/2026/07/23/skhvatka-za-voennyy-byudzhet-ili-kuda-budet-drapat-novyy-ukrainskiy"}, {"name": "New Zealand", "cc": "NZ", "lat": -42.0, "lon": 174.0, "n": 5, "art": 24, "url": "https://www.scoop.co.nz/stories/PO2607/S00155/psa-calls-on-govt-to-make-mileage-increase-permanent-as-oil-prices-surge.htm"}, {"name": "North Bend, Washington, United States", "cc": "US", "lat": 47.496, "lon": -121.787, "n": 1, "art": 2, "url": "https://www.auburn-reporter.com/2026/07/22/who-is-adam-james-candidate-garners-protesters-at-north-bend-forum/"}, {"name": "United States", "cc": "US", "lat": 39.828, "lon": -98.579, "n": 23, "art": 155, "url": "https://www.npr.org/2026/07/23/nx-s1-5904499/ukraines-leadership-shakeup-view-from-moscow-is-russia-a-friend-or-foe"}, {"name": "Shanghai, Shanghai, China", "cc": "CH", "lat": 31.222, "lon": 121.458, "n": 3, "art": 15, "url": "https://www.globaltimes.cn/page/202607/1366674.shtml"}, {"name": "Lixin, Guangdong, China", "cc": "CH", "lat": 23.28, "lon": 113.866, "n": 1, "art": 2, "url": "http://en.people.cn/n3/2026/0722/c98649-20480763.html"}, {"name": "Thailand", "cc": "TH", "lat": 15.0, "lon": 100.0, "n": 1, "art": 10, "url": "https://phnompenhpost.com/national/cambodia-accuses-thai-troops-of-continued-border-violations-delaying-jbc-commitments/"}, {"name": "Nicaragua", "cc": "NU", "lat": 13.0, "lon": -85.0, "n": 1, "art": 10, "url": "https://www.aciprensa.com/noticias/127073/sacerdote-dejo-nicaragua-persecucion"}, {"name": "Donbas, Ukraine (general), Ukraine", "cc": "UP", "lat": 48.5, "lon": 38.5, "n": 1, "art": 10, "url": "https://www.blisty.cz/art/134868-zelenskyj-vymenil-velitele-ozbrojenych-sil-a-povolal-zpet-ministra-obrany-ktereho-predtim-odvolal.html"}, {"name": "China", "cc": "CH", "lat": 35.0, "lon": 105.0, "n": 15, "art": 62, "url": "https://www.pakistantoday.com.pk/2026/07/23/chinese-fm-urges-closer-china-asean-cooperation-to-tackle-challenges"}, {"name": "Philippine, Benguet, Philippines", "cc": "RP", "lat": 16.45, "lon": 120.55, "n": 14, "art": 51, "url": "https://www.philstar.com/headlines/2026/07/24/2544301/sona-2026-earth-shaking-wont-touch-sara-trial"}, {"name": "France", "cc": "FR", "lat": 46.0, "lon": 2.0, "n": 7, "art": 54, "url": "https://screenrant.com/netflix-elite-force-series-must-watch/"}, {"name": "India", "cc": "IN", "lat": 20.0, "lon": 77.0, "n": 39, "art": 304, "url": "https://news.az/news/indian-activist-wangchuk-ends-26-day-hunger-strike"}, {"name": "Sao Paulo, S\u00e3Paulo, Brazil", "cc": "BR", "lat": -23.533, "lon": -46.617, "n": 1, "art": 10, "url": "https://g1.globo.com/sp/sao-paulo/eleicoes/2026/noticia/2026/07/22/up-lanca-vivian-mendes-ao-governo-de-sp-com-chapa-puro-sangue-em-convencao-estadual-em-sp.ghtml"}, {"name": "Malta", "cc": "MT", "lat": 35.917, "lon": 14.433, "n": 1, "art": 2, "url": "https://www.lapresse.ca/international/2026-07-22/le-monde-en-images.php"}, {"name": "Philippines", "cc": "RP", "lat": 13.0, "lon": 122.0, "n": 3, "art": 18, "url": "http://french.peopledaily.com.cn/Chine/n3/2026/0723/c31354-20480809.html"}, {"name": "Uruguay", "cc": "UY", "lat": -33.0, "lon": -56.0, "n": 1, "art": 10, "url": "https://www.subrayado.com.uy/garcia-celebro-marcha-atras-del-gobierno-el-tema-afap-senador-socialista-decision-del-mef-es-un-retroceso-n1013463"}, {"name": "Dilli, Delhi, India", "cc": "IN", "lat": 28.667, "lon": 77.217, "n": 2, "art": 15, "url": "https://timesofindia.indiatimes.com/life-style/spotlight/protest-with-a-punchlineinside-indias-most-gen-z-coded-protest/articleshow/132573409.cms"}, {"name": "Seoul, Soul-t'ukpyolsi, South Korea", "cc": "KS", "lat": 37.566, "lon": 127.0, "n": 9, "art": 45, "url": "https://www.koreaherald.com/article/10818375"}, {"name": "New York, United States", "cc": "US", "lat": 42.15, "lon": -74.938, "n": 25, "art": 96, "url": "https://www.theblaze.com/shows/the-glenn-beck-program/glenn-beck-how-mamdani-is-leading-democrats-straight-off-a-cliff"}, {"name": "Tel Aviv, Tel Aviv, Israel", "cc": "IS", "lat": 32.067, "lon": 34.767, "n": 1, "art": 1, "url": "https://www.newser.com/story/393329/us-saudi-nuclear-deal-unnerves-isolates-israel.html"}, {"name": "Turkey", "cc": "TU", "lat": 39.059, "lon": 34.912, "n": 4, "art": 10, "url": "https://www.baltictimes.com/lithuania_protests_to_russia_over_attacks_on_civilians_in_ukraine/"}, {"name": "Jammu, Jammu and Kashmir, India", "cc": "IN", "lat": 32.733, "lon": 74.867, "n": 6, "art": 27, "url": "https://aninews.in/news/national/general-news/country-facing-its-biggest-test-since-1947-pdps-mehbooba-mufti-expresses-support-to-youth-for-neet-paper-leak-agitation20260723212620/"}, {"name": "Nadda, Uttaranchal, India", "cc": "IN", "lat": 29.867, "lon": 78.582, "n": 54, "art": 312, "url": "https://www.oneindia.com/india/sonam-wangchuk-ends-hunger-strike-after-26-days-jp-nadda-jitendra-singh-in-attendance-watch-8155433.html"}, {"name": "Casablanca, Grand Casablanca, Morocco", "cc": "MO", "lat": 33.59, "lon": -7.61, "n": 1, "art": 10, "url": "https://fr.le360.ma/politique/port-de-casablanca-colere-des-importateurs-face-a-la-congestion_35UJY4HJQRGUDBQLY6HB2TAV6A/"}, {"name": "Senayan, Sumatera Utara, Indonesia", "cc": "ID", "lat": 3.437, "lon": 99.057, "n": 3, "art": 20, "url": "https://megapolitan.kompas.com/read/2026/07/23/08521861/mahasiswa-dan-ojol-demo-di-jakarta-hari-ini-waspadai-potensi-lalin-macet"}, {"name": "Mauritius", "cc": "MP", "lat": 16.0, "lon": 146.0, "n": 1, "art": 10, "url": "https://www.elliberal.com.ar/nota/86430/2026/07/tras-marchar-al-congreso-con-los-jubilados-la-cgt-ya-tiene-fecha-de-las-proximas-protestas-"}, {"name": "Monaco", "cc": "MN", "lat": 43.733, "lon": 7.4, "n": 1, "art": 10, "url": "https://elnacional.com.do/nacionales/judicial/condenan-30-anos-prision-hombre-matar-vigilante-asalto-san-luis_576574.html"}, {"name": "New Delhi, Delhi, India", "cc": "IN", "lat": 28.6, "lon": 77.2, "n": 106, "art": 616, "url": "https://www.prokerala.com/news/articles/a1791733.html"}, {"name": "Andhra, Andhra Pradesh, India", "cc": "IN", "lat": 18.0, "lon": 79.5, "n": 3, "art": 22, "url": "https://www.hindustantimes.com/india-news/bjp-protests-in-andhra-telangana-against-congress-dharna-at-pm-residence-101784747247807.html"}, {"name": "Miami, Florida, United States", "cc": "US", "lat": 25.774, "lon": -80.194, "n": 4, "art": 18, "url": "https://www.politika.rs/scc/clanak/773118/sukobi-policije-i-demonstranata-u-tirani"}, {"name": "Jerusalem, Israel (general), Israel", "cc": "IS", "lat": 31.767, "lon": 35.233, "n": 7, "art": 22, "url": "http://www.jpost.com/travel/article-903425"}, {"name": "Bahia De Banderas, Nayarit, Mexico", "cc": "MX", "lat": 20.717, "lon": -105.45, "n": 1, "art": 10, "url": "https://www.lacapital.com.mx/noticia/114067-En_tres_estados_el_mayor_numero_de_agresiones_contra_ambientalistas"}, {"name": "Athens, Attik\u00edR, Greece", "cc": "GR", "lat": 37.983, "lon": 23.733, "n": 8, "art": 76, "url": "https://www.globes.co.il/news/article.aspx?did=1001550365"}, {"name": "Lucas County, Ohio, United States", "cc": "US", "lat": 41.65, "lon": -83.667, "n": 1, "art": 10, "url": "https://www.13abc.com/2026/07/23/salvation-armys-tools-school-program-offering-free-backpacks-lucas-county-students/"}, {"name": "Houston, Texas, United States", "cc": "US", "lat": 29.763, "lon": -95.363, "n": 1, "art": 5, "url": "https://www.timesfreepress.com/news/2026/jul/22/community-voice-making-room-for-political/"}, {"name": "Maine, United States", "cc": "US", "lat": 44.607, "lon": -69.398, "n": 7, "art": 54, "url": "https://wgme.com/news/local/maine-faith-leaders-call-for-end-to-ice-violence-immigration-customs-enforcement-south-portland"}, {"name": "Beijing, Beijing, China", "cc": "CH", "lat": 39.929, "lon": 116.388, "n": 14, "art": 50, "url": "https://www.washingtonexaminer.com/in_focus/4651789/reading-crime-hong-kong-china/"}, {"name": "Manila, Manila, Philippines", "cc": "RP", "lat": 14.604, "lon": 120.982, "n": 9, "art": 23, "url": "https://focus.ua/politics/762042-mirnye-peregovory-lavrov-proignoriroval-vopros-o-voynah-posle-besedy-s-rubio"}, {"name": "Russia", "cc": "RS", "lat": 60.0, "lon": 100.0, "n": 16, "art": 88, "url": "https://theintercept.com/2026/07/22/michigan-primary-will-lawrence-palestine/"}, {"name": "Kolkata, West Bengal, India", "cc": "IN", "lat": 22.57, "lon": 88.37, "n": 7, "art": 35, "url": "https://tribune.com.pk/story/2619854/timeline-two-decades-of-mass-protests-in-india"}, {"name": "Vjosa, Fier, Albania", "cc": "AL", "lat": 40.614, "lon": 19.561, "n": 1, "art": 1, "url": "https://spacedaily.com/k-the-river-that-cant-be-tamed-how-one-stretch-of-water-in-albania-became-the-last-wild-river-in-europe/"}, {"name": "Shushica, Qarku Elbasan, Albania", "cc": "AL", "lat": 41.097, "lon": 20.148, "n": 3, "art": 7, "url": "https://spacedaily.com/k-the-river-that-cant-be-tamed-how-one-stretch-of-water-in-albania-became-the-last-wild-river-in-europe/"}, {"name": "Colombia", "cc": "CO", "lat": 4.0, "lon": -72.0, "n": 1, "art": 10, "url": "https://whtc.com/2026/07/22/geo-group-worker-charged-with-assault-in-shooting-of-ice-protester-in-colorado/"}, {"name": "Kursk, Kurskaya Oblast', Russia", "cc": "RS", "lat": 51.737, "lon": 36.187, "n": 2, "art": 2, "url": "https://www.deccanchronicle.com/world/ukraines-zelenskyy-fires-military-chief-after-protests-names-replacement-1973201"}, {"name": "Gaza, Israel (general), Israel", "cc": "IS", "lat": 31.417, "lon": 34.333, "n": 22, "art": 78, "url": "https://fox23maine.com/newsletter-daily/maine-nurses-protest-mainehealths-ties-to-ai-software-company-palantir-artificial-intelligence-data-ice-imigration-customs-enforcement"}, {"name": "South China Sea, Brunei (general), Brunei", "cc": "BX", "lat": 15.0, "lon": 115.0, "n": 7, "art": 21, "url": "https://www.dailyadvertiser.com.au/story/9316590/china-sprays-water-on-philippine-ship-at-disputed-shoal/"}, {"name": "Jakarta, Jakarta Raya, Indonesia", "cc": "ID", "lat": -6.174, "lon": 106.829, "n": 9, "art": 68, "url": "https://www.artnews.com/art-news/news/u-s-repatriates-looted-indonesian-cultural-artifacts-1234793281/"}, {"name": "Karnataka, Karnataka, India", "cc": "IN", "lat": 13.5, "lon": 76.0, "n": 23, "art": 80, "url": "https://www.thehindu.com/news/national/karnataka/set-kpsc-in-order-before-protesting-over-neet-bjp-tells-karnataka-congress/article71258103.ece"}, {"name": "Malleswaram, Karnataka, India", "cc": "IN", "lat": 12.983, "lon": 77.567, "n": 1, "art": 10, "url": "https://bangaloremirror.indiatimes.com/news/india/protest-reaches-bjp-doorstep/articleshow/132566703.cms"}, {"name": "Farnborough, Warwickshire, United Kingdom", "cc": "UK", "lat": 52.133, "lon": -1.367, "n": 1, "art": 10, "url": "https://aviationweek.com/defense/aircraft-propulsion/bae-unveils-brontanax-cca-support-uk-rafs-sixth-generation-ambitions"}, {"name": "Caracas, Distrito Federal, Venezuela", "cc": "VE", "lat": 10.5, "lon": -66.917, "n": 4, "art": 22, "url": "https://ultimasnoticias.com.ve/el-informante/arranca-en-caracas-registro-unico-de-vivienda/"}, {"name": "Bundibugyo, Bundibugyo, Uganda", "cc": "UG", "lat": 0.741, "lon": 30.042, "n": 1, "art": 10, "url": "https://www.senenews.com/actualites/ebola-en-rdc-et-en-ouganda-le-bilan-depasse-desormais-les-1-000-morts-selon-loms_594469.html"}, {"name": "Mumbai, Maharashtra, India", "cc": "IN", "lat": 18.975, "lon": 72.826, "n": 50, "art": 248, "url": "https://www.ummid.com/news/2026/7/23/padhai-aur-ladai-saath-chalegi-students-hold-ground-in-delhi-other-cities.html"}, {"name": "Abuja, Abuja Federal Capital Territory, Nigeria", "cc": "NI", "lat": 9.083, "lon": 7.533, "n": 4, "art": 19, "url": "https://dailytrust.com/from-cold-relations-to-warm-ties-inside-tinubu-trumps-relationship/"}, {"name": "Ludhiana, Punjab, India", "cc": "IN", "lat": 30.9, "lon": 75.85, "n": 4, "art": 10, "url": "https://www.tribuneindia.com/news/ludhiana/advocates-agitation-to-continue-as-talks-with-high-court-judges-over-ladc-policy-fail/"}, {"name": "Kadian, Punjab, India", "cc": "IN", "lat": 31.818, "lon": 75.392, "n": 2, "art": 10, "url": "https://www.hindustantimes.com/cities/chandigarh-news/ludhiana-farmers-protest-over-india-us-trade-deal-throw-open-three-toll-plazas-for-3-hours-101784745326861.html"}, {"name": "Oklahoma, United States", "cc": "US", "lat": 35.538, "lon": -96.925, "n": 1, "art": 5, "url": "https://www.naturalnews.com/2026-07-22-oklahoma-ai-data-center-water-use-concerns.html"}, {"name": "Haryana, Haryana, India", "cc": "IN", "lat": 29.616, "lon": 76.981, "n": 2, "art": 6, "url": "https://www.independent.co.uk/asia/india/modi-response-cockroach-protests-delhi-latest-b3020106.html"}, {"name": "Indore, Madhya Pradesh, India", "cc": "IN", "lat": 22.717, "lon": 75.833, "n": 1, "art": 1, "url": "https://theshillongtimes.com/2026/07/23/national-nuggets-1703/"}, {"name": "Patna, Bihar, India", "cc": "IN", "lat": 25.6, "lon": 85.117, "n": 19, "art": 79, "url": "https://www.rediff.com/news/report/neet-protests-turn-violent-in-bihar-several-hurt-police-open-fire-in-air/20260724.htm"}, {"name": "Nairobi, Nairobi Area, Kenya", "cc": "KE", "lat": -1.283, "lon": 36.817, "n": 3, "art": 7, "url": "https://capitalfm.africa/murkomen-orders-ruthless-nationwide-crackdown-on-goons/"}, {"name": "Arizona, United States", "cc": "US", "lat": 33.771, "lon": -111.388, "n": 4, "art": 15, "url": "http://www.powelltribune.com/stories/with-defendant-incompetent-vehicular-homicide-case-thrown-out,176429"}, {"name": "Midlands, Harare, Zimbabwe", "cc": "ZI", "lat": -17.904, "lon": 31.014, "n": 1, "art": 10, "url": "https://bulawayo24.com/index-id-news-sc-national-byo-48292.html"}, {"name": "Windhoek, Khomas, Namibia", "cc": "WA", "lat": -22.57, "lon": 17.084, "n": 1, "art": 10, "url": "https://bulawayo24.com/index-id-news-sc-national-byo-48292.html"}, {"name": "Hyderabad, Andhra Pradesh, India", "cc": "IN", "lat": 17.375, "lon": 78.474, "n": 11, "art": 23, "url": "https://www.siasat.com/hyderabad-manuu-students-condemn-jauhar-university-demolition-3512047/"}, {"name": "Belgrade, Serbia (general),", "cc": "RB", "lat": 44.819, "lon": 20.468, "n": 2, "art": 10, "url": "https://glavcom.ua/world/observe/indiju-okhopili-protesti-chomu-tisjachi-studentiv-vijshli-na-vulitsi-1132600.html"}, {"name": "Japan", "cc": "JA", "lat": 36.0, "lon": 138.0, "n": 3, "art": 25, "url": "https://www.fool.com/coverage/charts/2026/07/23/marvell-technology-vs-nvidia-what-do-the-revenue-trends-of-these-artificial-intelligence-companies-tell-investors/?source=iedfolrf0000001"}, {"name": "Congo", "cc": "CF", "lat": -1.0, "lon": 15.0, "n": 3, "art": 30, "url": "https://news.az/news/why-is-eastern-democratic-raepublic-of-congo-so-vulnerable-to-armed-groups"}, {"name": "United Kingdom", "cc": "UK", "lat": 54.0, "lon": -4.0, "n": 13, "art": 74, "url": "https://www.eurogamer.net/rockstar-developer-union-more-members-layoffs"}, {"name": "Sydney, New South Wales, Australia", "cc": "AS", "lat": -33.883, "lon": 151.217, "n": 2, "art": 13, "url": "https://www.braidwoodtimes.com.au/story/9316566/fundamentally-wrong-man-wore-nazi-sign-outside-probe/"}, {"name": "Telangana, Andhra Pradesh, India", "cc": "IN", "lat": 18.0, "lon": 79.5, "n": 3, "art": 25, "url": "https://www.moneycontrol.com/education/ap-telangana-bandh-on-july-24-schools-colleges-may-remain-closed-in-andhra-pradesh-telangana-as-student-unions-call-for-protest-article-13981856.html"}, {"name": "Madhya Pradesh, Madhya Pradesh, India", "cc": "IN", "lat": 23.5, "lon": 78.5, "n": 6, "art": 22, "url": "http://thepeninsulaqatar.com/article/23/07/2026/indias-gen-z-protesters-on-whats-driving-them-to-join-cjp-movement"}, {"name": "Tamil Nadu, Tamil Nadu, India", "cc": "IN", "lat": 11.0, "lon": 78.0, "n": 8, "art": 46, "url": "https://www.thehindu.com/news/cities/Madurai/use-of-force-against-student-protesters-in-tamil-nadu-flayed/article71259463.ece"}, {"name": "Kanwa, Uttar Pradesh, India", "cc": "IN", "lat": 26.067, "lon": 79.273, "n": 2, "art": 3, "url": "https://www.freepressjournal.in/indore/couple-booked-for-protest-outside-vijayvargiyas-residence-sent-to-jail-in-indore"}, {"name": "Osmania University, Andhra Pradesh, India", "cc": "IN", "lat": 17.412, "lon": 78.525, "n": 9, "art": 31, "url": "https://www.siasat.com/naresh-pal-gangwar-is-new-education-secy-replaces-vineet-joshi-3511619/"}, {"name": "Sydney Harbour, New South Wales, Australia", "cc": "AS", "lat": -33.867, "lon": 151.25, "n": 1, "art": 10, "url": "https://www.ragtrader.com.au/news/guess-reports-aussie-boom-for-fragrances"}, {"name": "Bhopal, Madhya Pradesh, India", "cc": "IN", "lat": 23.267, "lon": 77.4, "n": 2, "art": 16, "url": "https://aninews.in/news/national/politics/mp-lop-umang-singhar-alleges-supplementary-budget-ignores-obc-reservation-jobs20260723084817/"}, {"name": "Gorgonzola, Lombardia, Italy", "cc": "IT", "lat": 45.533, "lon": 9.4, "n": 1, "art": 10, "url": "https://www.zazoom.it/2026-07-23/casa-di-comunita-flash-mob-lappello-dei-residenti-chiediamo-un-intervento/19491433/"}, {"name": "Petersburg, Sankt-Peterburg, Russia", "cc": "RS", "lat": 59.894, "lon": 30.264, "n": 1, "art": 6, "url": "https://www.radiosvoboda.org/a/kartonkovi-protesty-v-konteksti-istoriyi-ukrayiny/33810006.html"}, {"name": "Michigan, United States", "cc": "US", "lat": 43.35, "lon": -84.56, "n": 2, "art": 8, "url": "https://www.themorningsun.com/2026/07/23/ok2say-reports-second-highest-tip-volume-in-system-history/"}, {"name": "Somalia", "cc": "SO", "lat": 6.0, "lon": 48.0, "n": 3, "art": 12, "url": "https://www.azernews.az/region/261413.html"}, {"name": "Milan, Lombardia, Italy", "cc": "IT", "lat": 45.467, "lon": 9.2, "n": 7, "art": 70, "url": "https://socialistworker.co.uk/international/protests-and-strikes-demand-justice-for-italys-george-floyd/"}, {"name": "Nepal", "cc": "NP", "lat": 28.0, "lon": 84.0, "n": 3, "art": 26, "url": "https://economictimes.indiatimes.com/opinion/et-commentary/cut-through-the-bs-chase-a-generation-with-phones-refuses-to-let-media-tell-their-story-alone/articleshow/132589965.cms"}, {"name": "Bhaktapur, Nepal (general), Nepal", "cc": "NP", "lat": 27.673, "lon": 85.43, "n": 1, "art": 10, "url": "https://www.ratopati.com/story/579305/why-are-the-employees-of-bhaktapur-cancer-hospital-protesting"}, {"name": "Monterrey, Nuevo Le\u00f3X, Mexico", "cc": "MX", "lat": 25.667, "lon": -100.317, "n": 1, "art": 10, "url": "https://www.elnorte.com/liberan-la-av-lazaro-cardenas-tras-bloquear-2-horas-por-luz/ar3245186"}, {"name": "Ghana", "cc": "GH", "lat": 8.0, "lon": -2.0, "n": 1, "art": 2, "url": "https://www.rp.pl/przeglad-wydarzen-z-nocy/art44873331-tankowiec-w-ogniu-po-ataku-hutich-portugalia-walczy-z-pozarami"}, {"name": "Connaught Place, Delhi, India", "cc": "IN", "lat": 28.633, "lon": 77.217, "n": 6, "art": 24, "url": "https://www.siasat.com/naresh-pal-gangwar-is-new-education-secy-replaces-vineet-joshi-3511619/"}, {"name": "Bihar, Bihar, India", "cc": "IN", "lat": 25.183, "lon": 85.517, "n": 16, "art": 67, "url": "https://www.prokerala.com/news/articles/a1791724.html"}, {"name": "Kerala, Kerala, India", "cc": "IN", "lat": 10.0, "lon": 76.5, "n": 5, "art": 24, "url": "https://economictimes.indiatimes.com/news/new-updates/school-holiday-tomorrow-july-24-check-where-schools-are-closed-amid-heavy-rain-protests-and-which-districts-are-on-imd-alert/articleshow/132578935.cms"}, {"name": "Tshwane, Limpopo, South Africa", "cc": "SF", "lat": -25.18, "lon": 28.113, "n": 1, "art": 10, "url": "https://www.premiumtimesng.com/opinion/897506-anc-and-the-failure-of-the-black-renaissance-by-ahmed-aminu-ramatu-yusuf.html"}, {"name": "Bengaluru, Karnataka, India", "cc": "IN", "lat": 12.983, "lon": 77.583, "n": 9, "art": 43, "url": "https://www.yahoo.com/news/world/articles/indian-activist-wangchuk-ends-26-200609265.html"}, {"name": "Cairo, Al Qahirah, Egypt", "cc": "EG", "lat": 30.05, "lon": 31.25, "n": 2, "art": 12, "url": "https://www.lalibre.be/culture/2026/07/23/toutankhamon-le-golden-boy-de-legypte-ancienne-TJHDUMIQEJDBRIEQC56CX7XHJQ/"}, {"name": "Tijuana, Baja California, Mexico", "cc": "MX", "lat": 32.533, "lon": -117.017, "n": 1, "art": 10, "url": "https://www.sandiegored.com/noticia/hija-de-ernesto-ruffo-solicita-proteccion-a-la-embajada-de-estados-unidos/"}, {"name": "Willikies, Saint Philip, Antigua And Barbuda", "cc": "AC", "lat": 17.083, "lon": -61.7, "n": 1, "art": 6, "url": "https://antiguaobserver.com/lion-of-judah-church-marks-100-years-of-ministry/"}, {"name": "Orissa, Orissa, India", "cc": "IN", "lat": 20.5, "lon": 84.417, "n": 9, "art": 53, "url": "https://news.webindia123.com/news/Articles/India/20260723/4478401.html"}, {"name": "Hanoi, Ha N?i, Vietnam, Republic Of", "cc": "VM", "lat": 21.033, "lon": 105.85, "n": 1, "art": 10, "url": "https://lecourrier.vn/les-opportunites-entrepreneuriales-offertes-par-leconomie-creative/1351801.html"}, {"name": "Jing Quan, Liaoning, China", "cc": "CH", "lat": 41.392, "lon": 123.262, "n": 2, "art": 4, "url": "https://thediplomat.com/2026/07/philippine-chinese-foreign-ministers-exchange-protests-over-south-china-sea-clash/"}, {"name": "Hindustan, India (general), India", "cc": "IN", "lat": 28.0, "lon": 76.0, "n": 3, "art": 13, "url": "https://countercurrents.org/2026/07/azadi-indians-cant-relate-architecture-of-dissent-at-the-jantar-mantar-protest/"}, {"name": "Paphos, Cyprus (general), Cyprus", "cc": "CY", "lat": 34.767, "lon": 32.417, "n": 1, "art": 10, "url": "https://www.sigmalive.com/news/local/1323089/proskroysan-se-dentra-me-motosikleta-sto-latsi-sto-nosokomio-sovara-2-prosopa"}, {"name": "Moscow, Moskva, Russia", "cc": "RS", "lat": 55.752, "lon": 37.616, "n": 10, "art": 62, "url": "https://sputnikportal.rs/20260723/otvoren-novi-front-sta-stoji-iza-udara-na-ruski-amazon-olivera-ikodinovic-1201630302.html"}, {"name": "Tembisa, Gauteng, South Africa", "cc": "SF", "lat": -26.01, "lon": 28.228, "n": 4, "art": 16, "url": "https://www.citizen.co.za/news/opinion/tembisa-hospital-looting-is-murder-not-just-corruption/"}, {"name": "The White House, District of Columbia, United States", "cc": "US", "lat": 38.895, "lon": -77.036, "n": 1, "art": 3, "url": "https://www.newsbusters.org/blogs/nb/joseph-norris/2020/10/29/dnc-shills-cnn-protect-biden-harass-trump"}, {"name": "Sardinia, Sardegna, Italy", "cc": "IT", "lat": 40.0, "lon": 9.0, "n": 1, "art": 2, "url": "https://www.ilfoglio.it/politica/2026/07/23/news/lalternativa-ce-e-siamo-pronti-a-governare-intervista-a-schlein--402963"}, {"name": "Nahi, Madhya Pradesh, India", "cc": "IN", "lat": 24.107, "lon": 78.112, "n": 2, "art": 15, "url": "https://timesofindia.indiatimes.com/entertainment/hindi/bollywood/news/salman-khan-admitting-to-receiving-leaked-exam-papers-resurfaces-after-actor-backs-students-protest-watch/articleshow/132572053.cms"}, {"name": "Odisha, Orissa, India", "cc": "IN", "lat": 20.5, "lon": 84.417, "n": 9, "art": 43, "url": "https://www.hindustantimes.com/india-news/in-1997-dharmendra-pradhan-led-a-student-protest-against-a-paper-leak-in-odisha-report-101784818935668.html"}, {"name": "Rwanda", "cc": "RW", "lat": -2.0, "lon": 30.0, "n": 2, "art": 10, "url": "https://allafrica.com/stories/202607230023.html"}, {"name": "La Eria, Asturias, Spain", "cc": "SP", "lat": 43.587, "lon": -5.841, "n": 1, "art": 10, "url": "https://www.elcomercio.es/oviedo/alfredo-canteli-alcalde-oviedo-conciertos-plaza-catedral-20260722070650-nt.html"}, {"name": "Switzerland", "cc": "SZ", "lat": 47.0, "lon": 8.0, "n": 4, "art": 20, "url": "https://www.ledauphine.com/economie/2026/07/23/ou-sont-passes-les-suisses-habitues-des-rues-thononaises"}, {"name": "Maria Luisa, Nuevo Le\u00f3X, Mexico", "cc": "MX", "lat": 25.536, "lon": -99.93, "n": 1, "art": 10, "url": "https://www.abc.es/sevilla/ciudad/semana-sangrienta-verano-1931-sevilla-huelga-revolucionaria-20260723065552-nts.html"}, {"name": "Zaragoza, Baja California, Mexico", "cc": "MX", "lat": 32.533, "lon": -117.017, "n": 1, "art": 10, "url": "https://www.abc.es/sevilla/ciudad/semana-sangrienta-verano-1931-sevilla-huelga-revolucionaria-20260723065552-nts.html"}, {"name": "Osijek, Osjecko-Baranjska, Croatia", "cc": "HR", "lat": 45.551, "lon": 18.694, "n": 1, "art": 10, "url": "https://www.glas-slavonije.hr/osijek/2026/07/23/na-najpozeljnijim-osjeckim-studijima-prijavilo-se-i-12-kandidata-po-jednom-upisnom-mjestu-775740/"}, {"name": "Canada", "cc": "CA", "lat": 60.0, "lon": -96.0, "n": 4, "art": 11, "url": "https://www.georgetown.edu/news/bird-populations-are-in-steep-decline-heres-what-might-bring-birds-back/"}, {"name": "Managua, Managua, Nicaragua", "cc": "NU", "lat": 12.151, "lon": -86.268, "n": 3, "art": 28, "url": "https://latinamericanpost.com/americas/politics/nicaragua-votes-on-nothing-as-ortega-buries-the-ballot-box/"}, {"name": "Zelenskiy, Astrakhanskaya Oblast', Russia", "cc": "RS", "lat": 48.291, "lon": 46.504, "n": 4, "art": 19, "url": "https://inosmi.ru/20260723/ukraina-279401612.html"}, {"name": "Dadar, Maharashtra, India", "cc": "IN", "lat": 19.017, "lon": 72.85, "n": 3, "art": 13, "url": "https://www.ummid.com/news/2026/7/23/watch-lone-mumbai-woman-blocks-police-van-with-protesters-inside-then-this-happened.html"}, {"name": "Serbia", "cc": "RI", "lat": 44.0, "lon": 21.0, "n": 2, "art": 20, "url": "https://www.alo.rs/vesti/politika/16864265/brnabic-odgovorila-marti-kos-objavila-spisak-uvreda-na-racun-vucica.html"}, {"name": "Legnica, Dolnoslaskie, Poland", "cc": "PL", "lat": 51.21, "lon": 16.162, "n": 1, "art": 8, "url": "https://regionews.ua/ukr/news/ukraine/1784784779-u-polshchi-zhintsi-zagrozhue-7-5-roku-v-yaznitsi-za-napad-na-ukrayinskih-pidlitkiv"}, {"name": "Chicago, Illinois, United States", "cc": "US", "lat": 41.85, "lon": -87.65, "n": 1, "art": 10, "url": "https://dariknews.bg/novini/sviat/vypreki-raznoglasiiata-kamarata-na-predstavitelite-v-sasht-odobri-95-mlrd.-dolara-za-vojnata-sreshtu-iran-2461636"}, {"name": "Indraprastha, Haryana, India", "cc": "IN", "lat": 28.483, "lon": 77.3, "n": 1, "art": 2, "url": "https://www.thehindubusinessline.com/news/16-delhi-metro-stations-closed-interchange-facilities-remain-available-amid-cjp-protests/article71256438.ece"}, {"name": "Frankfurt, Brandenburg, Germany", "cc": "GM", "lat": 52.35, "lon": 14.55, "n": 1, "art": 5, "url": "https://www.investegate.co.uk/announcement/eqs/vib-vermoegen-ag-n--0ac3/eqs-news-vib-verm-gen-ag-over-5-000-sqm-of-/9682879"}, {"name": "Bangladesh", "cc": "BG", "lat": 24.0, "lon": 90.0, "n": 10, "art": 49, "url": "https://www.citizen.co.za/news/news-world/modi-vows-punishment-for-exam-leaks-fuelling-india-protests/"}, {"name": "Albania", "cc": "AL", "lat": 41.0, "lon": 20.0, "n": 20, "art": 192, "url": "https://www.termometroenlinea.com.mx/vernoticiasN.php?artid=132229&cat=253"}, {"name": "Wisconsin, United States", "cc": "US", "lat": 44.256, "lon": -89.638, "n": 6, "art": 52, "url": "https://www.wispolitics.com/2026/schroder-campaign-vfaf-endorsement-of-jay-schroeder-for-wisconsin-secretary-of-state-by-veterans-for-trump/"}, {"name": "Auckland, Auckland, New Zealand", "cc": "NZ", "lat": -36.75, "lon": 174.583, "n": 3, "art": 10, "url": "https://navbharattimes.indiatimes.com/world/rest-of-europe/neet-row-cjp-indian-diaspora-protest-canada-uk-ireland-germany-netherlands-demand-pradhan-resignation/articleshow/132572963.cms"}, {"name": "Chisinau, Chisinau, Moldova", "cc": "MD", "lat": 47.006, "lon": 28.858, "n": 1, "art": 8, "url": "https://iz.ru/2137035/posol-rf-v-moldavii-nazval-nezakonnym-zaderzhanie-diplomatov-v-respublike-izi"}, {"name": "Uzhgorod, Zakarpats'ka Oblast', Ukraine", "cc": "UP", "lat": 48.617, "lon": 22.3, "n": 2, "art": 10, "url": "https://karpatalja.ma/karpatalja/kozelet/hetedik-napja-tuntetnek-ungvaron-a-levaltott-vedelmi-miniszter-mellett/"}, {"name": "Jalingo, Taraba, Nigeria", "cc": "NI", "lat": 8.883, "lon": 11.367, "n": 1, "art": 10, "url": "https://tribuneonlineng.com/lessons-from-overland-airways-the-value-of-matching-aircraft-to-market/"}, {"name": "Dhangadhi, Nepal (general), Nepal", "cc": "NP", "lat": 28.708, "lon": 80.596, "n": 1, "art": 10, "url": "https://kathmandupost.com/national/2026/07/23/dr-govinda-kc-to-launch-24th-hunger-strike"}, {"name": "Versailles, \u00cee-de-France, France", "cc": "FR", "lat": 48.804, "lon": 2.134, "n": 1, "art": 10, "url": "https://listindiario.com/las-mundiales/europa/20260722/reabre-publico-sala-atraco-museo-louvre_914920.html"}, {"name": "Cloncurry, Queensland, Australia", "cc": "AS", "lat": -20.707, "lon": 140.513, "n": 1, "art": 8, "url": "https://www.northweststar.com.au/story/9316032/cloncurry-billion-dollar-data-centres-await-copperstring-date/"}, {"name": "Mahipal, India (general), India", "cc": "IN", "lat": 25.5, "lon": 88.483, "n": 2, "art": 10, "url": "https://www.siasat.com/protest-to-be-held-at-dharna-chawk-over-neet-paper-leak-3511526/"}, {"name": "Lomita, Nuevo Le\u00f3X, Mexico", "cc": "MX", "lat": 26.033, "lon": -98.967, "n": 5, "art": 18, "url": "https://www.newsweek.com/map-shows-area-trump-wants-to-take-from-catholic-church-for-border-wall-12230227"}, {"name": "Spain", "cc": "SP", "lat": 40.0, "lon": -4.0, "n": 1, "art": 10, "url": "https://www2.fundsforngos.org/leadership/open-call-laboratory-leadership-fellowship-program/"}, {"name": "Texas, United States", "cc": "US", "lat": 31.106, "lon": -97.647, "n": 9, "art": 68, "url": "https://www.newson6.com/national-politics-oklahoma/trump-expands-pledge-protecting-consumers-from-high-utility-bills-from-ai-data-centers"}, {"name": "Leskaj, Gjirokast\u00ebAL, Albania", "cc": "AL", "lat": 40.246, "lon": 20.192, "n": 1, "art": 10, "url": "https://24-ore.com/kuvendi-mban-sot-seancen-e-fundit-plenare-rend-dite-i-ngjeshur-dhe-debate-mbi-raportet-e-institucioneve-dhe-projektligjet-qytetaret-proteste-para-parlamentit/"}, {"name": "Mabar Rafah, , Egypt", "cc": "EG", "lat": 31.276, "lon": 34.248, "n": 4, "art": 10, "url": "https://www.dostor.org/5644322"}, {"name": "Senegal", "cc": "SG", "lat": 14.0, "lon": -14.0, "n": 2, "art": 13, "url": "https://en.tempo.co/read/2115092/who-could-be-the-next-un-secretary-general"}, {"name": "Ostroh, Rivnens'ka Oblast', Ukraine", "cc": "UP", "lat": 50.329, "lon": 26.514, "n": 3, "art": 10, "url": "https://news.telegraf.com.ua/ukr/obshhestvo/5945924-vid-medichnikh-danikh-do-gemblingu-chomu-noviy-biznes-tvortsya-helsi-viklikae-zapitannya"}, {"name": "Barcelona, Comunidad Autonoma de Cataluna, Spain", "cc": "SP", "lat": 41.383, "lon": 2.183, "n": 1, "art": 10, "url": "https://www.visir.is/g/20262912676d/veggmynd-hetju-spanverja-a-hm-eydilogd-strax"}, {"name": "Yemen", "cc": "YM", "lat": 15.5, "lon": 47.5, "n": 1, "art": 10, "url": "https://musavat.com/news/iran-husi-kartini-ise-saldi-seudiyyenin-iki-tankeri-vuruldu_1277151.html"}, {"name": "Dublin, Dublin, Ireland", "cc": "EI", "lat": 53.333, "lon": -6.249, "n": 2, "art": 5, "url": "https://www.broadsheet.ie/2019/08/08/battle-of-barrow-street/"}, {"name": "Nardaran, Qobustan, Azerbaijan", "cc": "AJ", "lat": 40.392, "lon": 49.047, "n": 2, "art": 4, "url": "https://www.eng.kavkaz-uzel.eu/articles/77141"}, {"name": "Kampala, Kampala, Uganda", "cc": "UG", "lat": 0.316, "lon": 32.566, "n": 3, "art": 10, "url": "https://observer.ug/news/military-scholars-see-ugandas-drug-making-ambitions-as-a-model-for-africa/"}, {"name": "Model Town, Haryana, India", "cc": "IN", "lat": 30.148, "lon": 76.685, "n": 2, "art": 8, "url": "https://economictimes.indiatimes.com/news/politics-and-nation/pm-modi-residence-protest-congress-mp-submits-privilege-notice-in-ls-says-rights-of-lop-women-mps-violated/articleshow/132573204.cms"}, {"name": "Somnath, Gujarat, India", "cc": "IN", "lat": 22.067, "lon": 71.383, "n": 1, "art": 10, "url": "https://navbharattimes.indiatimes.com/state/gujarat/ahmedabad/narendra-modi-ministers-resignation-record-from-gujarat-to-delhi-in-25-years-vs-manmohan-singh-upa-govt-amid-cjp-protest-against-dharmendra-pradhan/articleshow/132573098.cms"}, {"name": "Tufts University, Massachusetts, United States", "cc": "US", "lat": 42.404, "lon": -71.12, "n": 1, "art": 4, "url": "https://economictimes.indiatimes.com/news/new-updates/dharmendra-pradhans-daughter-naimisha-pradhan-deactivates-social-media-amid-anti-neet-paper-leak-cjp-protest-trolls-target-her-foreign-degree/articleshow/132573309.cms"}, {"name": "Midlands, Leicestershire, United Kingdom", "cc": "UK", "lat": 52.75, "lon": -1.5, "n": 1, "art": 2, "url": "https://www.nottinghampost.com/news/local-news/we-wont-go-quietly-message-11072609"}, {"name": "Alaska, United States", "cc": "US", "lat": 61.385, "lon": -152.268, "n": 1, "art": 5, "url": "https://www.heraldstaronline.com/news/local-news/2026/07/steubenville-educators-rising-students-attend-national-conference/"}, {"name": "Connecticut, United States", "cc": "US", "lat": 41.583, "lon": -72.762, "n": 1, "art": 2, "url": "https://www.newhavenindependent.org/2026/07/22/lamont-elliott-spar-over-taxes-trump-in-primary-debate/"}, {"name": "Germany", "cc": "GM", "lat": 51.5, "lon": 10.5, "n": 11, "art": 80, "url": "https://www.eurointegration.com.ua/news/2026/07/23/7242193/"}, {"name": "Venezuela", "cc": "VE", "lat": 8.0, "lon": -66.0, "n": 3, "art": 27, "url": "https://www.amny.com/politics/venezuelan-new-yorkers-maduros-capture-first-step-justice/"}, {"name": "Winnipeg, Manitoba, Canada", "cc": "CA", "lat": 49.883, "lon": -97.167, "n": 1, "art": 10, "url": "https://www.winnipegfreepress.com/breakingnews/2026/07/23/foreign-workers-fill-rural-employment-gaps"}, {"name": "Taltala, Bangladesh (general), Bangladesh", "cc": "BG", "lat": 23.9, "lon": 90.6, "n": 2, "art": 10, "url": "https://www.bssnews.net/others/408186"}, {"name": "Sudan", "cc": "SU", "lat": 16.0, "lon": 30.0, "n": 3, "art": 21, "url": "https://www.thejasnews.com/sublead/delhi-police-use-pellet-gun-on-students19-year-old-loses-eyesight-268877"}, {"name": "Roorkee, Uttaranchal, India", "cc": "IN", "lat": 29.867, "lon": 77.883, "n": 3, "art": 11, "url": "https://www.tribuneindia.com/news/india/vineet-joshi-removed-as-higher-education-secretary-amid-neet-ug-protests/"}, {"name": "Guwahati, Assam, India", "cc": "IN", "lat": 26.183, "lon": 91.733, "n": 6, "art": 40, "url": "https://www.thehindu.com/news/national/protests-over-neet-paper-leak-intensify-nationwide/article71259431.ece"}, {"name": "Hibberdene, KwaZulu-Natal, South Africa", "cc": "SF", "lat": -30.572, "lon": 30.574, "n": 1, "art": 10, "url": "https://www.ecr.co.za/news/news/truck-energy-drinks-in-chesterville-looted/"}, {"name": "Eilat, HaDarom, Israel", "cc": "IS", "lat": 29.558, "lon": 34.948, "n": 1, "art": 2, "url": "https://www.presstv.co.uk/Detail/2026/07/20/772648/how-irans-devastating-strike-on-us-base-in-jordan-rewrote-the-rules-of-regional-confrontation"}, {"name": "Pretoria, Gauteng, South Africa", "cc": "SF", "lat": -25.707, "lon": 28.229, "n": 3, "art": 8, "url": "https://tamtaminfo.com/accra-obtient-un-debat-de-lua-sur-la-xenophobie/"}, {"name": "Aqaba, Al \u0091Aqabah, Jordan", "cc": "JO", "lat": 29.527, "lon": 35.008, "n": 1, "art": 2, "url": "https://www.presstv.co.uk/Detail/2026/07/20/772648/how-irans-devastating-strike-on-us-base-in-jordan-rewrote-the-rules-of-regional-confrontation"}, {"name": "Macerata, Marche, Italy", "cc": "IT", "lat": 43.3, "lon": 13.45, "n": 1, "art": 10, "url": "https://www.cronachemaceratesi.it/2026/07/23/pantana-a-roma-da-lupi-e-dellutri-gemellaggi-e-sostegno-ai-territori-due-binari-per-la-crescita-della-citta/2088825/"}, {"name": "Manipur, Uttar Pradesh, India", "cc": "IN", "lat": 27.053, "lon": 79.358, "n": 6, "art": 33, "url": "https://www.oneindia.com/india/education-secretary-vineet-joshi-replaced-by-this-ias-officer-heres-what-we-know-8155407.html"}, {"name": "Veneto, Veneto, Italy", "cc": "IT", "lat": 45.699, "lon": 12.226, "n": 2, "art": 20, "url": "https://www.strettoweb.com/2026/07/autonomia-differenziata-trotta-cgil-avverte-occhiuto-ci-ripensi-e-fermi-la-corsa-e-un-prezzo-troppo-alto-per-i-calabresi/2117520/"}, {"name": "Australia", "cc": "AS", "lat": -25.0, "lon": 135.0, "n": 4, "art": 46, "url": "https://www.lesaffaires.com/communique-de-presse/la-caisse-et-go-farm-lancent-une-plateforme-de-330-m-au-pour-investir-dans-les-cultures-permanentes-en-australie/"}, {"name": "Hollywood, California, United States", "cc": "US", "lat": 34.098, "lon": -118.327, "n": 4, "art": 15, "url": "https://thetab.com/2026/07/23/the-complex-origins-of-zendayas-3000-year-old-earrings-that-sparked-backlash-online"}, {"name": "Elbasani, Qarku Elbasan, Albania", "cc": "AL", "lat": 41.112, "lon": 20.082, "n": 6, "art": 60, "url": "https://sot.com.al/politike/policia-te-ndale-dhunen-ndaj-protestuesve-bardhi-nese-keni-frike-mos-hajdeni-ne-kuvend-taulant-ke-hall-se/"}, {"name": "Colombo, Western, Sri Lanka", "cc": "CE", "lat": 6.932, "lon": 79.848, "n": 3, "art": 13, "url": "https://www.tamilguardian.com/index.php/content/valikamam-north-landowners-stage-13th-consecutive-protest-demanding-release-high-security"}, {"name": "Mullaitivu, Northern, Sri Lanka", "cc": "CE", "lat": 9.268, "lon": 80.815, "n": 1, "art": 10, "url": "https://www.tamilguardian.com/index.php/content/shritharan-and-ravikaran-back-keppapilavu-protesters-land-campaign-enters-25th-day"}, {"name": "Valikamam North, Northern, Sri Lanka", "cc": "CE", "lat": 9.794, "lon": 80.039, "n": 4, "art": 14, "url": "https://www.tamilguardian.com/index.php/content/valikamam-north-landowners-stage-13th-consecutive-protest-demanding-release-high-security"}, {"name": "Myliddy, Northern, Sri Lanka", "cc": "CE", "lat": 9.8, "lon": 80.05, "n": 3, "art": 12, "url": "https://www.tamilguardian.com/content/civil-groups-urge-eu-delegation-press-sri-lanka-over-valikamam-north-land-acquisition"}, {"name": "Brussels, Bruxelles-Capitale, Belgium", "cc": "BE", "lat": 50.833, "lon": 4.333, "n": 6, "art": 50, "url": "https://hu.euronews.com/my-europe/2026/07/23/szelsojobboldali-aktivistak-beperelik-az-europai-bizottsagot-a-remigracio-elutasitasa-miat"}, {"name": "South Korea", "cc": "KS", "lat": 37.0, "lon": 127.5, "n": 4, "art": 32, "url": "https://www.caravan.kz/news/juzhnuju-koreju-nakryla-jepidemija-zabastovok-sprovocirovannaja-samsung-electronics/"}, {"name": "Busan, Pusan-gwangyoksi, South Korea", "cc": "KS", "lat": 35.103, "lon": 129.04, "n": 1, "art": 10, "url": "https://www.koreaherald.com/article/10818209"}, {"name": "Delhi Safdarjung, Delhi, India", "cc": "IN", "lat": 28.583, "lon": 77.183, "n": 3, "art": 15, "url": "https://pakobserver.net/cockroach-janta-party-vows-legal-action-against-police-for-crackdown-on-protestors-in-jantar-mantar/"}, {"name": "Springfield, Massachusetts, United States", "cc": "US", "lat": 42.102, "lon": -72.59, "n": 1, "art": 1, "url": "https://recorder.com/2026/07/23/obit-thomas-lewis-211907088/"}, {"name": "Massachusetts, United States", "cc": "US", "lat": 42.237, "lon": -71.531, "n": 1, "art": 4, "url": "https://recorder.com/2026/07/23/obit-thomas-lewis-211907088/"}, {"name": "Luhansk, Luhans'ka Oblast', Ukraine", "cc": "UP", "lat": 48.567, "lon": 39.317, "n": 1, "art": 7, "url": "https://www.sbs.com.au/news/article/ukraine-war-russia-protest-domestic-politics-2026/qowsljxpz"}, {"name": "Melbourne, Victoria, Australia", "cc": "AS", "lat": -37.817, "lon": 144.967, "n": 4, "art": 19, "url": "https://www.redlandcitybulletin.com.au/story/9316703/make-it-right-educators-weigh-pay-versus-passion/"}, {"name": "New Jersey, United States", "cc": "US", "lat": 40.314, "lon": -74.509, "n": 3, "art": 26, "url": "https://www.cityandstateny.com/politics/2026/07/federal-employees-say-theyll-quit-if-they-have-move-new-jersey/414984/"}, {"name": "Silesia, Poland (general), Poland", "cc": "PL", "lat": 51.0, "lon": 18.0, "n": 1, "art": 10, "url": "https://www.niedziela.pl/artykul/126192/Protest-przeciw-zatrudnieniu-w-szpitalu-dr-Gizeli-Jagielskiej"}, {"name": "Singapore", "cc": "SN", "lat": 1.367, "lon": 103.8, "n": 2, "art": 20, "url": "https://www.manilatimes.net/2026/07/24/business/corporate-news/ayala-69b-in-sustainable-financing-secured-last-year/2390513"}, {"name": "English Channel, United Kingdom (general), United Kingdom", "cc": "UK", "lat": 54.583, "lon": -3.683, "n": 1, "art": 8, "url": "https://www.vg.no/nyheter/i/y5919E/russisk-krigsskip-skjoet-skarpt-naer-britisk-kyst-klassisk-maktspill"}, {"name": "Gravette High School, Arkansas, United States", "cc": "US", "lat": 36.419, "lon": -94.445, "n": 1, "art": 5, "url": "https://www.arkansasonline.com/news/2026/jul/23/gravette-high-school-six-classroom-addition/"}, {"name": "Labette County, Kansas, United States", "cc": "US", "lat": 37.2, "lon": -95.284, "n": 1, "art": 2, "url": "https://www.kmuw.org/2026-07-23/the-one-mile-underground-kansas-reactor-didnt-meet-a-july-4-goal-but-is-still-on-track"}, {"name": "Odessa, Odes'ka Oblast, Ukraine", "cc": "UP", "lat": 46.464, "lon": 30.739, "n": 4, "art": 18, "url": "https://shasha.ps/home/%D8%A7%D9%86%D9%81%D8%AC%D8%A7%D8%B1%D8%A7%D8%AA-%D9%81%D9%8A-%D8%B3%D9%88%D9%85%D9%8A-%D8%A7%D9%84%D8%A3%D9%88%D9%83%D8%B1%D8%A7%D9%86%D9%8A%D8%A9-%D9%88%D9%83%D9%8A%D9%8A%D9%81"}, {"name": "Fort William, Highland, United Kingdom", "cc": "UK", "lat": 56.817, "lon": -5.117, "n": 1, "art": 5, "url": "https://www.inverness-courier.co.uk/news/new-inverness-fish-and-chip-shop-is-serving-up-quality-food-440621/"}, {"name": "Cuba", "cc": "CU", "lat": 22.0, "lon": -79.5, "n": 3, "art": 21, "url": "https://www.inquirer.com/arts/john-coltrane-centenary-concert-philadelphia-orchestra-review-20260723.html"}, {"name": "Peshawar, North-West Frontier, Pakistan", "cc": "PK", "lat": 34.008, "lon": 71.573, "n": 1, "art": 5, "url": "https://tribune.com.pk/story/2619705/ji-rejects-daily-fuel-price-mechanism"}, {"name": "Pakistan", "cc": "PK", "lat": 30.0, "lon": 70.0, "n": 5, "art": 18, "url": "https://tribune.com.pk/story/2619808/pakistani-celebrities-also-voice-support-for-indian-students-amid-reform-protests"}, {"name": "Ethiopia", "cc": "ET", "lat": 8.0, "lon": 38.0, "n": 1, "art": 10, "url": "https://allafrica.com/stories/202607230206.html"}, {"name": "Chhattisgarh, Chhattisgarh, India", "cc": "IN", "lat": 21.5, "lon": 81.75, "n": 2, "art": 18, "url": "https://kathmandupost.com/columns/2026/07/23/cockroach-democracy-unarmed-and-dangerous"}, {"name": "Greece", "cc": "GR", "lat": 39.0, "lon": 22.0, "n": 3, "art": 18, "url": "https://www.film-news.co.uk/news/UK/128111/Christopher-Nolan-AI-is-a-transparent-Trojan-horse"}, {"name": "Stockholm, Stockholm, Sweden", "cc": "SW", "lat": 59.333, "lon": 18.05, "n": 3, "art": 30, "url": "https://24-ore.com/debate-ne-kuvend-per-protesten-bardhi-policia-te-ndale-dhunen-ndaj-protestuesve-degjoni-qytetaret-balla-ata-kerkojne-saliu-ne-burg-a-e-plotesoni-dot/"}, {"name": "Basanti, West Bengal, India", "cc": "IN", "lat": 22.2, "lon": 88.706, "n": 4, "art": 12, "url": "https://www.rediff.com/news/report/memes-music-and-mockery-how-gen-z-amplifying-cjp-protest/20260723.htm"}, {"name": "Dharasana, India (general), India", "cc": "IN", "lat": 20.683, "lon": 72.917, "n": 1, "art": 2, "url": "https://moneylife.in/article/the-flower-in-the-rifle-on-the-legality-and-the-morality-of-peaceful-protests/81139.html"}, {"name": "Greater Manchester, United Kingdom (general), United Kingdom", "cc": "UK", "lat": 53.45, "lon": -2.233, "n": 1, "art": 10, "url": "https://www.bigissue.com/opinion/andy-burnham-prime-minister-mental-health/"}, {"name": "Alabama, United States", "cc": "US", "lat": 32.799, "lon": -86.807, "n": 2, "art": 7, "url": "https://www.inquirer.com/arts/john-coltrane-centenary-concert-philadelphia-orchestra-review-20260723.html"}, {"name": "Chennai, Tamil Nadu, India", "cc": "IN", "lat": 13.083, "lon": 80.283, "n": 2, "art": 14, "url": "https://timesofindia.indiatimes.com/city/chennai/educationists-forum-condemns-attack-on-students/articleshow/132586114.cms"}, {"name": "Yangon, Yangon, Myanmar", "cc": "BM", "lat": 16.805, "lon": 96.156, "n": 2, "art": 10, "url": "https://grist.org/international/myanmar-war-rare-earth-mining-landslide-labor/"}, {"name": "Normandy, France (general), France", "cc": "FR", "lat": 49.0, "lon": 0.0, "n": 1, "art": 10, "url": "https://www.tendanceouest.com/actualite-441247-normandie-ils-veulent-absolument-arriver-sur-la-cote-le-jt-de-france-2-s-interesse-aux-francais-qui-revent-de-s-installer-ici-apres-les-canicules"}, {"name": "Morocco", "cc": "MO", "lat": 32.0, "lon": -5.0, "n": 1, "art": 8, "url": "https://www.zazoom.it/2026-07-23/bologna-la-tesi-paradossale-della-schlein-lepore-voleva-arginare-la-violenza-e-gli-antagonisti/19492835/"}, {"name": "Tirana, Tirane, Albania", "cc": "AL", "lat": 41.328, "lon": 19.819, "n": 19, "art": 153, "url": "https://24-ore.com/lironi-cunat-lironi-vajzat-protesta-e-dites-se-54-fokusohet-te-te-shoqeruarit-nga-policia/"}, {"name": "Labarriere, Languedoc-Roussillon, France", "cc": "FR", "lat": 44.117, "lon": 4.033, "n": 1, "art": 2, "url": "https://www.causeur.fr/affaire-barbara-grenoble-lfi-allan-brunon-butch-du-rififi-dans-la-convergence-des-luttes-330965"}, {"name": "Poland", "cc": "PL", "lat": 52.0, "lon": 20.0, "n": 3, "art": 13, "url": "https://www.yahoo.com/news/science/articles/volkswagens-newest-employees-being-hired-101824751.html"}, {"name": "Groningen, Groningen, Netherlands", "cc": "NL", "lat": 53.217, "lon": 6.55, "n": 1, "art": 20, "url": "https://www.dagelijksestandaard.nl/politiek/wilders-islamitische-basisschool-groningen-sinterklaas?comment=1006701"}, {"name": "Phoenix, Arizona, United States", "cc": "US", "lat": 33.448, "lon": -112.074, "n": 1, "art": 10, "url": "https://www.kocaeligazetesi.com.tr/haber/28392425/168-milyonluk-ihale-tamamlandi-tarihi-yapi-kentin-yeni-kultur-duragi-oluyor"}, {"name": "Vidin, Romania (general), Romania", "cc": "RO", "lat": 44.917, "lon": 23.517, "n": 1, "art": 10, "url": "https://www.capital.ro/seceta-face-ravagii-in-europa-recolte-compromise-rauri-la-minime-istorice-si-restrictii-la-apa-romania-printre-cele-mai-afectate-de-seceta-extrema.html"}, {"name": "Kanpur, Uttar Pradesh, India", "cc": "IN", "lat": 26.467, "lon": 80.35, "n": 1, "art": 10, "url": "https://www.hindustantimes.com/trending/hearing-out-gen-z-entrepreneur-shares-24-year-old-caretaker-s-perspective-after-cjp-protest-101784797477512.html"}, {"name": "Isoko, Nigeria (general), Nigeria", "cc": "NI", "lat": 7.917, "lon": 4.283, "n": 2, "art": 10, "url": "https://saharareporters.com/2026/07/22/isoko-youths-protest-oil-company-facility-delta-accuse-firm-violating-local-content-law"}, {"name": "Zambia", "cc": "ZA", "lat": -15.0, "lon": 30.0, "n": 2, "art": 9, "url": "https://mwnation.com/mec-to-lead-sadc-election-observers-in-zambia/"}, {"name": "Egypt", "cc": "EG", "lat": 27.0, "lon": 30.0, "n": 2, "art": 12, "url": "https://thediplomat.com/2026/07/new-delhis-jantar-mantar-is-not-tahrir-square-but-it-can-become-one/"}, {"name": "Iraq", "cc": "IZ", "lat": 33.0, "lon": 44.0, "n": 2, "art": 16, "url": "https://www.wsaz.com/2026/07/23/wsaz-former-prisoner-war-jessica-lynch-shares-her-story-survival-resilience/"}, {"name": "Ireland", "cc": "EI", "lat": 53.0, "lon": -8.0, "n": 2, "art": 10, "url": "https://www.elconfidencialdigital.com/seguraria/articulo/hacienda/union-europea-plantea-disparar-iva-sector-turistico-encarecera-precio-viajes-comidas/20260723095238002831.html"}, {"name": "Lagos, Lagos, Nigeria", "cc": "NI", "lat": 6.453, "lon": 3.396, "n": 2, "art": 20, "url": "https://punchng.com/dangote-refinery-completes-2-5bn-equity-placement/"}, {"name": "Aizawl, Mizoram, India", "cc": "IN", "lat": 23.724, "lon": 92.718, "n": 3, "art": 23, "url": "https://www.siasat.com/live-sonam-its-done-bro-will-send-food-says-salman-3511619/"}, {"name": "Durres, Qarku i Durresit, Albania", "cc": "AL", "lat": 41.323, "lon": 19.441, "n": 1, "art": 10, "url": "https://publik.al/kaosi-te-kuvendi-pese-police-perfundojne-te-trauma-emrat/"}, {"name": "Haret, Romania (general), Romania", "cc": "RO", "lat": 45.933, "lon": 27.2, "n": 1, "art": 10, "url": "https://www.rador.ro/2026/07/23/trei-mari-federatii-sindicale-din-educatie-refuza-sa-participe-la-discutiile-de-la-ministerul-muncii-pe-tema-noii-legi-a-salarizarii/"}, {"name": "Johannesburg, Gauteng, South Africa", "cc": "SF", "lat": -26.2, "lon": 28.083, "n": 1, "art": 5, "url": "https://www.cnbcafrica.com/2026/ghanaian-nationals-ask-icc-to-probe-xenophobic-violence-in-south-africa"}, {"name": "Tigray, Tigray, Ethiopia", "cc": "ET", "lat": 13.5, "lon": 39.5, "n": 1, "art": 10, "url": "https://www.thereporterethiopia.com/51877/"}, {"name": "Idaho, United States", "cc": "US", "lat": 44.239, "lon": -114.51, "n": 1, "art": 5, "url": "https://cdapress.com/news/2026/jul/23/idaho-wyoming-nuclear-industry-partnership-set-to-receive-31m-federal-award/"}, {"name": "Patta, Mandalay, Myanmar", "cc": "BM", "lat": 21.6, "lon": 96.167, "n": 1, "art": 10, "url": "https://countercurrents.org/2026/07/manjolai-a-valley-that-still-waits-for-justice/"}, {"name": "New Mexico, United States", "cc": "US", "lat": 34.837, "lon": -106.237, "n": 3, "art": 12, "url": "https://www.yahoo.com/news/politics/articles/im-epstein-survivor-todd-blanche-100647058.html"}, {"name": "Virginia, United States", "cc": "US", "lat": 37.768, "lon": -78.206, "n": 5, "art": 19, "url": "https://www.vidi.hr/Non-Tech/Svijet/Prosvjedi-protiv-AI-podatkovnih-centara"}, {"name": "Mykonos, Perifereia Notiou Aigaiou, Greece", "cc": "GR", "lat": 37.45, "lon": 25.333, "n": 1, "art": 6, "url": "https://www.huffingtonpost.gr/kinonia/aliki-vougiouklaki-30-chronia-meta-o-terens-kouik-apokalyptei-tin-symfonia-tous-gia-sybarousiasi-talk-show-kai-alla-agnosta-peristatika/"}, {"name": "Olympia, S\u00e3Paulo, Brazil", "cc": "BR", "lat": -20.733, "lon": -48.9, "n": 1, "art": 10, "url": "https://www.huffingtonpost.gr/diethnes/to-louvro-anoigei-xana-meta-ti-listeia-oi-megales-klopes-mouseion-se-kosmo-kai-ellada/"}, {"name": "New Hampshire, United States", "cc": "US", "lat": 43.411, "lon": -71.565, "n": 2, "art": 8, "url": "https://www.eremnews.com/news/world/82nuru8"}, {"name": "Katihar, Bihar, India", "cc": "IN", "lat": 25.533, "lon": 87.583, "n": 11, "art": 40, "url": "https://www.rediff.com/news/report/neet-protests-turn-violent-in-bihar-several-hurt-police-open-fire-in-air/20260724.htm"}, {"name": "Bucharest, Bucuresti, Romania", "cc": "RO", "lat": 44.433, "lon": 26.1, "n": 2, "art": 12, "url": "https://www.zf.ro/zf-deschiderea-de-astazi/zf-deschiderea-astazi-bursa-voicu-oprean-ceo-arobs-cea-mare-companie-it-bursa-valori-urmatorii-cinci-ani-vor-redefini-industria-software-iar-romania-sansa-extraordinara-acest-sens-23200754"}, {"name": "Romania", "cc": "RO", "lat": 46.0, "lon": 25.0, "n": 2, "art": 14, "url": "https://www.capital.ro/traian-basescu-acuza-un-dublu-discurs-dupa-negocierile-cu-aur-una-spun-poporului-si-pe-ascuns-se-duc-cu-scufita-in-mana.html"}, {"name": "Darbhanga, Bihar, India", "cc": "IN", "lat": 26.167, "lon": 85.9, "n": 2, "art": 8, "url": "https://navbharattimes.indiatimes.com/state/bihar/darbhanga/darbhanga-heavy-stone-pelting-occurred-during-student-protest-city-sp-constable-injured-prompting-police-lathi-charge/articleshow/132577269.cms"}, {"name": "Minsk, Belarus (general), Belarus", "cc": "BO", "lat": 53.9, "lon": 27.567, "n": 1, "art": 1, "url": "https://fraza.ua/minoborony-bilorusi-zayavylo-pro-vidsutnist-zagrozy-napadu-z-boku-ukrayiny/"}, {"name": "Manchester, Manchester, United Kingdom", "cc": "UK", "lat": 53.5, "lon": -2.217, "n": 4, "art": 16, "url": "https://www.lbc.co.uk/article/terror-charge-manchester-synagogue-attacker-mod-5Hjdf54_2/"}, {"name": "Brazil", "cc": "BR", "lat": -10.0, "lon": -55.0, "n": 5, "art": 42, "url": "https://alexalejandre.com/interviews/interview-with-matheus-moreira/"}, {"name": "Surat, Gujarat, India", "cc": "IN", "lat": 20.967, "lon": 72.9, "n": 1, "art": 2, "url": "https://www.dainiktribuneonline.com/news/haryana/jind-student-protest-students-in-jind-protested-against-the-jantar-mantar-lathicharge-expressing-their-anger-by-breaking-pots/"}, {"name": "Afghanistan", "cc": "AF", "lat": 33.0, "lon": 66.0, "n": 1, "art": 10, "url": "https://news.mail.ru/politics/71734830/"}, {"name": "Surabaya, Jawa Timur, Indonesia", "cc": "ID", "lat": -7.249, "lon": 112.751, "n": 1, "art": 10, "url": "https://www.jawapos.com/surabaya-raya/2607230307/aksi-di-kejati-jatim-massa-bakar-ban-dan-tuntut-eks-jampidsus-febrie-adriansyah-ditahan"}, {"name": "Sri Lanka", "cc": "CE", "lat": 7.0, "lon": 81.0, "n": 4, "art": 23, "url": "https://www.mangalorean.com/student-protests-unleashed-to-create-sri-lanka-nepal-like-situation-in-india-ktaka-bjp/"}, {"name": "Zimbabwe", "cc": "ZI", "lat": -19.0, "lon": 29.0, "n": 2, "art": 14, "url": "https://www.africa-confidential.com/article-preview/id/16106/opposition-mounts-to-term-extension"}, {"name": "Bulgaria", "cc": "BU", "lat": 43.0, "lon": 25.0, "n": 2, "art": 12, "url": "https://fondsk.ru/news/2026/07/23/bezhency-s-ukrainy-v-bolgarii-zhertvy-voyny-ili-pyataya-kolonna-globalistov.html"}, {"name": "Zeleznica, Macedonia (general), Macedonia", "cc": "MK", "lat": 42.084, "lon": 22.151, "n": 1, "art": 10, "url": "https://novatv.mk/vilaetot-na-d-r-agaton/"}, {"name": "Chernivtsi, Chernivets'ka Oblast', Ukraine", "cc": "UP", "lat": 48.291, "lon": 25.94, "n": 1, "art": 2, "url": "https://shkola.obozrevatel.com/news/fedorov-majbutne-sirskij-minule-repetitor-po-ukrainskomu-yazyiku-na-primere-plakata-s-protestov-obyasnila-pravilo-o-podlezhaschem-i-skazuemom.htm"}, {"name": "Buzau, Buzau, Romania", "cc": "RO", "lat": 45.15, "lon": 26.833, "n": 1, "art": 10, "url": "https://www.amosnews.ro/stefanita-avramescu-o-afacere-din-judetul-buzau-se-inchide-dupa-16-ani-de-munca-guvernul-bolojan-vorbeste-despre-sprijinirea-economiei-dar-ii-sufoca-prin-taxe-fix-pe-cei-care-produc/"}, {"name": "Melnikova, Luhans'ka Oblast', Ukraine", "cc": "UP", "lat": 48.157, "lon": 39.035, "n": 2, "art": 14, "url": "https://news.telegraf.com.ua/ukr/statti/5946025-kharkivska-miskrada-zaplatila-100-mln-grn-osobistomu-advokatu-terekhova-rozsliduvannya"}, {"name": "Emsland, Niedersachsen, Germany", "cc": "GM", "lat": 52.833, "lon": 7.333, "n": 3, "art": 5, "url": "https://tradearabia.com:443/News/465314/Rosen-Group-completes-2-MW-solar-project-at-Lingen-site"}, {"name": "Pasay City, Pasay, Philippines", "cc": "RP", "lat": 14.552, "lon": 120.994, "n": 3, "art": 11, "url": "https://www.bulatlat.com/2026/07/23/media-groups-decry-harassment-of-journalists-activist-during-protest/"}, {"name": "Pasuruan, Jawa Timur, Indonesia", "cc": "ID", "lat": -7.645, "lon": 112.908, "n": 1, "art": 10, "url": "https://koran-jakarta.com/2026-07-23/diduga-peluru-latihan-nyasar-ke-pemukiman-warga-blokade-jalur-pantura-surabayabanyuwangi"}, {"name": "Marina Beach, Tamil Nadu, India", "cc": "IN", "lat": 13.051, "lon": 80.284, "n": 1, "art": 2, "url": "https://newstodaynet.com/2026/07/23/vehicle-checks-intensified-at-marina-beach-amid-neet-protests/"}, {"name": "West Midlands, United Kingdom (general), United Kingdom", "cc": "UK", "lat": 52.5, "lon": -1.967, "n": 1, "art": 8, "url": "https://www.birminghammail.co.uk/news/midlands-news/andy-burnhams-new-foreign-secretary-34336547"}, {"name": "Philadelphia, Pennsylvania, United States", "cc": "US", "lat": 39.952, "lon": -75.164, "n": 3, "art": 18, "url": "https://www.inquirer.com/health/smiles-on-the-square-philadelphia-dentist-reopening-sanitation-violations-kirti-chopra-20260723.html"}, {"name": "Dhaka, Dhaka, Bangladesh", "cc": "BG", "lat": 23.723, "lon": 90.409, "n": 1, "art": 10, "url": "https://www.dailynayadiganta.com/bangladesh/country-news/CSxNkX9gEACt"}, {"name": "Umbria, Umbria, Italy", "cc": "IT", "lat": 43.0, "lon": 12.5, "n": 1, "art": 10, "url": "https://www.genovatoday.it/cronaca/contromano-autostrada-tir.html"}, {"name": "Muscadet, Midi-Pyr\u00e9es, France", "cc": "FR", "lat": 42.827, "lon": 1.04, "n": 1, "art": 10, "url": "https://www.lapresse.ca/international/2026-07-23/ce-que-vous-avez-manque-cette-nuit/inde-tempete-bertha-france.php"}, {"name": "Nagpur, Maharashtra, India", "cc": "IN", "lat": 21.15, "lon": 79.1, "n": 1, "art": 6, "url": "https://indianexpress.com/article/cities/mumbai/detained-nagpur-cjp-protest-delhi-crackdown-10800278/"}, {"name": "Rosebank, Western Cape, South Africa", "cc": "SF", "lat": -33.951, "lon": 18.472, "n": 1, "art": 2, "url": "https://www.itweb.co.za/article/canva-africa-sace-collab-to-upskill-teachers/4r1lyMR9keb7pmda"}, {"name": "Avan, Aragatsotn, Armenia", "cc": "AM", "lat": 40.335, "lon": 44.167, "n": 3, "art": 10, "url": "https://www.panarmenian.net/eng/news/335310/"}, {"name": "Northern Ireland, Craigavon, United Kingdom", "cc": "UK", "lat": 54.5, "lon": -6.5, "n": 2, "art": 10, "url": "https://theconversation.com/britains-quarter-century-blair-populism-and-the-battle-over-human-rights-282676"}, {"name": "White House, District of Columbia, United States", "cc": "US", "lat": 38.895, "lon": -77.036, "n": 1, "art": 4, "url": "http://www.hngnews.com/nation_world/ap-news-summary-at-8-21-a-m-edt/article_54096a51-8efa-5698-8404-a31a2cc44c63.html"}, {"name": "Kuala Lumpur, Kuala Lumpur, Malaysia", "cc": "MY", "lat": 3.167, "lon": 101.7, "n": 1, "art": 10, "url": "https://www.freemalaysiatoday.com/category/nation/2026/07/23/animal-welfare-ngos-urge-dbkl-to-remove-high-bailout-fees-for-strays"}, {"name": "Nagaland, Nagaland, India", "cc": "IN", "lat": 26.0, "lon": 94.25, "n": 2, "art": 3, "url": "https://www.tribuneindia.com/news/trending/nagaland-man-orders-150-cheese-burst-pizzas-worth-over-rs-67000-for-cjp-protestors/"}, {"name": "Sonam, Uttaranchal, India", "cc": "IN", "lat": 31.233, "lon": 79.117, "n": 6, "art": 26, "url": "https://jang.com.pk/news/1601639"}, {"name": "Geneva, Gen\u00e8, Switzerland", "cc": "SZ", "lat": 46.196, "lon": 6.148, "n": 1, "art": 10, "url": "https://www.sigmalive.com/news/local/1323174/epitropos-paidiou-rekor-paraviaseon-dikaiomaton-paidiwn-se-empolemes-zwnes"}, {"name": "Burkina Faso", "cc": "UV", "lat": 13.0, "lon": -2.0, "n": 2, "art": 20, "url": "https://www.opportunitiesforafricans.com/the-pulitzer-center-africa-education-teachers-fellowship-2026/"}, {"name": "Adelaide, South Australia, Australia", "cc": "AS", "lat": -34.933, "lon": 138.6, "n": 1, "art": 2, "url": "https://www.abc.net.au/news/2026-07-23/chinese-diplomats-leave-labor-conference-in-adelaide/106951960"}, {"name": "Jordan", "cc": "JO", "lat": 31.0, "lon": 36.0, "n": 1, "art": 4, "url": "https://timesofindia.indiatimes.com/india/evening-news-wrap-parliament-deadlock-over-neet-continues-gulf-invests-to-find-new-oil-routes-more/articleshow/132580768.cms"}, {"name": "As Iran, Az\u00afarbayjan-e Sharqi, Iran", "cc": "IR", "lat": 39.025, "lon": 47.07, "n": 1, "art": 6, "url": "https://timesofindia.indiatimes.com/india/evening-news-wrap-parliament-deadlock-over-neet-continues-gulf-invests-to-find-new-oil-routes-more/articleshow/132580768.cms"}, {"name": "Kuwait", "cc": "KU", "lat": 29.5, "lon": 47.75, "n": 2, "art": 4, "url": "https://timesofindia.indiatimes.com/india/evening-news-wrap-parliament-deadlock-over-neet-continues-gulf-invests-to-find-new-oil-routes-more/articleshow/132580768.cms"}, {"name": "Katagami, Akita, Japan", "cc": "JA", "lat": 39.879, "lon": 139.998, "n": 1, "art": 10, "url": "https://www.techtimes.com/articles/321351/20260723/japan-certifies-worlds-first-earthquake-resistant-15-mw-offshore-wind-farm.htm"}, {"name": "Steubenville, Ohio, United States", "cc": "US", "lat": 40.37, "lon": -80.634, "n": 2, "art": 7, "url": "https://wtov9.com/news/local/overturned-coal-truck-righted-on-ohio-route-7-near-steubenville-delays-persist-coal-truck-steubenville-ohio-route-7-tractor-trailer-overturned-traffic-delays-detours-cardinal-plant"}, {"name": "Ohio, United States", "cc": "US", "lat": 40.374, "lon": -82.775, "n": 2, "art": 15, "url": "https://www.newswise.com/articles/aana-honors-excellence-in-nurse-anesthesiology-ohio-state-representative-kellie-deeter-to-receive-special-recognition-award-for-her-exceptional-legislative-leadership"}, {"name": "Sussex, East Sussex, United Kingdom", "cc": "UK", "lat": 50.917, "lon": -0.083, "n": 1, "art": 2, "url": "https://www.mirror.co.uk/news/royals/harry-meghan-oprah-winfrey-interview-37467995"}, {"name": "Buckingham Palace, Westminster, United Kingdom", "cc": "UK", "lat": 51.5, "lon": -0.133, "n": 1, "art": 6, "url": "https://www.mirror.co.uk/news/royals/harry-meghan-oprah-winfrey-interview-37467995"}, {"name": "Gwangju, Kwangju-gwangyoksi, South Korea", "cc": "KS", "lat": 35.155, "lon": 126.916, "n": 2, "art": 10, "url": "https://theconversation.com/starbucks-big-marketing-blunder-in-south-korea-shows-how-cultural-blind-spots-can-put-global-brands-in-a-bind-285913"}, {"name": "Nyika, Masvingo, Zimbabwe", "cc": "ZI", "lat": -19.756, "lon": 31.85, "n": 1, "art": 10, "url": "https://zanupf.org.zw/news/more-can-be-done-to-realize-our-goals-president-mnangagwa"}, {"name": "Mexico", "cc": "MX", "lat": 23.0, "lon": -102.0, "n": 4, "art": 40, "url": "https://www.latintimes.com/mexican-journalist-killed-oaxaca-violence-against-press-deepens-598301"}, {"name": "Tangier, Tanger-T\u00e9uan, Morocco", "cc": "MO", "lat": 35.781, "lon": -5.814, "n": 1, "art": 10, "url": "https://www.lavieeco.com/affaires/tanger-med-port-authority-decroche-une-double-notation-investment-grade/"}, {"name": "Pune, Maharashtra, India", "cc": "IN", "lat": 18.533, "lon": 73.867, "n": 2, "art": 14, "url": "https://indianexpress.com/article/cities/pune/anna-hazare-neet-protests-dharmendra-pradhan-resignation-10800641/"}, {"name": "Algiers, Alger, Algeria", "cc": "AG", "lat": 36.763, "lon": 3.051, "n": 1, "art": 6, "url": "https://lanouvelletribune.info/2026/07/energie-lalgerie-propose-son-expertise-au-benin-pour-soutenir-ses-projets/"}, {"name": "Niger", "cc": "NG", "lat": 16.0, "lon": 8.0, "n": 1, "art": 4, "url": "https://lanouvelletribune.info/2026/07/energie-lalgerie-propose-son-expertise-au-benin-pour-soutenir-ses-projets/"}, {"name": "Heaton Park, Manchester, United Kingdom", "cc": "UK", "lat": 53.533, "lon": -2.267, "n": 4, "art": 8, "url": "https://www.lbc.co.uk/article/terror-charge-manchester-synagogue-attacker-mod-5Hjdf54_2/"}, {"name": "Warsaw, (PL67), Poland", "cc": "PL", "lat": 52.25, "lon": 21.0, "n": 1, "art": 10, "url": "https://www.finanznachrichten.de/nachrichten-2026-07/69107521-fresha-accelerates-european-expansion-with-new-warsaw-office-and-appointment-of-maciej-walczewski-as-general-manager-for-eastern-europe-004.htm"}, {"name": "Toronto, Ontario, Canada", "cc": "CA", "lat": 43.667, "lon": -79.417, "n": 5, "art": 22, "url": "https://www.brandonsun.com/business/2026/07/23/fuel-costs-on-the-rise-as-latest-geopolitical-turmoil-drives-up-crude-oil-prices"}, {"name": "Belagavi, Karnataka, India", "cc": "IN", "lat": 15.867, "lon": 74.5, "n": 1, "art": 2, "url": "https://www.thehindu.com/news/national/karnataka/youth-student-organistions-hold-rally-in-belagavi-in-support-of-students-protesting-in-new-delhi/article71257967.ece"}, {"name": "Jeffreys Bay, Eastern Cape, South Africa", "cc": "SF", "lat": -34.051, "lon": 24.919, "n": 1, "art": 2, "url": "https://www.channelafrica.co.za/channelafrica/news/sa-minister-welcomes-arrests-over-anti-foreigner-attacks/"}, {"name": "Uttar Pradesh, Uttar Pradesh, India", "cc": "IN", "lat": 27.25, "lon": 80.75, "n": 2, "art": 13, "url": "https://www.hindustantimes.com/cities/lucknow-news/centre-ready-for-talks-on-paper-leaks-in-parliament-but-oppn-creating-disruptions-up-bjp-chief-101784827477742.html"}, {"name": "Los Angeles, California, United States", "cc": "US", "lat": 34.052, "lon": -118.244, "n": 2, "art": 18, "url": "https://jweekly.com/2026/07/23/san-diego-comic-con-will-be-the-site-of-a-jewish-anti-ice-protest-on-tisha-bav/"}, {"name": "Kherson, Khersons'ka Oblast', Ukraine", "cc": "UP", "lat": 46.656, "lon": 32.618, "n": 1, "art": 2, "url": "https://76crimes.com/2026/07/23/ukraine-lgbtq-sexual-violence-russia/"}, {"name": "Azerbaijan", "cc": "AJ", "lat": 40.5, "lon": 47.5, "n": 1, "art": 10, "url": "https://www.xalqcebhesi.az/news/politics/256345.html"}, {"name": "Gubbi, Karnataka, India", "cc": "IN", "lat": 13.311, "lon": 76.944, "n": 1, "art": 2, "url": "https://www.thehindu.com/news/national/karnataka/farmers-oppose-acquisition-of-land-for-hal-expansion-at-gubbi-in-tumakuru-district/article71257775.ece"}, {"name": "Sanaa, San\u0091a', Yemen", "cc": "YM", "lat": 15.355, "lon": 44.207, "n": 14, "art": 52, "url": "https://medicinehatnews.com/news/national-news/2026/07/23/fuel-costs-on-the-rise-as-latest-geopolitical-turmoil-drives-up-crude-oil-prices/"}, {"name": "Juarez, M\u00e9co, Mexico", "cc": "MX", "lat": 31.733, "lon": -106.483, "n": 1, "art": 10, "url": "https://diario.mx/economia/2026/jul/22/piden-consumir-local-ante-el-fin-sin-impuestos-en-ep-1129311.html"}, {"name": "Chamartin, Madrid, Spain", "cc": "SP", "lat": 40.45, "lon": -3.7, "n": 1, "art": 8, "url": "https://www.europapress.es/madrid/noticia-linea-metro-tendra-ramal-trenes-llegaran-pinar-chamartin-madrid-nuevo-norte-20260723131923.html"}, {"name": "Hungary", "cc": "HU", "lat": 47.0, "lon": 20.0, "n": 1, "art": 10, "url": "https://1news.az/news/20260723170455273-Madyar-vzyalsya-za-goskompanii-rukovoditelei-stanet-menshe-zarplaty-nizhe"}, {"name": "Tillaberi, Tillab\u00e9, Niger", "cc": "NG", "lat": 14.212, "lon": 1.453, "n": 1, "art": 10, "url": "https://www.lesahel.org/leconomie-populaire-a-niamey-le-quotidien-de-trois-commercantes/"}, {"name": "Nungambakkam, Tamil Nadu, India", "cc": "IN", "lat": 13.061, "lon": 80.234, "n": 1, "art": 10, "url": "https://www.thenewsminute.com/tamil-nadu/tamil-nadu-sees-four-alleged-custodial-deaths-in-five-weeks-cm-vijay-remains-silent"}, {"name": "Himachal Pradesh, Himachal Pradesh, India", "cc": "IN", "lat": 31.917, "lon": 77.25, "n": 10, "art": 27, "url": "http://www.calcuttanews.net/news/279206096/hp-citu-holds-protest-in-shimla-demanding-accountability-in-neet-paper-leak-demands-dharmendra-pradhan-resignation"}, {"name": "Bauchi, Bauchi, Nigeria", "cc": "NI", "lat": 10.313, "lon": 9.843, "n": 1, "art": 3, "url": "https://thenationonlineng.net/2027-northern-christians-seek-tinubus-campaign-dg-slot-pledge-support/"}, {"name": "Ratnagiri, Orissa, India", "cc": "IN", "lat": 20.633, "lon": 86.333, "n": 1, "art": 10, "url": "https://organiser.org/2026/07/23/371362/bharat/lokmanya-bal-gangadhar-tilak-birth-anniversary-a-life-dedicated-to-the-freedom-of-the-nation/"}, {"name": "Nankana Sahib, Punjab, Pakistan", "cc": "PK", "lat": 31.448, "lon": 73.697, "n": 1, "art": 2, "url": "https://organiser.org/2026/07/23/371393/bharat/punjab-must-learn-the-lessons-from-its-tragic-past/"}, {"name": "Langar, Jammu and Kashmir, India", "cc": "IN", "lat": 32.668, "lon": 74.89, "n": 1, "art": 8, "url": "https://organiser.org/2026/07/23/371393/bharat/punjab-must-learn-the-lessons-from-its-tragic-past/"}, {"name": "Jose Marti, Santiago de Cuba, Cuba", "cc": "CU", "lat": 20.317, "lon": -76.183, "n": 3, "art": 30, "url": "https://diariodecuba.com/cuba/1784815232_68154.html"}, {"name": "Engadine, Switzerland (general), Switzerland", "cc": "SZ", "lat": 46.5, "lon": 10.0, "n": 1, "art": 8, "url": "https://www.laregione.ch/cantone/grigioni/1939916/livigno-collegamento-progetto-studio-prefattibilita-giorno-ferrovia-s-chanf-it"}, {"name": "Doetinchem, Gelderland, Netherlands", "cc": "NL", "lat": 51.967, "lon": 6.3, "n": 1, "art": 10, "url": "https://www.geenstijl.nl/5168138/er-komen-tribunalen-gideon-van-meijeren-voor-de-rechter-wegens-rijden-zonder-rijbewijs"}, {"name": "Kremenchug, Poltavs'ka Oblast', Ukraine", "cc": "UP", "lat": 49.072, "lon": 33.428, "n": 1, "art": 4, "url": "https://nikvesti.com/news/public/321493-less-polivu-bilshe-bioriznomanittya-deputatka-ryazhskikh-zaklikala-stvoryty-u-mykolayevi-klimatichni-gazoni"}, {"name": "Yerevan, Yerevan*, Armenia", "cc": "AM", "lat": 40.181, "lon": 44.514, "n": 2, "art": 10, "url": "https://armenianweekly.com/2026/07/23/government-frames-opposition-as-a-national-security-threat/"}, {"name": "Begusarai, Bihar, India", "cc": "IN", "lat": 25.417, "lon": 86.133, "n": 1, "art": 3, "url": "https://www.thehindu.com/news/national/bihar/neet-protests-continue-in-several-districts-of-bihar-stone-pelting-in-katihar-darbhanga-and-begusarai/article71258080.ece"}, {"name": "Lucknow, Uttar Pradesh, India", "cc": "IN", "lat": 26.85, "lon": 80.917, "n": 1, "art": 10, "url": "https://www.tarunmitra.in/state/uttar-pradesh/advocates-demonstrated-against-neet-paper-leak/article-154309"}, {"name": "Syria", "cc": "SY", "lat": 35.0, "lon": 38.0, "n": 1, "art": 10, "url": "https://www.jpnews-sy.com/ar/news.php?id=248637"}, {"name": "Helsinki, Etel\u00e4uomen L\u00e4i, Finland", "cc": "FI", "lat": 60.176, "lon": 24.934, "n": 1, "art": 8, "url": "https://english.news.cn/20260723/5fdd2e9336d5465aab914ce6cdffdf7b/c.html"}, {"name": "Singanallur, Tamil Nadu, India", "cc": "IN", "lat": 11.0, "lon": 77.017, "n": 2, "art": 11, "url": "https://www.thehindu.com/news/cities/Coimbatore/anti-neet-agitations-in-coimbatore-extend-solidarity-to-jantar-mantar-protest/article71258447.ece"}, {"name": "Espriella, Nari\u00f1O, Colombia", "cc": "CO", "lat": 1.433, "lon": -77.417, "n": 2, "art": 20, "url": "https://www.semana.com/semana-tv/semana-el-debate/articulo/enrique-gomez-hace-grave-denuncia-de-saqueo-en-el-gobierno-petro-antes-de-irse-de-la-presidencia-no-se-salva-nadie/202631/"}, {"name": "South Africa", "cc": "SF", "lat": -30.0, "lon": 26.0, "n": 5, "art": 15, "url": "https://www.el-balad.com/17035043"}, {"name": "Ernakulam, Kerala, India", "cc": "IN", "lat": 9.983, "lon": 76.283, "n": 3, "art": 14, "url": "https://www.thehindu.com/news/national/kerala/hundreds-gather-in-keralas-kochi-to-express-solidarity-with-delhi-student-protest/article71258458.ece"}, {"name": "Namchi, India (general), India", "cc": "IN", "lat": 27.167, "lon": 88.35, "n": 1, "art": 10, "url": "https://scroll.in/latest/1094482/rush-hour-pm-announces-fast-track-courts-on-paper-leaks-nia-probe-into-youth-protest-sought-more"}, {"name": "State Of West Bengal, West Bengal, India", "cc": "IN", "lat": 24.0, "lon": 88.0, "n": 2, "art": 11, "url": "https://indianexpress.com/article/upsc-current-affairs/upsc-key-police-actions-in-protests-marrakesh-agreement-and-quad-10800550/"}, {"name": "Durban, KwaZulu-Natal, South Africa", "cc": "SF", "lat": -29.85, "lon": 31.017, "n": 1, "art": 10, "url": "https://www.timeslive.co.za/news/south-africa/2026-07-23-watch-crashed-energy-drinks-truck-gives-durban-looters-wings/"}, {"name": "Nigeria", "cc": "NI", "lat": 10.0, "lon": 8.0, "n": 1, "art": 2, "url": "https://allafrica.com/stories/202607230560.html"}, {"name": "Uganda", "cc": "UG", "lat": 2.0, "lon": 33.0, "n": 1, "art": 10, "url": "https://www.gazetadopovo.com.br/mundo/como-jovens-catolicos-estao-mudando-a-dinamica-da-igreja-na-africa/"}, {"name": "Kannur, Kerala, India", "cc": "IN", "lat": 11.867, "lon": 75.365, "n": 4, "art": 18, "url": "https://www.thehindu.com/news/national/protests-over-neet-paper-leak-intensify-nationwide/article71259431.ece"}, {"name": "Kasaragod, Kerala, India", "cc": "IN", "lat": 12.5, "lon": 75.0, "n": 2, "art": 4, "url": "https://www.thehindu.com/news/national/protests-over-neet-paper-leak-intensify-nationwide/article71259431.ece"}, {"name": "North Carolina, United States", "cc": "US", "lat": 35.641, "lon": -79.843, "n": 2, "art": 10, "url": "https://www.carolinajournal.com/crash-data-raises-safety-questions-about-bridge-protests-on-i-40/"}, {"name": "Alappuzha, Kerala, India", "cc": "IN", "lat": 9.494, "lon": 76.328, "n": 1, "art": 8, "url": "https://www.thehindu.com/news/national/kerala/sfi-stages-statewide-protests-in-kerala-over-neet-ug-exam-irregularities/article71257922.ece"}, {"name": "Thrissur, Kerala, India", "cc": "IN", "lat": 10.517, "lon": 76.217, "n": 8, "art": 60, "url": "https://www.thehindu.com/news/national/kerala/sfi-stages-statewide-protests-in-kerala-over-neet-ug-exam-irregularities/article71257922.ece"}, {"name": "Malappuram, Andaman and Nicobar Islands, India", "cc": "IN", "lat": 11.783, "lon": 92.717, "n": 3, "art": 10, "url": "https://www.thehindu.com/news/national/kerala/sfi-stages-statewide-protests-in-kerala-over-neet-ug-exam-irregularities/article71257922.ece"}, {"name": "Shiv, Rajasthan, India", "cc": "IN", "lat": 26.183, "lon": 71.25, "n": 11, "art": 48, "url": "https://www.ummid.com/news/2026/7/23/padhai-aur-ladai-saath-chalegi-students-hold-ground-in-delhi-other-cities.html"}, {"name": "Indonesia", "cc": "ID", "lat": -5.0, "lon": 120.0, "n": 4, "art": 16, "url": "https://ianslive.in/pm-modis-three-nation-visit-reflects-milestone-in-evolution-of-indias-indo-pacific-strategy-report--20260723175207"}, {"name": "Palakkad, Kerala, India", "cc": "IN", "lat": 10.773, "lon": 76.651, "n": 3, "art": 8, "url": "https://www.siasat.com/live-sonam-its-done-bro-will-send-food-says-salman-3511619/"}, {"name": "Pathanamthitta, Kerala, India", "cc": "IN", "lat": 9.267, "lon": 76.783, "n": 1, "art": 4, "url": "https://www.thehindu.com/news/national/kerala/sfi-stages-statewide-protests-in-kerala-over-neet-ug-exam-irregularities/article71257922.ece"}, {"name": "Clacton, Essex, United Kingdom", "cc": "UK", "lat": 51.783, "lon": 1.167, "n": 1, "art": 2, "url": "https://www.aol.co.uk/articles/instant-karma-moment-heckler-shouts-150555000.html"}, {"name": "Bougainville, Picardie, France", "cc": "FR", "lat": 49.871, "lon": 2.043, "n": 1, "art": 10, "url": "https://redon.maville.com/actu/actudet_-lio-et-electrostatiks-saint-malo-passe-en-mode-festif-le-11-aout-2026-_fil-7417261_actu.Htm"}, {"name": "Rio Turbio, Santa Cruz, Argentina", "cc": "AR", "lat": -51.573, "lon": -72.351, "n": 1, "art": 10, "url": "https://www.lanacion.com.ar/espectaculos/personajes/pedro-pascal-hizo-otro-llamativo-posteo-sobre-el-mundial-y-volvio-enojar-a-los-fans-argentinos-nid23072026/"}, {"name": "Mandapam, Tamil Nadu, India", "cc": "IN", "lat": 9.283, "lon": 79.117, "n": 1, "art": 2, "url": "https://keralakaumudi.com/en/en/india/general/opposition-mps-with-amrch-to-gandhi-smriti-in-delhi-1782816"}, {"name": "Montserrado County, Montserrado, Liberia", "cc": "LI", "lat": 6.5, "lon": -10.5, "n": 1, "art": 6, "url": "https://www.liberianobserver.com/news/boakai-s-promise-on-drug-cartels-faces-crucial-test/article_a56c7958-7fdd-4922-b3d8-a19d6226c4c5.html"}, {"name": "Roberts International Airport, Margibi, Liberia", "cc": "LI", "lat": 6.24, "lon": -10.358, "n": 1, "art": 4, "url": "https://www.liberianobserver.com/news/boakai-s-promise-on-drug-cartels-faces-crucial-test/article_a56c7958-7fdd-4922-b3d8-a19d6226c4c5.html"}, {"name": "Boston, Massachusetts, United States", "cc": "US", "lat": 42.358, "lon": -71.06, "n": 1, "art": 10, "url": "http://www.lettera22.it/india-da-blatte-a-partito-politico/"}, {"name": "Camp Crame, Quezon City, Philippines", "cc": "RP", "lat": 14.607, "lon": 121.054, "n": 1, "art": 6, "url": "https://www.philstar.com/headlines/2026/07/24/2544301/sona-2026-earth-shaking-wont-touch-sara-trial"}, {"name": "Lesotho", "cc": "LT", "lat": -29.5, "lon": 28.25, "n": 1, "art": 2, "url": "https://groundup.org.za/article/lesotho-loses-millions-to-sgk-pyramid-scheme/"}, {"name": "Red Sea, Djibouti (general), Djibouti", "cc": "DJ", "lat": 19.0, "lon": 39.5, "n": 2, "art": 8, "url": "https://www.dailymail.com/news/article-16000037/UK-drivers-pump-prices-Iran-war-oil-barrel-Trump.html"}, {"name": "Kenilworth, New Jersey, United States", "cc": "US", "lat": 40.676, "lon": -74.291, "n": 1, "art": 6, "url": "https://newrepublic.com/article/213386/national-data-center-protests-artificial-intelligence"}, {"name": "Lebanon", "cc": "LE", "lat": 33.833, "lon": 35.833, "n": 1, "art": 10, "url": "https://www.almanar.com.lb/article/1043837/"}, {"name": "Shirdi, Maharashtra, India", "cc": "IN", "lat": 19.767, "lon": 74.483, "n": 1, "art": 6, "url": "https://indianexpress.com/article/cities/pune/anna-hazare-neet-protests-dharmendra-pradhan-resignation-10800641/"}, {"name": "Finglas, Dublin City, Ireland", "cc": "EI", "lat": 53.389, "lon": -6.297, "n": 2, "art": 4, "url": "https://www.breakingnews.ie/ireland/graham-carey-to-be-sentenced-for-incitement-to-hatred-offences-1931021.html"}, {"name": "Meath, Meath, Ireland", "cc": "EI", "lat": 53.667, "lon": -6.667, "n": 1, "art": 10, "url": "https://www.meathchronicle.ie/2026/07/23/the-italian-connection-meaths-eu-presidency-programme-launches/"}, {"name": "Bahadurpura, Rajasthan, India", "cc": "IN", "lat": 25.429, "lon": 75.679, "n": 1, "art": 5, "url": "https://www.siasat.com/black-ribbons-silent-march-congress-protest-in-hyderabad-3512137/"}, {"name": "Bhiwandi, Maharashtra, India", "cc": "IN", "lat": 19.3, "lon": 73.067, "n": 1, "art": 1, "url": "https://www.freepressjournal.in/mumbai/bhiwandi-congress-submits-memorandum-to-president-condemns-police-action-on-jantar-mantar-protest"}, {"name": "Maple Shade, New Jersey, United States", "cc": "US", "lat": 39.953, "lon": -74.992, "n": 2, "art": 10, "url": "https://6abc.com/post/2-businesses-maple-shade-new-jersey-damaged-fire-caused-lightning-strike/19562508/"}, {"name": "Lesvos, Perifereia Voreiou Aigaiou, Greece", "cc": "GR", "lat": 39.167, "lon": 26.25, "n": 2, "art": 10, "url": "https://www.inewsgr.com/383/apo-to-oneiro-stin-tragodia-panepistimiakos-kai-i-syntrofos-tis-afisan-tin-afstralia-gia-na-zisoun-to-oneiro-tous-sti-lesvo-kai-skotothikan-se-trochaio.htm"}, {"name": "Isfahan, Esfahan, Iran", "cc": "IR", "lat": 32.66, "lon": 51.671, "n": 3, "art": 30, "url": "https://efe.com/mundo/2026-07-23/onu-alerta-posible-ejecucion-jovenes-protestas-iran/"}, {"name": "Tohi, Shizuoka, Japan", "cc": "JA", "lat": 34.9, "lon": 138.783, "n": 2, "art": 5, "url": "https://www.naturalnews.com/2026-07-23-coal-fired-power-generation-sees-resurgence-energy-security.html"}, {"name": "Allahabad, Uttar Pradesh, India", "cc": "IN", "lat": 25.45, "lon": 81.85, "n": 1, "art": 4, "url": "https://www.livemint.com/politics/bjp-veteran-murli-manohar-joshi-condemns-police-action-on-cjp-protesters-painful-to-see-young-girls-were-mishandled-11784815224383.html"}, {"name": "Astana, Gorod Astana, Kazakhstan", "cc": "KZ", "lat": 51.181, "lon": 71.428, "n": 1, "art": 10, "url": "https://timesca.com/after-bishimbayev-kazakhstans-domestic-violence-laws-face-an-enforcement-test/"}, {"name": "Qatar", "cc": "QA", "lat": 25.5, "lon": 51.25, "n": 1, "art": 10, "url": "https://www.notimerica.com/politica/noticia-policia-lanza-gases-lacrimogenos-nueva-jornada-protestas-contra-proyecto-jared-kushner-albania-20260723182740.html"}, {"name": "Prague, Praha, Hlavn\u00edesto, Czech Republic", "cc": "EZ", "lat": 50.083, "lon": 14.467, "n": 1, "art": 6, "url": "https://www.metro.cz/kraje/stredocesky-kraj/kbelska-rekonstrukce-praha.A260723_175221_metro-praha-zpravy_air"}, {"name": "Sumy, Sums'ka Oblast', Ukraine", "cc": "UP", "lat": 50.922, "lon": 34.8, "n": 1, "art": 1, "url": "https://focus.ua/politics/762042-mirnye-peregovory-lavrov-proignoriroval-vopros-o-voynah-posle-besedy-s-rubio"}, {"name": "Druzhba, Vologodskaya Oblast', Russia", "cc": "RS", "lat": 59.833, "lon": 35.767, "n": 1, "art": 8, "url": "https://www.yahoo.com/news/world/articles/kazakhstan-cuts-oil-production-over-160337153.html"}, {"name": "Raichur, Karnataka, India", "cc": "IN", "lat": 16.2, "lon": 77.367, "n": 1, "art": 8, "url": "https://www.thehindubusinessline.com/opinion/letters-to-editor/article71259219.ece"}, {"name": "Malacca, Andaman and Nicobar Islands, India", "cc": "IN", "lat": 9.167, "lon": 92.817, "n": 1, "art": 10, "url": "https://www.diploweb.com/10-Les-activites-de-transformation.html"}, {"name": "Portugal", "cc": "PO", "lat": 39.5, "lon": -8.0, "n": 1, "art": 10, "url": "https://omirante.pt/politica/2026-07-23-pcp-sauda-mobilizacao-contra-unidade-de-biometano-em-argea-b3811ce5"}, {"name": "Tarlac, City of Tarlac, Philippines", "cc": "RP", "lat": 15.489, "lon": 120.592, "n": 3, "art": 10, "url": "https://verafiles.org/articles/protest-rally-against-u-s-president-trump-and-state-secretary-rubio"}, {"name": "Trelawny, Trelawny, Jamaica", "cc": "JM", "lat": 18.383, "lon": -77.633, "n": 1, "art": 10, "url": "https://www.jamaicaobserver.com/2026/07/23/watch-troy-residents-protest-amid-mans-arrest-following-fatal-mobbing-slain-10-year-old/"}, {"name": "Valencia, Carabobo, Venezuela", "cc": "VE", "lat": 10.181, "lon": -68.004, "n": 2, "art": 10, "url": "https://larepublica.es/2026/07/23/protesta-ante-el-ayuntamiento-de-valencia-tras-el-asalto-del-concejal-vox-a-la-sede-estudiantil/"}, {"name": "Kharkiv, Kharkivs'ka Oblast', Ukraine", "cc": "UP", "lat": 49.981, "lon": 36.253, "n": 1, "art": 40, "url": "https://www.hna.de/politik/im-aktuellen-ukraine-krieg-syrskyj-entlassen-drapatyj-wird-oberbefehlshaber-zr-94412361.html"}, {"name": "Bolivar, Valle del Cauca, Colombia", "cc": "CO", "lat": 4.339, "lon": -76.183, "n": 1, "art": 10, "url": "https://www.semana.com/vehiculos/articulo/hay-manifestaciones-este-jueves-en-bogota-consulte-la-movilidad-en-la-capital-este-23-de-julio/202621/"}, {"name": "Bogota, Cundinamarca, Colombia", "cc": "CO", "lat": 4.6, "lon": -74.083, "n": 2, "art": 20, "url": "https://www.eluniversal.com.co/regional/bolivar/2026/07/23/peaje-de-turbaco-asi-queda-el-cobro-tras-nueva-decision-del-gobierno-petro/"}, {"name": "Banyumas, Jawa Tengah, Indonesia", "cc": "ID", "lat": -7.514, "lon": 109.294, "n": 3, "art": 9, "url": "https://en.antaranews.com/news/423836/turning-the-tide-on-waste-handling-starts-at-the-source"}, {"name": "Netherlands", "cc": "NL", "lat": 52.5, "lon": 5.75, "n": 1, "art": 5, "url": "https://azbigmedia.com/real-estate/big-deals/retail/ironwood-and-ranch-mixed-use-project-coming-to-san-tan-valley/"}, {"name": "Kazakhstan", "cc": "KZ", "lat": 48.0, "lon": 68.0, "n": 1, "art": 8, "url": "https://www.ukrinform.ua/rubric-ato/4147341-bitva-za-ukrainu-den-tisaca-sistsot-odinadcatij.html"}, {"name": "Maslennikov, Sverdlovskaya Oblast', Russia", "cc": "RS", "lat": 57.353, "lon": 61.492, "n": 1, "art": 10, "url": "https://www.unian.net/world/v-rossii-nachnut-vypuskat-odekolon-duh-ankoridzha-13449603.html"}, {"name": "Madlanga, Eastern Cape, South Africa", "cc": "SF", "lat": -30.982, "lon": 29.263, "n": 3, "art": 14, "url": "https://www.dailymaverick.co.za/article/2026-07-23-andrea-johnsons-potential-end-idac-boss-admits-colleagues-misinformed-her-in-crime-intelligence-scandal/"}, {"name": "Tianwen, Guizhou, China", "cc": "CH", "lat": 27.27, "lon": 107.44, "n": 1, "art": 10, "url": "https://www.ecoticias.com/en/chinas-tianwen-2-probe-is-on-its-way-to-asteroid-2016-ho3-a-small-space-rock-that-could-become-a-key-piece-in-the-new-race-to-bring-back-secrets-from-deep-space/34831/"}, {"name": "Darbhanga District, Bihar, India", "cc": "IN", "lat": 26.0, "lon": 86.0, "n": 1, "art": 4, "url": "https://economictimes.indiatimes.com/news/india/neet-paper-leak-bihar-students-clash-with-security-forces-police-use-bullets-batons/articleshow/132588174.cms"}, {"name": "Kargil, Jammu and Kashmir, India", "cc": "IN", "lat": 34.567, "lon": 76.1, "n": 2, "art": 3, "url": "https://economictimes.indiatimes.com/news/india/neet-paper-leak-bihar-students-clash-with-security-forces-police-use-bullets-batons/articleshow/132588174.cms"}, {"name": "Muzaffarpur, Bihar, India", "cc": "IN", "lat": 26.117, "lon": 85.4, "n": 2, "art": 4, "url": "https://www.rediff.com/news/report/neet-protests-turn-violent-in-bihar-several-hurt-police-open-fire-in-air/20260724.htm"}, {"name": "West Virginia, United States", "cc": "US", "lat": 38.468, "lon": -80.97, "n": 2, "art": 4, "url": "https://www.wsaz.com/2026/07/23/wsaz-former-prisoner-war-jessica-lynch-shares-her-story-survival-resilience/"}, {"name": "Bariloche, Provincia de Rio Negro, Argentina", "cc": "AR", "lat": -41.14, "lon": -71.301, "n": 1, "art": 10, "url": "https://diariosanrafael.com.ar/alerta-en-el-sector-nuclear-denuncian-vaciamiento-de-la-cnea-despidos-clave-y-la-entrega-del-proyecto-carem-a-potencias-extranjeras/"}, {"name": "Vienna, Wien, Austria", "cc": "AU", "lat": 48.2, "lon": 16.367, "n": 1, "art": 10, "url": "https://www.teraz.sk/zahranicie/rakuska-policia-zakazala-demonstrac/980024-clanok.html"}, {"name": "Companiganj, Chittagong, Bangladesh", "cc": "BG", "lat": 22.874, "lon": 91.271, "n": 2, "art": 10, "url": "https://dailyinqilab.com/politics/news/920077"}, {"name": "Ben Gurion, HaMerkaz, Israel", "cc": "IS", "lat": 32.011, "lon": 34.887, "n": 1, "art": 4, "url": "https://www.ynet.co.il/news/article/rj11sbdysgx"}, {"name": "Macedonia", "cc": "MK", "lat": 41.833, "lon": 22.0, "n": 1, "art": 10, "url": "https://www.news.gr/politikh/article/4184093/kiriakos-mitsotakis-i-ellada-ton-imitelon-ergon-aniki-sto-parelthon-me-ton-e65-apodiknioume-oti-i-chora-allazi.html"}, {"name": "Saint George, Saint George, Grenada", "cc": "GJ", "lat": 12.05, "lon": -61.75, "n": 3, "art": 10, "url": "https://maszol.ro/belfold/Eleg-volt-a-provokaciobol-Sepsiszentgyorgy-nem-ad-teret-Mihai-Tirnoveanu-ujabb-akciojanak"}, {"name": "Ranchi, Jharkhand, India", "cc": "IN", "lat": 23.35, "lon": 85.333, "n": 5, "art": 12, "url": "https://www.freepressjournal.in/analysis/ken-betwa-protest-put-out-but-it-has-not-been-heard"}, {"name": "Syros, Perifereia Notiou Aigaiou, Greece", "cc": "GR", "lat": 37.45, "lon": 24.933, "n": 3, "art": 10, "url": "http://www.jpost.com/travel/article-903425"}, {"name": "Copenhagen, K\u00f8avn*, Denmark", "cc": "DA", "lat": 55.667, "lon": 12.583, "n": 2, "art": 14, "url": "https://pravda.if.ua/u-frankivsioku-planuyutio-rozshyryty-problemnyj-trotuar-na-vulyczi-bandery/"}, {"name": "Kenosha, Wisconsin, United States", "cc": "US", "lat": 42.585, "lon": -87.821, "n": 1, "art": 5, "url": "https://lasvegassun.com/news/2026/jul/23/wisconsin-governor-calls-for-transparency-after-ma/"}, {"name": "Thiruvananthapuram, Kerala, India", "cc": "IN", "lat": 8.507, "lon": 76.957, "n": 1, "art": 4, "url": "https://aninews.in/news/national/politics/cpi-calls-for-statewide-agitation-on-july-27-in-keralam-plans-protest-at-lok-bhavan-over-recruitment-exam-integrity20260723221340/"}, {"name": "Cape Town, Western Cape, South Africa", "cc": "SF", "lat": -33.917, "lon": 18.417, "n": 2, "art": 15, "url": "https://www.news24.com/southafrica/news/rain-and-riot-gear-anti-immigrant-protesters-march-through-cape-town-under-heavy-guard-20260723-1061"}, {"name": "San Diego, California, United States", "cc": "US", "lat": 32.715, "lon": -117.157, "n": 3, "art": 4, "url": "https://jweekly.com/2026/07/23/san-diego-comic-con-will-be-the-site-of-a-jewish-anti-ice-protest-on-tisha-bav/"}, {"name": "Northeast Community College, Nebraska, United States", "cc": "US", "lat": 42.049, "lon": -97.396, "n": 1, "art": 5, "url": "https://norfolkdailynews.com/select/news/in-a-changing-technological-future-more-students-turn-to-the-trades/article_b951626f-27d3-4827-a907-a26201045c24.html"}, {"name": "Balkans, Greece (general), Greece", "cc": "GR", "lat": 44.0, "lon": 23.0, "n": 1, "art": 10, "url": "https://www.thetoc.gr/politiki/article/live-i-omilia-tou-kuriakou-mitsotaki-gia-tin-paradosi-stin-kukloforia-tou-teleutaiou-tmimatos-tou-e65/"}, {"name": "Lagrange College, Georgia, United States", "cc": "US", "lat": 33.039, "lon": -85.042, "n": 1, "art": 5, "url": "https://pagosadailypost.com/2026/07/23/intel-from-the-ivory-tower-which-countries-have-voter-id-laws/"}, {"name": "Nadvornaya, Ivano-Frankivs'ka Oblast', Ukraine", "cc": "UP", "lat": 48.635, "lon": 24.569, "n": 2, "art": 10, "url": "https://pravda.if.ua/na-nadvirnyanshhyni-navkolishky-zustrily-poleglogo-zahysnyka-sergiya-kostyuchenka/"}, {"name": "Kalyan, Maharashtra, India", "cc": "IN", "lat": 19.25, "lon": 73.15, "n": 1, "art": 10, "url": "https://www.prokerala.com/news/articles/a1791684.html"}, {"name": "Leningrad, Sankt-Peterburg, Russia", "cc": "RS", "lat": 59.894, "lon": 30.264, "n": 1, "art": 10, "url": "https://saint-petersburg.ru/news/2026/7/23/48444"}, {"name": "Grevena, Perifereia Dytikis Makedonias, Greece", "cc": "GR", "lat": 40.036, "lon": 21.446, "n": 1, "art": 10, "url": "https://bankwars.gr/%CE%BC%CE%B7%CF%84%CF%83%CE%BF%CF%84%CE%AC%CE%BA%CE%B7%CF%82-%CE%B1%CF%80%CF%8C-%CE%B3%CF%81%CE%B5%CE%B2%CE%B5%CE%BD%CE%AC-%CE%BF-%CE%B565-%CE%B5%CE%AF%CE%BD%CE%B1%CE%B9-%CE%B7-%CE%B1%CF%80%CE%AC/"}, {"name": "Zhitomir, Zhytomyrs'ka Oblast', Ukraine", "cc": "UP", "lat": 50.265, "lon": 28.677, "n": 1, "art": 10, "url": "https://24tv.ua/ru/ataka-na-zhitomir-segodnja-kuda-popali-rossijane_n3111016"}, {"name": "Martinique", "cc": "MB", "lat": 14.667, "lon": -61.0, "n": 1, "art": 10, "url": "https://la1ere.franceinfo.fr/martinique/ministre-des-armees-en-martinique-lutte-contre-le-narcotrafic-et-service-national-volontaire-au-c-ur-de-la-visite-1722301.html"}, {"name": "Ankara, Ankara, Turkey", "cc": "TU", "lat": 39.927, "lon": 32.864, "n": 4, "art": 8, "url": "https://www.azernews.az/region/261413.html"}, {"name": "Nassau, New Providence, Bahamas, The", "cc": "BF", "lat": 25.083, "lon": -77.35, "n": 1, "art": 1, "url": "https://nassauweekly.com/mr_gates_comes_to_call/"}, {"name": "Memphis, Tennessee, United States", "cc": "US", "lat": 35.15, "lon": -90.049, "n": 1, "art": 1, "url": "https://www.yahoo.com/news/politics/articles/federal-judges-deny-injunction-against-184038110.html"}, {"name": "Peja, Opstina Pec, Kosovo", "cc": "KV", "lat": 42.66, "lon": 20.292, "n": 1, "art": 8, "url": "https://zeri.info/kronika/631002/i-riu-qe-vrau-aksidentalisht-babane-ne-decan-ndalohet-per-48-ore-prokuroria-jep-detaje/"}, {"name": "Glasgow, Glasgow City, United Kingdom", "cc": "UK", "lat": 55.833, "lon": -4.25, "n": 1, "art": 10, "url": "https://www.thenational.scot/news/26405064.glasgow-venue-urged-cancel-domestic-abusers-far-right-event/"}, {"name": "Jigna, Madhya Pradesh, India", "cc": "IN", "lat": 25.65, "lon": 78.367, "n": 3, "art": 20, "url": "https://www.ummid.com/news/2026/7/23/padhai-aur-ladai-saath-chalegi-students-hold-ground-in-delhi-other-cities.html"}, {"name": "Dane County, Wisconsin, United States", "cc": "US", "lat": 43.067, "lon": -89.433, "n": 2, "art": 10, "url": "https://truthout.org/articles/madison-residents-protest-after-police-shoot-kill-a-black-man-in-broad-daylight/"}, {"name": "Hawaii, United States", "cc": "US", "lat": 21.11, "lon": -157.531, "n": 1, "art": 10, "url": "https://mauinow.com/2026/07/23/hawaiian-stilt-population-improves-from-200-to-in-40s-to-1500-today-recovery-documented-in-uh-study/"}, {"name": "Enugu State, Enugu, Nigeria", "cc": "NI", "lat": 6.5, "lon": 7.5, "n": 3, "art": 10, "url": "https://thesun.ng/mbah-advocates-experiential-learning-unveils-enugus-human-development-model-at-unn-convocation-lecture/"}, {"name": "Gauteng, Gauteng, South Africa", "cc": "SF", "lat": -26.083, "lon": 28.25, "n": 1, "art": 5, "url": "https://mwnation.com/the-economics-of-solidarity-why-social-stability-is-africas-greatest-investment-risk/"}, {"name": "Jauhar, Uttar Pradesh, India", "cc": "IN", "lat": 26.534, "lon": 79.89, "n": 1, "art": 10, "url": "https://timesofindia.indiatimes.com/city/lucknow/lop-21-sp-mlas-join-jauhar-univ-protest-demand-halt-to-demolition-drive/articleshow/132591005.cms"}, {"name": "Kathmandu, Bagmati, Nepal", "cc": "NP", "lat": 27.717, "lon": 85.317, "n": 1, "art": 4, "url": "https://thediplomat.com/2026/07/nepali-pm-balendra-shahs-image-as-a-change-agent-is-at-risk/"}, {"name": "Jind, Haryana, India", "cc": "IN", "lat": 29.317, "lon": 76.317, "n": 4, "art": 16, "url": "https://www.thehindu.com/news/national/protests-over-neet-paper-leak-intensify-nationwide/article71259431.ece"}, {"name": "Pilastro, Emilia-Romagna, Italy", "cc": "IT", "lat": 44.339, "lon": 12.093, "n": 1, "art": 10, "url": "https://socialistworker.co.uk/international/protests-and-strikes-demand-justice-for-italys-george-floyd/"}, {"name": "Puebla, Puebla, Mexico", "cc": "MX", "lat": 19.05, "lon": -98.2, "n": 1, "art": 10, "url": "https://www.poblanerias.com/2026/07/alejandro-leyva-periodista-asesinado/"},