[{"name": "United States", "cc": "US", "lat": 39.828, "lon": -98.579, "n": 29, "art": 192, "url": "https://nos.nl/artikel/2623026-trump-betaalt-5-miljoen-schadevergoeding-om-seksueel-misbruik-uit-jaren-90"}, {"name": "Delhi, Delhi, India", "cc": "IN", "lat": 28.667, "lon": 77.217, "n": 23, "art": 127, "url": "https://www.thehindu.com/newsletter/the-morning-brew/here-are-the-latest-news-and-big-news-stories-to-follow/article71222729.ece"}, {"name": "Gulf Of Oman, Iran (general), Iran", "cc": "IR", "lat": 25.449, "lon": 57.794, "n": 1, "art": 10, "url": "https://www.northernpublicradio.org/2026-07-13/the-u-s-strikes-iran-after-trump-announces-a-renewed-blockade-and-tolls-in-hormuz"}, {"name": "Gaza, Israel (general), Israel", "cc": "IS", "lat": 31.417, "lon": 34.333, "n": 13, "art": 78, "url": "https://www.ynetnews.com/jewish-world/article/sy6hpevngx"}, {"name": "Maine, United States", "cc": "US", "lat": 44.607, "lon": -69.398, "n": 29, "art": 158, "url": "https://www.centralmaine.com/2026/07/14/waterville-protest-of-ice-shooting-draws-crowd-2/"}, {"name": "Spain", "cc": "SP", "lat": 40.0, "lon": -4.0, "n": 11, "art": 73, "url": "https://www.parkrecord.com/2026/07/14/therapist-offers-free-sessions-to-wasatch-countys-spanish-speaking-residents/"}, {"name": "Biddeford, Maine, United States", "cc": "US", "lat": 43.493, "lon": -70.453, "n": 16, "art": 77, "url": "https://www.pressherald.com/2026/07/14/waterville-protest-of-ice-shooting-draws-crowd/"}, {"name": "New York, United States", "cc": "US", "lat": 42.15, "lon": -74.938, "n": 13, "art": 58, "url": "https://haitiantimes.com/2026/07/14/contractor-drops-lien-haitian-restaurant-brooklyn/"}, {"name": "Hollywood, California, United States", "cc": "US", "lat": 34.098, "lon": -118.327, "n": 1, "art": 10, "url": "https://courthousenews.com/landlords-lose-appeal-challenging-nyc-broker-fee-ban/"}, {"name": "Washington, District of Columbia, United States", "cc": "US", "lat": 38.895, "lon": -77.036, "n": 12, "art": 62, "url": "https://psuvanguard.com/to-arm-or-disarm-campus-police/"}, {"name": "Iran", "cc": "IR", "lat": 32.0, "lon": 53.0, "n": 18, "art": 114, "url": "https://baynews9.com:443/fl/tampa/politics/2026/07/14/senate-democrats-block-national-defense-authorization-act"}, {"name": "North Carolina, United States", "cc": "US", "lat": 35.641, "lon": -79.843, "n": 4, "art": 18, "url": "https://www.nbcnews.com/politics/2026-election/dallas-woodhouse-resigns-north-carolina-auditor-early-voting-2026-rcna587436"}, {"name": "Italy", "cc": "IT", "lat": 42.833, "lon": 12.833, "n": 8, "art": 73, "url": "https://observador.pt/opiniao/o-fim-das-linhas-vermelhas-acabou-com-o-bloco-ainda-as-querem-para-o-chega/"}, {"name": "Hungary", "cc": "HU", "lat": 47.0, "lon": 20.0, "n": 9, "art": 57, "url": "https://www.newvision.co.ug/category/world/hungary-approves-constitutional-amendment-all-NV_237025_072026"}, {"name": "California, United States", "cc": "US", "lat": 36.17, "lon": -119.746, "n": 13, "art": 56, "url": "https://www.marinij.com/2026/07/14/california-blocked-an-oil-pipeline-in-santa-barbara-trump-forced-it-open/"}, {"name": "Geneina, Gharb Darfur, Sudan", "cc": "SU", "lat": 13.45, "lon": 22.45, "n": 1, "art": 5, "url": "https://www.surinametimes.com/artikel/sudans-paramilitary-rsf-chief-sentenced-to-death-over-war-crimes"}, {"name": "Piranshahr, Az\u00afarbayjan-e Gharbi, Iran", "cc": "IR", "lat": 36.701, "lon": 45.141, "n": 2, "art": 16, "url": "http://www.middleeaststar.com/news/279185228/heres-where-americas-next-strike-on-iran-will-come-from"}, {"name": "Baghdad, Baghdad, Iraq", "cc": "IZ", "lat": 33.339, "lon": 44.394, "n": 2, "art": 4, "url": "http://www.middleeaststar.com/news/279185228/heres-where-americas-next-strike-on-iran-will-come-from"}, {"name": "Puebla De Sanabria, Castilla y Le\u00f3P, Spain", "cc": "SP", "lat": 42.053, "lon": -6.636, "n": 2, "art": 6, "url": "https://artdaily.com/news/198033/Prado-masterpieces-move-outdoors-to-support-the-recovery-of-wildfire-scarred-Zamora"}, {"name": "Florida, United States", "cc": "US", "lat": 27.833, "lon": -81.717, "n": 3, "art": 22, "url": "https://legalinsurrection.com/2026/07/judge-frees-cuban-plan-hijacker-awaiting-deportation/"}, {"name": "Havana, Ciudad de La Habana, Cuba", "cc": "CU", "lat": 23.132, "lon": -82.364, "n": 2, "art": 20, "url": "https://www.elpais.com.uy/mundo/cuba-sufre-su-tercer-apagon-nacional-en-una-semana-y-el-quinto-en-lo-que-va-del-2026"}, {"name": "Belchite, Comunidad Autonoma de Aragon, Spain", "cc": "SP", "lat": 41.303, "lon": -0.75, "n": 1, "art": 2, "url": "https://artdaily.com/news/198033/Prado-masterpieces-move-outdoors-to-support-the-recovery-of-wildfire-scarred-Zamora"}, {"name": "Arizona, United States", "cc": "US", "lat": 33.771, "lon": -111.388, "n": 2, "art": 8, "url": "https://truthout.org/articles/community-activism-forced-federal-government-to-abandon-plans-for-ice-warehouses/"}, {"name": "Alcatraz, California, United States", "cc": "US", "lat": 37.827, "lon": -122.423, "n": 1, "art": 2, "url": "https://truthout.org/articles/community-activism-forced-federal-government-to-abandon-plans-for-ice-warehouses/"}, {"name": "Bangladesh", "cc": "BG", "lat": 24.0, "lon": 90.0, "n": 2, "art": 20, "url": "https://navbharattimes.indiatimes.com/india/india-slams-pakistan-over-pok-protests-human-rights-abuse/articleshow/132396003.cms"}, {"name": "Durres, Qarku i Durresit, Albania", "cc": "AL", "lat": 41.323, "lon": 19.441, "n": 1, "art": 10, "url": "https://nistori.com/lajme/media-franceze-le-temps-rama-shpenzoi-4-2-milione-euro-per-kanye-west-por-nuk-arriti-te-shuaje-zemerimin-e-shqiptareve/"}, {"name": "Tirana, Tirane, Albania", "cc": "AL", "lat": 41.328, "lon": 19.819, "n": 5, "art": 40, "url": "https://www.botasot.info/shqiperia/2506099/pjesemarrje-masive-mbyllet-protesta-e-45-te-per-doreheqjen-e-rames-qytetaret-thirrje-nga-bulevardi-ju-erdhi-fundi/"}, {"name": "Indiana, United States", "cc": "US", "lat": 39.865, "lon": -86.26, "n": 1, "art": 2, "url": "https://www.wishtv.com/news/politics/rally-fishers-mass-deportations/"}, {"name": "Sydney, New South Wales, Australia", "cc": "AS", "lat": -33.883, "lon": 151.217, "n": 6, "art": 37, "url": "https://nodepression.org/through-the-lens-from-australia-to-pennsylvania-five-festivals-offered-a-variety-of-ways-to-explore-roots-music/"}, {"name": "Tehran, Tehran, Iran", "cc": "IR", "lat": 35.75, "lon": 51.515, "n": 34, "art": 213, "url": "https://www.eltiempo.com/colombia/otras-ciudades/un-nuevo-pulso-por-la-tierra-enfrenta-a-comunidades-de-taganga-y-palmor-con-pueblos-indigenas-de-la-sierra-nevada-de-santa-marta-3571179"}, {"name": "Colombia", "cc": "CO", "lat": 4.0, "lon": -72.0, "n": 16, "art": 77, "url": "https://www.pressherald.com/2026/07/14/armed-counter-protester-raises-tension-at-protest-at-scarborough-ice-facility/"}, {"name": "Mexico", "cc": "MX", "lat": 23.0, "lon": -102.0, "n": 12, "art": 109, "url": "https://www.yucatan.com.mx/merida/ciudadanos-merida/2026/07/14/pensionados-y-jubilados-exigen-en-merida-el-pago-de-las-seis-catorcenas-que-les-adeuda-el-cenace.html"}, {"name": "Togo", "cc": "TO", "lat": 8.0, "lon": 1.167, "n": 2, "art": 10, "url": "https://www.afriquesenlutte.org/afrique-de-l-ouest/togo/article/togo-l-action-du-peuple-ou"}, {"name": "Entebbe, Wakiso, Uganda", "cc": "UG", "lat": 0.064, "lon": 32.447, "n": 2, "art": 11, "url": "https://abc17news.com/news/national-world/cnn-world/2026/07/13/why-did-veterans-of-israels-most-famous-secret-operation-boycott-its-commemoration/"}, {"name": "Istanbul, Istanbul, Turkey", "cc": "TU", "lat": 41.019, "lon": 28.965, "n": 4, "art": 40, "url": "https://www.investimentosenoticias.com.br/noticias/politica/correspondente-da-bbc-news-e-deportado-da-turquia/"}, {"name": "Jerusalem, Israel (general), Israel", "cc": "IS", "lat": 31.767, "lon": 35.233, "n": 14, "art": 54, "url": "https://www.publico.es/internacional/casi-todos-grandes-museos-mundo-poseen-piezas-palestinas-excepcion-nuestro.html"}, {"name": "West Bank", "cc": "WE", "lat": 31.667, "lon": 35.25, "n": 2, "art": 4, "url": "https://nypost.com/2026/07/13/us-news/ro-khanna-idf-offer-step-by-step-war-of-words-on-west-bank-clash/"}, {"name": "Adelaide, South Australia, Australia", "cc": "AS", "lat": -34.933, "lon": 138.6, "n": 2, "art": 9, "url": "https://itwire.com/guest-articles/guest-opinion/how-small-business-owners-can-keep-pace-with-australias-changing-compliance-rules"}, {"name": "Seoul, Soul-t'ukpyolsi, South Korea", "cc": "KS", "lat": 37.566, "lon": 127.0, "n": 3, "art": 15, "url": "https://www.upi.com/Top_News/World-News/2026/07/13/Ahn-Gyu-back-Defense-Ministry-military-service/1421783986795/"}, {"name": "Argentina", "cc": "AR", "lat": -34.0, "lon": -64.0, "n": 2, "art": 14, "url": "https://www.elesquiu.com/sociedad/2026/7/14/jubilados-autoconvocados-realizan-su-79-marcha-y-vuelven-a-reclamar-mejoras-previsionales-588928.html"}, {"name": "Bodegraven, Zuid-Holland, Netherlands", "cc": "NL", "lat": 52.086, "lon": 4.757, "n": 1, "art": 6, "url": "https://www.artnews.com/art-news/news/nazi-looted-painting-jacques-goudstikker-returned-1234792013/"}, {"name": "Oak Grove, Kentucky, United States", "cc": "US", "lat": 36.665, "lon": -87.443, "n": 1, "art": 4, "url": "https://standardbredcanada.ca/news/7-13-26/track-record-dame-frances-oak-grove-kyss.html"}, {"name": "Puebla, Puebla, Mexico", "cc": "MX", "lat": 19.05, "lon": -98.2, "n": 1, "art": 4, "url": "https://intoleranciadiario.com/articles/ciudad/2026/07/13/1055273-solo-14-afectados-por-el-diluvio-del-domingo-28-de-junio-hector-landero-camacho.html"}, {"name": "Shiv, Rajasthan, India", "cc": "IN", "lat": 26.183, "lon": 71.25, "n": 15, "art": 66, "url": "https://www.hindustantimes.com/india-news/abhijeet-dipke-thanks-uddhav-thackeray-for-supporting-cjp-sonam-wangchuk-in-protest-over-exam-paper-leaks-101784045646431.html"}, {"name": "Winnipeg, Manitoba, Canada", "cc": "CA", "lat": 49.883, "lon": -97.167, "n": 2, "art": 11, "url": "https://www.winnipegfreepress.com/breakingnews/2026/07/13/gun-owners-rally-at-city-hall-ahead-of-supreme-court-challenge"}, {"name": "Quebec, Quebec, Canada", "cc": "CA", "lat": 47.5, "lon": -72.0, "n": 6, "art": 40, "url": "https://calgaryherald.com:443/opinion/alberta-voices-your-thoughts-on-separation-for-tues-july-14"}, {"name": "Deir Abu Daif, West Bank (general), West Bank", "cc": "WE", "lat": 32.456, "lon": 35.362, "n": 1, "art": 2, "url": "https://imemc.org/article/jerusalem-israeli-authorities-force-a-palestinian-to-demolish-his-home/"}, {"name": "Kyiv, Kyyiv, Misto, Ukraine", "cc": "UP", "lat": 50.433, "lon": 30.517, "n": 5, "art": 22, "url": "https://euobserver.com/227816/russian-oil-industry-pushed-back-20-years-by-ukrainian-strikes-ukraine-battlefield-update-day-1602/"}, {"name": "Odesa, Odes'ka Oblast, Ukraine", "cc": "UP", "lat": 46.464, "lon": 30.739, "n": 3, "art": 5, "url": "https://www.theyeshivaworld.com/news/general/2574229/ukraine-and-9-other-countries-announce-coalition-to-protect-europe-from-ballistic-missiles.html"}, {"name": "Mataram, Nusa Tenggara Barat, Indonesia", "cc": "ID", "lat": -8.584, "lon": 116.116, "n": 1, "art": 10, "url": "https://www.liputan6.com/regional/read/8245617/pungli-sentra-kuliner-terbongkar-pejabat-di-surabaya-dicopot"}, {"name": "Johannesburg, Gauteng, South Africa", "cc": "SF", "lat": -26.2, "lon": 28.083, "n": 2, "art": 3, "url": "https://english.elpais.com/international/2026-07-13/south-africas-anti-immigrant-groups-move-from-ultimatums-to-door-to-door-threats.html"}, {"name": "Durban, KwaZulu-Natal, South Africa", "cc": "SF", "lat": -29.85, "lon": 31.017, "n": 5, "art": 27, "url": "https://isp.netscape.com:443/news/world/story/0001/20260713/2b167edb5c2805ef2243852d6c8eb969"}, {"name": "La Espriella, Nari\u00f1O, Colombia", "cc": "CO", "lat": 1.469, "lon": -78.643, "n": 1, "art": 5, "url": "https://english.elpais.com/international/2026-07-13/jose-manuel-restrepo-colombia-is-an-almost-unconditional-and-key-ally-for-the-us-to-achieve-its-goals-in-venezuela.html"}, {"name": "Dunnottar, Gauteng, South Africa", "cc": "SF", "lat": -26.346, "lon": 28.428, "n": 2, "art": 10, "url": "https://english.elpais.com/international/2026-07-13/south-africas-anti-immigrant-groups-move-from-ultimatums-to-door-to-door-threats.html"}, {"name": "Idaho, United States", "cc": "US", "lat": 44.239, "lon": -114.51, "n": 3, "art": 13, "url": "https://www.cachevalleydaily.com/news/semi-truck-crash-near-inkom-idaho-blocks-traffic-causes-major-delays/article_14f55ccb-fe79-4d62-9be3-997b277fa093.html"}, {"name": "India", "cc": "IN", "lat": 20.0, "lon": 77.0, "n": 7, "art": 38, "url": "https://www.breitbart.com/middle-east/2026/07/14/iran-launches-deadly-attacks-on-civilian-ships-killing-indian-crewman/"}, {"name": "Russia", "cc": "RS", "lat": 60.0, "lon": 100.0, "n": 12, "art": 69, "url": "https://pelop.gr/rosia-giati-logokrithike-to-ouranio-toxo-tou-bob-sfoungaraki/"}, {"name": "Jhapa, Nepal (general), Nepal", "cc": "NP", "lat": 26.485, "lon": 87.856, "n": 2, "art": 16, "url": "https://asianews.network/nepal-police-actions-against-gen-z-activists-raise-concerns-over-shrinking-space-for-dissent/"}, {"name": "Kathmandu, Bagmati, Nepal", "cc": "NP", "lat": 27.717, "lon": 85.317, "n": 8, "art": 34, "url": "https://www.livehindustan.com/national/top-news-14-july-2026-munir-army-unleashes-bloodshed-in-pok-taslima-nasrin-returning-kolkata-after-20-years-201784034513588.html"}, {"name": "Beijing, Beijing, China", "cc": "CH", "lat": 39.929, "lon": 116.388, "n": 5, "art": 29, "url": "https://english.news.cn/20260714/08ab685286024791923ce424a217b432/c.html"}, {"name": "Tokyo, Tokyo, Japan", "cc": "JA", "lat": 35.685, "lon": 139.751, "n": 6, "art": 26, "url": "https://www.kommersant.ru/doc/8814542"}, {"name": "Panaji, Goa, India", "cc": "IN", "lat": 15.483, "lon": 73.833, "n": 1, "art": 5, "url": "https://indianexpress.com/shorts/india/goa-mega-housing-project-protest-delhi-luxury-villas-plan-5-star-hotel-opposition-10785238/"}, {"name": "Kirtipur, Nepal (general), Nepal", "cc": "NP", "lat": 27.68, "lon": 85.275, "n": 2, "art": 16, "url": "https://asianews.network/nepals-homeless-children-endure-repeated-displacement-and-a-future-in-limbo/"}, {"name": "Ladakh, Jammu and Kashmir, India", "cc": "IN", "lat": 34.5, "lon": 77.5, "n": 12, "art": 35, "url": "https://www.nayaindia.com/news/zeenat-aman-comes-in-support-of-sonam-wangchuk-appeals-for-talks-with-the-center/519081.html"}, {"name": "Melbourne, Victoria, Australia", "cc": "AS", "lat": -37.817, "lon": 144.967, "n": 5, "art": 71, "url": "https://www.northweststar.com.au/story/9310809/teachers-to-walk-off-job-for-24-hours-amid-pay-dispute/"}, {"name": "Springfield, Ohio, United States", "cc": "US", "lat": 39.924, "lon": -83.809, "n": 1, "art": 6, "url": "https://www.fitsnews.com/2026/07/13/fitsforum-lindsey-graham-knew-better-on-immigration-his-successor-should-too/"}, {"name": "South Carolina, United States", "cc": "US", "lat": 33.819, "lon": -80.907, "n": 1, "art": 4, "url": "https://www.fitsnews.com/2026/07/13/fitsforum-lindsey-graham-knew-better-on-immigration-his-successor-should-too/"}, {"name": "South Korea", "cc": "KS", "lat": 37.0, "lon": 127.5, "n": 2, "art": 10, "url": "https://www.theborneopost.com/2026/07/14/international-art-camp-in-miri-hosts-25-artists/"}, {"name": "Pakistan", "cc": "PK", "lat": 30.0, "lon": 70.0, "n": 4, "art": 32, "url": "https://www.eltiempo.com/colombia/otras-ciudades/un-nuevo-pulso-por-la-tierra-enfrenta-a-comunidades-de-taganga-y-palmor-con-pueblos-indigenas-de-la-sierra-nevada-de-santa-marta-3571179"}, {"name": "Texas, United States", "cc": "US", "lat": 31.106, "lon": -97.647, "n": 4, "art": 30, "url": "https://www.executivebiz.com/articles/att-ericsson-5g-drone-detection-demo"}, {"name": "Balibo, East Timor (general), East Timor", "cc": "TT", "lat": -8.969, "lon": 125.041, "n": 1, "art": 10, "url": "https://kupang.tribunnews.com/provinsi-ntt/971766/lipsus-massa-teriak-pecat-anggota-dprd-ttu-pmkri-dan-gemma-tuntut-sikap-badan-kehormatan"}, {"name": "Kefamenanu, Nusa Tenggara Timur, Indonesia", "cc": "ID", "lat": -9.447, "lon": 124.478, "n": 1, "art": 10, "url": "https://kupang.tribunnews.com/provinsi-ntt/971766/lipsus-massa-teriak-pecat-anggota-dprd-ttu-pmkri-dan-gemma-tuntut-sikap-badan-kehormatan"}, {"name": "Hyderabad, Andhra Pradesh, India", "cc": "IN", "lat": 17.375, "lon": 78.474, "n": 3, "art": 14, "url": "https://www.siasat.com/hyderabad-nizamia-unani-students-protest-after-only-5-pass-exam-3507039/"}, {"name": "Telangana, Andhra Pradesh, India", "cc": "IN", "lat": 18.0, "lon": 79.5, "n": 3, "art": 13, "url": "http://www.indiagazette.com/news/279185460/mou-signed-between-telangana-govt-amazon-to-set-up-rest-stops-for-gig-workers"}, {"name": "Campbelltown, New South Wales, Australia", "cc": "AS", "lat": -34.067, "lon": 150.817, "n": 1, "art": 10, "url": "https://www.miragenews.com/campbelltown-man-hits-jackpot-2m-lotto-win-1709477/"}, {"name": "Puerto Rico, United States", "cc": "US", "lat": 18.277, "lon": -66.335, "n": 4, "art": 8, "url": "http://www.newarkpostonline.com/spotlight_delaware/delawares-medical-school-will-be-based-at-uds-willard-hall-education-building/article_56fa6d95-79f5-454b-b33a-71d3714d84af.html"}, {"name": "San Antonio, Texas, United States", "cc": "US", "lat": 29.424, "lon": -98.494, "n": 1, "art": 4, "url": "https://www.amren.com/news/2026/07/san-antonio-activist-groups-protest-fatal-ice-shooting-in-houston/"}, {"name": "Brazil", "cc": "BR", "lat": -10.0, "lon": -55.0, "n": 4, "art": 30, "url": "https://globorural.globo.com/biocombustiveis/noticia/2026/07/industria-de-biodiesel-comemora-veto-a-importacao.ghtml"}, {"name": "Sumatra, Indonesia (general), Indonesia", "cc": "ID", "lat": 0.0, "lon": 102.0, "n": 1, "art": 10, "url": "https://regional.kompas.com/read/2026/07/14/094709178/duduk-perkara-mahasiswa-uin-padang-mengaku-dijemput-paksa-usai-demo"}, {"name": "Berlin, Berlin, Germany", "cc": "GM", "lat": 52.517, "lon": 13.4, "n": 7, "art": 46, "url": "https://24tv.ua/geopolitics/ru/rossijane-trebujut-ot-putina-zhestokosti-intervju-s-piterom-dikinsonom_n3105600"}, {"name": "Sacramento, California, United States", "cc": "US", "lat": 38.582, "lon": -121.494, "n": 1, "art": 8, "url": "https://hanfordsentinel.com/business/kaiser-nurses-say-technology-is-making-their-jobs-and-patient-care-worse/article_d1d462e9-9b4f-4b45-8861-c04d6c106e45.html"}, {"name": "San Francisco, California, United States", "cc": "US", "lat": 37.775, "lon": -122.419, "n": 2, "art": 10, "url": "https://hanfordsentinel.com/business/kaiser-nurses-say-technology-is-making-their-jobs-and-patient-care-worse/article_d1d462e9-9b4f-4b45-8861-c04d6c106e45.html"}, {"name": "Budapest, Budapest, Hungary", "cc": "HU", "lat": 47.5, "lon": 19.083, "n": 6, "art": 31, "url": "https://www.theepochtimes.com/world/hungarys-parliament-passes-bill-to-remove-president-in-purge-of-orban-power-base-6061404"}, {"name": "Israel", "cc": "IS", "lat": 31.5, "lon": 34.75, "n": 20, "art": 112, "url": "https://www.clevelandjewishnews.com/jta/mamdani-sticks-with-morris-katz-adviser-who-worked-on-platner-campaign/article_0d2d7828-edf3-5041-ac84-848e590d4225.html"}, {"name": "Chicago, Illinois, United States", "cc": "US", "lat": 41.85, "lon": -87.65, "n": 5, "art": 29, "url": "https://english.elpais.com/usa/2026-07-14/how-many-people-have-been-killed-by-immigration-agents-gunfire-amid-trumps-crackdown.html"}, {"name": "Jaintia Hills, Meghalaya, India", "cc": "IN", "lat": 25.5, "lon": 92.25, "n": 1, "art": 10, "url": "https://theshillongtimes.com/2026/07/14/who-defines-the-jaintia-history-or-colonial-records/"}, {"name": "Kiev, Ukraine (general), Ukraine", "cc": "UP", "lat": 50.433, "lon": 30.517, "n": 2, "art": 18, "url": "https://24tv.ua/geopolitics/ru/rossijane-trebujut-ot-putina-zhestokosti-intervju-s-piterom-dikinsonom_n3105600"}, {"name": "Lithuania", "cc": "LH", "lat": 56.0, "lon": 24.0, "n": 1, "art": 10, "url": "https://diena.lv/raksts/latvija/zinas-71/aizvien-iedzinejos-kaiminiem"}, {"name": "Congo", "cc": "CF", "lat": -1.0, "lon": 15.0, "n": 1, "art": 10, "url": "https://www.2news.com/news/national/workers-at-an-ebola-treatment-center-in-congo-strike-over-unpaid-salaries-and-bonuses/article_bc3d6d20-443d-52ae-923d-61198e075280.html"}, {"name": "Lagos, Lagos, Nigeria", "cc": "NI", "lat": 6.453, "lon": 3.396, "n": 7, "art": 45, "url": "https://allafrica.com/stories/202607140518.html"}, {"name": "Rome, Lazio, Italy", "cc": "IT", "lat": 41.9, "lon": 12.483, "n": 7, "art": 32, "url": "https://roma.corriere.it/notizie/cronaca/26_luglio_14/due-volumi-rubati-dai-nazisti-tornano-in-italia-riapparsi-in-una-casa-d-aste-di-new-york-e-recuperati-grazie-a-rapporti-555ad8e4-6663-4c1a-bcc6-f89c8aeb1xlk.shtml"}, {"name": "Sanaa, San\u0091a', Yemen", "cc": "YM", "lat": 15.355, "lon": 44.207, "n": 3, "art": 25, "url": "https://tribune.com.pk/story/2618156/pakistan-reaffirms-support-for-saudi-arabia-at-un-condemns-houthi-attacks"}, {"name": "Egypt", "cc": "EG", "lat": 27.0, "lon": 30.0, "n": 4, "art": 32, "url": "https://www.africa-newsroom.com/press/egypt-president-elsisi-pays-a-fraternal-visit-to-the-kingdom-of-bahrain"}, {"name": "Hindustan, India (general), India", "cc": "IN", "lat": 28.0, "lon": 76.0, "n": 3, "art": 10, "url": "https://www.livehindustan.com/uttar-pradesh/mp-priya-saroj-met-sonam-wangchuk-after-the-akhilesh-yadav-tweet-cockroach-janta-party-thanked-samajwadi-party-201784047835333.html"}, {"name": "Edinburgh, Edinburgh, City of, United Kingdom", "cc": "UK", "lat": 55.95, "lon": -3.2, "n": 2, "art": 12, "url": "https://www.laregione.ch/culture/musica/1938114/tattoo-basel-edizione-anni-bande-guardie-percussioni-compie"}, {"name": "Trinidad And Tobago", "cc": "TD", "lat": 11.0, "lon": -61.0, "n": 1, "art": 9, "url": "https://www.fox4news.com/news/state-report-details-cause-trinidad-water-issues"}, {"name": "Tadjourah, Tadjourah, Djibouti", "cc": "DJ", "lat": 12.0, "lon": 42.5, "n": 1, "art": 10, "url": "https://www.afriquesenlutte.org/afrique-de-l-est/djibouti/article/kidnapping-et-sequestration-d-un-opposant-a-djibouti"}, {"name": "Australia", "cc": "AS", "lat": -25.0, "lon": 135.0, "n": 1, "art": 2, "url": "https://dailypakistan.pk/%D8%A2%D8%B3%D9%B9%D8%B1%DB%8C%D9%84%DB%8C%D8%A7-%D9%85%DB%8C%DA%BA-%D9%85%D9%88%D8%AF%DB%8C-%DA%A9%DB%8C-%D8%A2%D9%85%D8%AF-%D9%BE%D8%B1-%D8%A7%D8%AD%D8%AA%D8%AC%D8%A7%D8%AC-%D9%88-%D9%86%D8%B9%D8%B1/"}, {"name": "New Delhi, Delhi, India", "cc": "IN", "lat": 28.6, "lon": 77.2, "n": 35, "art": 141, "url": "https://theindianawaaz.com/india-closely-following-developments-in-west-asia-mea/"}, {"name": "Saudi Arabia", "cc": "SA", "lat": 25.0, "lon": 45.0, "n": 3, "art": 30, "url": "https://www.fj-p.com/431298/%D8%AB%D9%86%D8%A7%D8%A6%D9%8A%D8%A9-%D8%A7%D9%84%D9%85%D8%AE%D8%A7%D8%A8%D8%B1%D8%A7%D8%AA-%D9%88%D9%88%D9%87%D9%85-%D8%A7%D9%84%D9%85%D9%81%D9%83%D8%B1-%D8%B9%D8%B8%D8%B8%D8%B8%D9%8A/"}, {"name": "Redding, California, United States", "cc": "US", "lat": 40.587, "lon": -122.392, "n": 1, "art": 6, "url": "https://krcrtv.com/news/local/seniors-picking-sides-around-attempted-bylaw-changes-to-redding-senior-center"}, {"name": "Greece", "cc": "GR", "lat": 39.0, "lon": 22.0, "n": 3, "art": 24, "url": "https://news.makedonias.gr/2026/07/2193039/"}, {"name": "Riyadh, Ar Riya?, Saudi Arabia", "cc": "SA", "lat": 24.641, "lon": 46.773, "n": 1, "art": 10, "url": "https://www.mzamin.com/article/28247"}, {"name": "Los Angeles, California, United States", "cc": "US", "lat": 34.052, "lon": -118.244, "n": 1, "art": 4, "url": "https://abc7.com/post/inside-cheech-marin-center-chicano-art-culture-where-stars-collection-tells-decades-stories/19502688/"}, {"name": "Echo Park, California, United States", "cc": "US", "lat": 34.09, "lon": -118.259, "n": 1, "art": 6, "url": "https://abc7.com/post/inside-cheech-marin-center-chicano-art-culture-where-stars-collection-tells-decades-stories/19502688/"}, {"name": "China Sea, Brunei (general), Brunei", "cc": "BX", "lat": 15.0, "lon": 115.0, "n": 2, "art": 4, "url": "https://www.71sangbad.com/news/153982"}, {"name": "Cuba", "cc": "CU", "lat": 22.0, "lon": -79.5, "n": 5, "art": 42, "url": "https://www.14ymedio.com/cuba/miedo-digo-pienso_1_1128777.html"}, {"name": "Houston, Texas, United States", "cc": "US", "lat": 29.763, "lon": -95.363, "n": 7, "art": 32, "url": "https://www.nola.com/news/trump-ice-stops-suspended/article_528c34fb-8cb5-4d92-a92e-5b50c325f101.html"}, {"name": "Herat, Herat, Afghanistan", "cc": "AF", "lat": 34.348, "lon": 62.2, "n": 1, "art": 5, "url": "https://www.dawn.com/news/2015268/taliban-defend-dress-code-crackdown-on-women"}, {"name": "Athens, Attik\u00edR, Greece", "cc": "GR", "lat": 37.983, "lon": 23.733, "n": 6, "art": 52, "url": "https://www.ancient-origins.net/news-history-archaeology/rutland-mosaic-00102360"}, {"name": "Yuen Long, Hong Kong (general), Hong Kong", "cc": "HK", "lat": 22.433, "lon": 114.033, "n": 2, "art": 3, "url": "https://businessdayghana.com/hkstp-park-company-wins-2nd-runner-up-in-rocket-fuel-east-startup-competition/"}, {"name": "Bhopal, Madhya Pradesh, India", "cc": "IN", "lat": 23.267, "lon": 77.4, "n": 2, "art": 10, "url": "https://aninews.in/news/national/general-news/mp-congress-begins-gen-z-cyclothon-yatra-from-indore-jitu-patwari-flags-off-march-against-alleged-exam-irregularities20260714112613/"}, {"name": "Ashta, Maharashtra, India", "cc": "IN", "lat": 16.95, "lon": 74.4, "n": 3, "art": 5, "url": "https://aninews.in/news/national/general-news/mp-congress-begins-gen-z-cyclothon-yatra-from-indore-jitu-patwari-flags-off-march-against-alleged-exam-irregularities20260714112613/"}, {"name": "Otukpo, Cross River, Nigeria", "cc": "NI", "lat": 6.815, "lon": 8.653, "n": 1, "art": 2, "url": "https://allafrica.com/stories/202607140040.html"}, {"name": "Akash, Balochistan, Pakistan", "cc": "PK", "lat": 29.657, "lon": 65.792, "n": 1, "art": 2, "url": "https://dunyanews.tv/en/Crime/962508-karachi-doctor-shot-dead-during-robbery-rs25m-looted"}, {"name": "Karachi, Sindh, Pakistan", "cc": "PK", "lat": 24.867, "lon": 67.05, "n": 2, "art": 5, "url": "https://dunyanews.tv/en/Crime/962508-karachi-doctor-shot-dead-during-robbery-rs25m-looted"}, {"name": "Kolkata, West Bengal, India", "cc": "IN", "lat": 22.57, "lon": 88.37, "n": 10, "art": 62, "url": "https://timesofindia.indiatimes.com/city/kolkata/tmc-rejects-police-alternatives-for-july-21-rally-venue/articleshow/132397535.cms"}, {"name": "Romania", "cc": "RO", "lat": 46.0, "lon": 25.0, "n": 6, "art": 40, "url": "https://humanevents.com/2026/07/14/swedish-government-faces-protest-outside-dc-embassy-over-removal-of-christian-familys-daughters-due-to-religious-extremism"}, {"name": "Monash, South Australia, Australia", "cc": "AS", "lat": -34.233, "lon": 140.567, "n": 3, "art": 20, "url": "https://www.dailymail.com/news/article-15972675/monash-health-worker-unfair-dismissal-adhd-anxiety-fair-work.html"}, {"name": "Hong Kong", "cc": "HK", "lat": 22.25, "lon": 114.167, "n": 1, "art": 2, "url": "https://livenews.co.nz/2026/07/14/hkstp-park-company-wins-2nd-runner-up-in-rocket-fuel-east-startup-competition/"}, {"name": "London, London, City of, United Kingdom", "cc": "UK", "lat": 51.5, "lon": -0.117, "n": 10, "art": 44, "url": "https://www.ntvbd.com/bangladesh/news-1771605"}, {"name": "Yobe, Yobe, Nigeria", "cc": "NI", "lat": 12.0, "lon": 11.5, "n": 4, "art": 10, "url": "https://punchng.com/vc-lauds-yobe-gov-for-implementing-2025-asuu-fg-agreement/"}, {"name": "Chad", "cc": "CD", "lat": 15.0, "lon": 19.0, "n": 1, "art": 10, "url": "https://www2.fundsforngos.org/community-development-2/rfps-community-engagement-for-inclusive-education-initiative-chad/"}, {"name": "Kentucky, United States", "cc": "US", "lat": 37.669, "lon": -84.651, "n": 2, "art": 8, "url": "https://freerepublic.com/focus/f-chat/4387859/posts"}, {"name": "Warsaw, (PL67), Poland", "cc": "PL", "lat": 52.25, "lon": 21.0, "n": 3, "art": 22, "url": "https://www.pudelek.pl/zapytalismy-polakow-o-powrot-michala-wisniewskiego-do-mandaryny-i-jego-zwiazki-dlaczego-z-kazda-musi-sie-zenic-wideo-7307435323621953v"}, {"name": "Gyeonggi, Kyonggi-do, South Korea", "cc": "KS", "lat": 37.6, "lon": 127.25, "n": 1, "art": 10, "url": "https://www.koreaherald.com/article/10808368"}, {"name": "Monte Carlo, Monaco (general), Monaco", "cc": "MN", "lat": 43.739, "lon": 7.427, "n": 1, "art": 10, "url": "https://www.nicematin.com/culture/arts/pourquoi-des-origamis-geants-se-sont-ils-empares-de-la-place-du-casino-a-monaco-10689016"}, {"name": "Mumbai, Maharashtra, India", "cc": "IN", "lat": 18.975, "lon": 72.826, "n": 6, "art": 41, "url": "https://www.ibtimes.co.in/marrying-non-muslim-against-sharia-fatwa-issued-against-aamir-khan-over-marriage-gauri-spratt-903866"}, {"name": "Nukus, Qoraqalpog iston, Uzbekistan", "cc": "UZ", "lat": 42.453, "lon": 59.61, "n": 4, "art": 10, "url": "https://www.dailystar.co.uk/news/world-news/gruesome-final-moments-house-torture-37415996"}, {"name": "Kantipur, Bagmati, Nepal", "cc": "NP", "lat": 27.717, "lon": 85.317, "n": 1, "art": 2, "url": "https://www.moneycontrol.com/world/gen-z-backed-nepal-pm-balen-shah-faces-protests-as-youth-dies-after-setting-himself-on-fire-article-13973305.html"}, {"name": "Sweden", "cc": "SW", "lat": 62.0, "lon": 15.0, "n": 10, "art": 88, "url": "https://www.teletica.com/politica/sindicatos-convocan-a-protesta-para-exigir-al-gobierno-nombrar-representantes-en-ccss_413464"}, {"name": "Albania", "cc": "AL", "lat": 41.0, "lon": 20.0, "n": 4, "art": 36, "url": "https://www.mersinhaber.com/haber-brukselde-ab-komisyonu-uyesi-kos-sirp-bakana-tepki-gosterdi/703540"}, {"name": "Surat, Gujarat, India", "cc": "IN", "lat": 20.967, "lon": 72.9, "n": 1, "art": 2, "url": "https://www.sarayanews.com/article/1093520/%D8%AA%D9%81%D8%B3%D9%8A%D8%B1-%D8%B1%D8%A4%D9%8A%D8%A9-%D8%A7%D9%84%D8%AE%D9%85%D8%B1-%D9%81%D9%8A-%D8%A7%D9%84%D9%85%D9%86%D8%A7%D9%85"}, {"name": "Saraya, Uttar Pradesh, India", "cc": "IN", "lat": 26.083, "lon": 83.783, "n": 1, "art": 4, "url": "https://www.sarayanews.com/article/1093520/%D8%AA%D9%81%D8%B3%D9%8A%D8%B1-%D8%B1%D8%A4%D9%8A%D8%A9-%D8%A7%D9%84%D8%AE%D9%85%D8%B1-%D9%81%D9%8A-%D8%A7%D9%84%D9%85%D9%86%D8%A7%D9%85"}, {"name": "Coruna, Coahuila de Zaragoza, Mexico", "cc": "MX", "lat": 25.867, "lon": -103.3, "n": 1, "art": 6, "url": "https://xornalgalicia.com/actualidad/incendios/feijoo-el-silenciador-incendiario-13-anos-de-gestion-que-convirtieron-galicia-en-un-infierno-en-llamas-muerte-y-desolacion-por-debajo-de-la-publicidad-institucional"}, {"name": "Shi Yong, Sichuan, China", "cc": "CH", "lat": 30.299, "lon": 107.1, "n": 2, "art": 4, "url": "http://www.china.org.cn/2026-07/14/content_118598547.shtml"}, {"name": "Aveyron, Centre, France", "cc": "FR", "lat": 47.88, "lon": 2.822, "n": 1, "art": 10, "url": "https://www.centrepresseaveyron.fr/2026/07/14/les-mini-quines-dapf-france-handicap-aveyron-figurent-parmi-les-laureats-des-trophees-de-la-solidarite-decernes-par-le-departement-13467253.php"}, {"name": "Calcutta, West Bengal, India", "cc": "IN", "lat": 22.57, "lon": 88.37, "n": 1, "art": 1, "url": "https://scroll.in/article/1094026/from-the-biography-how-the-scientist-in-jagadish-chandra-bose-kept-him-from-inventing-the-radio"}, {"name": "Ireland", "cc": "EI", "lat": 53.0, "lon": -8.0, "n": 3, "art": 4, "url": "https://www.newsday.com/real-estate/amityville-m7zoiiz7"}, {"name": "Tampines, Singapore (general), Singapore", "cc": "SN", "lat": 1.349, "lon": 103.95, "n": 1, "art": 10, "url": "https://www.manilatimes.net/2026/07/14/tmt-newswire/pr-newswire/a-bowl-of-chongqing-noodles-lights-up-singapores-mrt-xiao-noodles-opens-second-outlet-in-singapore-showcasing-chinas-culinary-calling-card-to-the-world/2383834"}, {"name": "Coon Rapids, Iowa, United States", "cc": "US", "lat": 41.871, "lon": -94.677, "n": 1, "art": 2, "url": "https://carrollspaper.com/coon_rapids/coon-rapids-to-welcome-serenity-day-spa-with-ribbon-cutting-ceremony/article_1f59161a-ca7e-4031-9c3c-62502b3a3015.html"}, {"name": "China", "cc": "CH", "lat": 35.0, "lon": 105.0, "n": 5, "art": 26, "url": "https://finance.yahoo.com/markets/stocks/articles/bmws-u-business-delivering-matters-033300819.html"}, {"name": "France", "cc": "FR", "lat": 46.0, "lon": 2.0, "n": 6, "art": 42, "url": "https://sapo.pt/artigo/lohann-doucet-apresenta-se-aos-adeptos-nao-vou-poupar-esforcos-para-ajudar-o-v-guimaraes-6a5673711d56c7322a34ecbf"}, {"name": "Bucharest, Bucuresti, Romania", "cc": "RO", "lat": 44.433, "lon": 26.1, "n": 3, "art": 13, "url": "https://www.investegate.co.uk/announcement/rns/societatea-energetica-electrica-sa--elsa/gender-balance-reporting/9668431"}, {"name": "United Kingdom", "cc": "UK", "lat": 54.0, "lon": -4.0, "n": 16, "art": 75, "url": "https://www.gazetteherald.co.uk/news/26278894.york-barbican-show-best-mike-oldfield-2027/"}, {"name": "Rotherham, Rotherham, United Kingdom", "cc": "UK", "lat": 53.433, "lon": -1.35, "n": 1, "art": 10, "url": "https://www.skynews.com.au/world-news/united-kingdom/police-backtrack-on-former-uk-mp-ann-widdecombes-death-as-counter-terrorism-officers-take-over-probe/news-story/5abed83db60b0ff2f7a0a71978efd787?nk=96992674210004984d0a1674e30e0ef5-1784015207"}, {"name": "Shusha, Susa*, Azerbaijan", "cc": "AJ", "lat": 39.759, "lon": 46.749, "n": 1, "art": 10, "url": "https://news.az/news/president-aliyev-hails-successful-development-of-azerbaijan-slovakia-relations"}, {"name": "Baltimore, Maryland, United States", "cc": "US", "lat": 39.29, "lon": -76.612, "n": 1, "art": 2, "url": "https://www.medscape.com/viewarticle/getting-blood-ambulances-matters-trauma-cases-2026a1000np7"}, {"name": "Iraq", "cc": "IZ", "lat": 33.0, "lon": 44.0, "n": 7, "art": 78, "url": "https://g1.globo.com/mundo/noticia/2026/07/14/democratas-barram-projeto-de-r-515-trilhoes-ao-pentagono-em-protesto-contra-guerra-no-ira.ghtml"}, {"name": "Yiwu, Zhejiang, China", "cc": "CH", "lat": 30.14, "lon": 119.397, "n": 2, "art": 10, "url": "http://spanish.china.org.cn/txt/2026-07/13/content_118598420.htm"}, {"name": "Macedonia", "cc": "MK", "lat": 41.833, "lon": 22.0, "n": 1, "art": 10, "url": "https://www.voria.gr/article/thraskia-se-trohia-apaxiosis-kai-leitoyrgikis-katarreysis-ta-kep-tis-kentrikis-makedonias"}, {"name": "Tunisia", "cc": "TS", "lat": 34.0, "lon": 9.0, "n": 1, "art": 20, "url": "https://www.infovercelli24.it/2026/07/14/leggi-notizia/argomenti/cronaca-10/articolo/per-sei-ore-resta-arrampicato-sul-tetto-del-carcere.html"}, {"name": "Montana, United States", "cc": "US", "lat": 46.905, "lon": -110.326, "n": 1, "art": 10, "url": "https://www.rfj.ch/rfj/Actualite/Culture/Yann-Arthus-Bertrand-se-lance-dans-un-projet-a-Crans-Montana.html"}, {"name": "Huazhong, Hubei, China", "cc": "CH", "lat": 31.7, "lon": 111.667, "n": 1, "art": 10, "url": "https://www.sciencealert.com/blocking-one-protein-kept-aging-ovaries-soft-in-mice-extending-fertility"}, {"name": "Monaco", "cc": "MN", "lat": 43.733, "lon": 7.4, "n": 1, "art": 10, "url": "https://www.caradisiac.com/alonso-a-effectivement-craque-pour-une-bugatti-eb110-gt-223065.htm"}, {"name": "Swindon, Swindon, United Kingdom", "cc": "UK", "lat": 51.517, "lon": -1.783, "n": 3, "art": 10, "url": "https://www.swindonadvertiser.co.uk/news/26275411.swindon-trying-2029-uk-city-culture-title/"}, {"name": "Barcelona, Comunidad Autonoma de Cataluna, Spain", "cc": "SP", "lat": 41.383, "lon": 2.183, "n": 1, "art": 10, "url": "http://www.elpuntavui.cat/societat/article/5-societat/2659090-convoquen-mobilitzacions-contra-la-visita-de-felip-vi-a-catalunya.html"}, {"name": "Depok, Jawa Barat, Indonesia", "cc": "ID", "lat": -6.4, "lon": 106.819, "n": 3, "art": 18, "url": "https://wartakota.tribunnews.com/depok/895299/7-bulan-gaji-tak-dibayar-karyawan-hotel-bumi-wiyata-depok-kepung-jalan-margonda-ini-kata-disnaker"}, {"name": "Ghana", "cc": "GH", "lat": 8.0, "lon": -2.0, "n": 1, "art": 2, "url": "http://www.businessghana.com/site/news/Entertainment/352001/Dosted-Gennah-flies-Ghana"}, {"name": "Mozambique", "cc": "MZ", "lat": -18.25, "lon": 35.0, "n": 1, "art": 3, "url": "https://mg.co.za/thought-leader/2026-07-14-white-foreigners-arrive-black-africans-flood/"}, {"name": "Zagreb, Zagreb, Grad, Croatia", "cc": "HR", "lat": 45.8, "lon": 16.0, "n": 1, "art": 10, "url": "https://naslovi.net/2026-07-14/radio-021/mestani-nestina-i-vizica-do-daljeg-blokirali-put-zbog-problema-sa-prelaskom-granice-sa-hrvatskom/42085042"}, {"name": "Sazan, Vlore, Albania", "cc": "AL", "lat": 40.492, "lon": 19.275, "n": 1, "art": 6, "url": "https://voiceofvienna.org/protests-erupt-in-albania-over-kushner-linked-luxury-project/"}, {"name": "Japan", "cc": "JA", "lat": 36.0, "lon": 138.0, "n": 4, "art": 24, "url": "https://www.finanznachrichten.de/nachrichten-2026-07/69023912-delveinsight-business-research-llp-alport-syndrome-market-to-grow-at-a-tremendous-47-cagr-through-2036-driven-by-emerging-therapies-and-expanding-008.htm"}, {"name": "Kwara, Zamfara, Nigeria", "cc": "NI", "lat": 12.334, "lon": 6.285, "n": 1, "art": 2, "url": "https://theeagleonline.com.ng/the-goodluck-of-the-people-of-oriire-by-reuben-abati/"}, {"name": "Umuahia, Abia, Nigeria", "cc": "NI", "lat": 5.526, "lon": 7.49, "n": 2, "art": 10, "url": "https://theeagleonline.com.ng/sgbv-abia-secures-convictions-of-two-child-molesters/"}, {"name": "Orissa, Orissa, India", "cc": "IN", "lat": 20.5, "lon": 84.417, "n": 2, "art": 8, "url": "https://www.orissapost.com/cjp-protest-day-25-sonam-wangchuk-refuses-to-end-hunger-strike-despite-health-concerns/"}, {"name": "Kashmir, North-West Frontier, Pakistan", "cc": "PK", "lat": 34.796, "lon": 72.15, "n": 5, "art": 11, "url": "https://www.oneindia.com/international/international-community-must-hold-pakistan-accountable-india-slams-crackdown-on-pok-protesters-8146149.html"}, {"name": "Turkey", "cc": "TU", "lat": 39.059, "lon": 34.912, "n": 2, "art": 20, "url": "https://insurgente.org/nikos-mottas-si-el-comunismo-esta-muerto-por-que-trump-sigue-combatiendolo/"}, {"name": "Ukraine", "cc": "UP", "lat": 49.0, "lon": 32.0, "n": 12, "art": 78, "url": "https://www.eurointegration.com.ua/news/2026/07/14/7241605/"}, {"name": "Guwahati, Assam, India", "cc": "IN", "lat": 26.183, "lon": 91.733, "n": 1, "art": 4, "url": "https://www.sentinelassam.com/breakingnews/dont-let-phunsukh-wangdu-die-omi-vaidya-backs-sonam-wangchuk-as-hunger-strike-enters-17th-day"}, {"name": "Donbas, Ukraine (general), Ukraine", "cc": "UP", "lat": 48.5, "lon": 38.5, "n": 1, "art": 1, "url": "https://warontherocks.com/a-return-to-mass-russian-force-expansion-in-the-war-with-ukraine/"}, {"name": "Kharkiv, Kharkivs'ka Oblast', Ukraine", "cc": "UP", "lat": 49.981, "lon": 36.253, "n": 1, "art": 1, "url": "https://warontherocks.com/a-return-to-mass-russian-force-expansion-in-the-war-with-ukraine/"}, {"name": "Milan, Lombardia, Italy", "cc": "IT", "lat": 45.467, "lon": 9.2, "n": 8, "art": 64, "url": "https://www.zazoom.it/2026-07-14/caldo-e-paghe-da-fame-oggi-sciopero-dei-rider-in-tutta-italia/19461275/"}, {"name": "Germany", "cc": "GM", "lat": 51.5, "lon": 10.5, "n": 6, "art": 62, "url": "https://www.inewsgr.com/27/seismos-62-richter-chtypise-tis-filippines--stous-dromous-oi-katoikoi.htm"}, {"name": "Chevella, Andhra Pradesh, India", "cc": "IN", "lat": 17.307, "lon": 78.135, "n": 1, "art": 10, "url": "https://www.deccanchronicle.com/southern-states/telangana/students-protest-at-patnam-mahender-reddy-medical-college-1970807"}, {"name": "Uttarakhand, Uttaranchal, India", "cc": "IN", "lat": 30.25, "lon": 79.25, "n": 4, "art": 11, "url": "https://economictimes.indiatimes.com/news/politics-and-nation/karnataka-youth-congress-protests-in-ballari-demands-dharmendra-pradhans-resignation-over-neet-issues/articleshow/132387340.cms"}, {"name": "Dehradun, Uttaranchal, India", "cc": "IN", "lat": 30.317, "lon": 78.033, "n": 4, "art": 15, "url": "https://aninews.in/news/national/general-news/karnataka-youth-congress-protests-in-ballari-demands-dharmendra-pradhans-resignation-over-neet-issues20260714145723/"}, {"name": "Slovak Republic", "cc": "LO", "lat": 48.667, "lon": 19.5, "n": 2, "art": 20, "url": "https://confirmado.com.ve/orlando-viera-blanco-fabricantes-de-luz-vaclav-havel-ii/"}, {"name": "Ballari, Karnataka, India", "cc": "IN", "lat": 15.15, "lon": 76.933, "n": 4, "art": 15, "url": "https://economictimes.indiatimes.com/news/politics-and-nation/karnataka-youth-congress-protests-in-ballari-demands-dharmendra-pradhans-resignation-over-neet-issues/articleshow/132387340.cms"}, {"name": "Serbia", "cc": "RI", "lat": 44.0, "lon": 21.0, "n": 5, "art": 34, "url": "https://www.mersinhaber.com/haber-brukselde-ab-komisyonu-uyesi-kos-sirp-bakana-tepki-gosterdi/703540"}, {"name": "Nyandarua, Central, Kenya", "cc": "KE", "lat": -0.628, "lon": 36.708, "n": 1, "art": 5, "url": "https://www.the-star.co.ke/news/2026-07-14-iebc-no-taking-photos-of-marked-ballots-in-ol-kalou"}, {"name": "Perth, Western Australia, Australia", "cc": "AS", "lat": -31.933, "lon": 115.833, "n": 3, "art": 20, "url": "https://unitedwithisrael.org/study-reveals-medical-neglect-harassment-of-jews-in-australian-hospitals/"}, {"name": "Bandung, Jawa Barat, Indonesia", "cc": "ID", "lat": -6.904, "lon": 107.619, "n": 1, "art": 10, "url": "https://www.liputan6.com/regional/read/8246150/31-saksi-diperiksa-ini-alasan-berkas-taufik-hidayat-belum-dilimpahkan"}, {"name": "Bondi Beach, New South Wales, Australia", "cc": "AS", "lat": -33.89, "lon": 151.276, "n": 1, "art": 6, "url": "https://www.dailymail.com/news/article-15975365/far-right-tradie-threats-albanese-burke-nazi-sydney-sentencing.html"}, {"name": "Canberra, Australian Capital Territory, Australia", "cc": "AS", "lat": -35.283, "lon": 149.217, "n": 2, "art": 6, "url": "https://www.enn.com/articles/78158-plants-switch-immediately-under-high-light"}, {"name": "Wexford County, Michigan, United States", "cc": "US", "lat": 44.333, "lon": -85.567, "n": 1, "art": 1, "url": "https://www.cadillacnews.com/news/wexford-co-man-convicted-of-first-degree-csc-against-minor/article_272c624b-9882-496e-98d0-a0ffaea8ef1c.html"}, {"name": "Michigan, United States", "cc": "US", "lat": 43.35, "lon": -84.56, "n": 2, "art": 9, "url": "https://www.renewamerica.com/columns/kincaid/260714"}, {"name": "Qatar", "cc": "QA", "lat": 25.5, "lon": 51.25, "n": 3, "art": 8, "url": "https://www.wnmufm.org/2026-07-14/the-u-s-is-set-to-reinstate-a-blockade-over-the-strait-of-hormuz"}, {"name": "Santo Andre, S\u00e3Paulo, Brazil", "cc": "BR", "lat": -23.667, "lon": -46.517, "n": 2, "art": 10, "url": "https://www1.folha.uol.com.br/cotidiano/2026/07/moradores-protestam-contra-acoes-da-policia-em-heliopolis-zona-sul-de-sp.shtml"}, {"name": "Moscow, Moskva, Russia", "cc": "RS", "lat": 55.752, "lon": 37.616, "n": 5, "art": 35, "url": "https://24tv.ua/geopolitics/ru/rossijane-trebujut-ot-putina-zhestokosti-intervju-s-piterom-dikinsonom_n3105600"}, {"name": "Crimea, Krym, Avtonomna Respublika, Ukraine", "cc": "UP", "lat": 45.0, "lon": 34.0, "n": 1, "art": 10, "url": "https://mkd.mk/svet/ukraina-pogodi-dve-ruski-rafinerii-za-nafta-vo-bashkortostan-i-krasnodar/"}, {"name": "Vienna, Wien, Austria", "cc": "AU", "lat": 48.2, "lon": 16.367, "n": 2, "art": 4, "url": "https://ejewishphilanthropy.com/in-his-final-term-as-wjc-president-ronald-lauder-looks-for-the-next-generation-to-step-up/"}, {"name": "Manhattan, New York, United States", "cc": "US", "lat": 40.783, "lon": -73.966, "n": 1, "art": 1, "url": "https://ejewishphilanthropy.com/in-his-final-term-as-wjc-president-ronald-lauder-looks-for-the-next-generation-to-step-up/"}, {"name": "Dhaka, Dhaka, Bangladesh", "cc": "BG", "lat": 23.723, "lon": 90.409, "n": 8, "art": 45, "url": "https://navbharattimes.indiatimes.com/world/asian-countries/tariq-rehman-advisor-on-sheikh-hasina-bangladesh-return-announcement-says-we-want-to-ensure-justice/articleshow/132395358.cms"}, {"name": "Narayanganj, Dhaka, Bangladesh", "cc": "BG", "lat": 23.623, "lon": 90.501, "n": 3, "art": 15, "url": "https://www.thedailystar.net/news/bangladesh/news/hsc-examinees-block-science-lab-demand-education-ministers-resignation-4223491"}, {"name": "Venezuela", "cc": "VE", "lat": 8.0, "lon": -66.0, "n": 1, "art": 10, "url": "https://www.channelstv.com/2026/07/14/illegal-mining-imo-community-protests-environmental-degradation-insecurity/"}, {"name": "Kandirpar, Bangladesh (general), Bangladesh", "cc": "BG", "lat": 23.3, "lon": 90.933, "n": 2, "art": 8, "url": "https://www.thedailystar.net/news/bangladesh/news/hsc-examinees-block-science-lab-demand-education-ministers-resignation-4223491"}, {"name": "Philippines", "cc": "RP", "lat": 13.0, "lon": 122.0, "n": 1, "art": 10, "url": "https://www.freemalaysiatoday.com/category/world/2026/07/14/aseans-envoy-meets-myanmars-opposition-groups-in-thailand"}, {"name": "Ho Chi Minh City, H? Ch\u00edinh, Vietnam, Republic Of", "cc": "VM", "lat": 10.75, "lon": 106.667, "n": 2, "art": 7, "url": "https://vir.com.vn/vietnam-and-italy-unlock-new-momentum-for-bilateral-trade-and-investment-156503.html"}, {"name": "Lebanon", "cc": "LE", "lat": 33.833, "lon": 35.833, "n": 1, "art": 10, "url": "https://www.ynet.co.il/news/article/bkelodqvgx"}, {"name": "Uttar Pradesh, Uttar Pradesh, India", "cc": "IN", "lat": 27.25, "lon": 80.75, "n": 3, "art": 22, "url": "https://www.mainstreamweekly.net/article16829.html"}, {"name": "Debrecen, Debrecen, Hungary", "cc": "HU", "lat": 47.533, "lon": 21.633, "n": 2, "art": 10, "url": "https://hungarytoday.hu/why-german-manufacturers-prefer-hungary/"}, {"name": "Zimbabwe", "cc": "ZI", "lat": -19.0, "lon": 29.0, "n": 1, "art": 10, "url": "https://southernafricatrust.org/civic-intelligence-action-research/"}, {"name": "La Razon, Chiapas, Mexico", "cc": "MX", "lat": 16.583, "lon": -93.867, "n": 1, "art": 10, "url": "https://www.razon.com.mx:443/mexico/2026/07/14/de-origen-mexicano-la-mitad-de-menores-gaseados-por-ice/"}, {"name": "Myliddy, Northern, Sri Lanka", "cc": "CE", "lat": 9.8, "lon": 80.05, "n": 7, "art": 11, "url": "https://www.tamilguardian.com/content/valikamam-north-protesters-continue-demonstration-scorching-sun-after-police-block-shelter"}, {"name": "Algeria", "cc": "AG", "lat": 28.0, "lon": 3.0, "n": 2, "art": 10, "url": "https://www.news-medical.net/news/20260714/WHO-validates-El-Salvador-for-eliminating-trachoma-as-public-health-problem.aspx"}, {"name": "Asabri, Jawa Timur, Indonesia", "cc": "ID", "lat": -7.636, "lon": 111.327, "n": 1, "art": 10, "url": "https://www.tribunnews.com/nasional/7854147/bawa-mawar-putih-hingga-poster-mahasiswa-ugm-desak-kasus-eks-jampidsus-febrie-dilimpahkan-ke-kpk"}, {"name": "Madrid, Madrid, Spain", "cc": "SP", "lat": 40.4, "lon": -3.683, "n": 1, "art": 10, "url": "https://www.wprost.pl/swiat/12386535/netflix-przypomina-historie-miguela-angela-blanco-jego-smierc-zmienila-hiszpanie.html"}, {"name": "Margibi County, Margibi, Liberia", "cc": "LI", "lat": 6.5, "lon": -10.25, "n": 1, "art": 5, "url": "https://allafrica.com/stories/202607140290.html"}, {"name": "South Africa", "cc": "SF", "lat": -30.0, "lon": 26.0, "n": 6, "art": 15, "url": "https://morningstaronline.co.uk/article/world-brief-july-14-2026"}, {"name": "Vancouver, British Columbia, Canada", "cc": "CA", "lat": 49.25, "lon": -123.133, "n": 1, "art": 8, "url": "https://www.nextbigfuture.com/2026/07/greenhat-announces-successful-delegation-at-web-summit-vancouver-2026.html"}, {"name": "Suakoko, Bong, Liberia", "cc": "LI", "lat": 6.989, "lon": -9.581, "n": 4, "art": 16, "url": "https://allafrica.com/stories/202607140261.html"}, {"name": "Phebe Hospital, Bong, Liberia", "cc": "LI", "lat": 7.033, "lon": -9.55, "n": 2, "art": 4, "url": "https://allafrica.com/stories/202607140261.html"}, {"name": "Muzaffarabad, Punjab, Pakistan", "cc": "PK", "lat": 30.134, "lon": 71.368, "n": 6, "art": 31, "url": "https://www.newkerala.com/news/a/hundreds-school-children-pok-protest-against-pakistani-militarys-578.htm"}, {"name": "Tennessee, United States", "cc": "US", "lat": 35.745, "lon": -86.749, "n": 2, "art": 4, "url": "https://www.walesonline.co.uk/news/wales-news/fbi-track-down-welsh-man-34285301"}, {"name": "Genoa, Liguria, Italy", "cc": "IT", "lat": 44.417, "lon": 8.95, "n": 1, "art": 10, "url": "https://lespresso.it/c/attualita/2026/7/14/genova-assemblea-nazionale-no-kings-quando-manifestazione-g8/63335"}, {"name": "Orenburg, Orenburgskaya Oblast', Russia", "cc": "RS", "lat": 51.773, "lon": 55.099, "n": 1, "art": 10, "url": "https://ria56.ru/posts/leto-v-orenburzhe-top%E2%80%915-besplatnyx-i-pochti-besplatnyx-idej-kuda-sxodit-s-semyoj.htm"}, {"name": "Manchester, Manchester, United Kingdom", "cc": "UK", "lat": 53.5, "lon": -2.217, "n": 1, "art": 5, "url": "https://www.forbes.com/sites/forbes-books-news/2026/07/14/uk-entrepreneurs-new-book-reveals-25-practical-principles-for-turning-vision-into-long-term-success/"}, {"name": "White House, District of Columbia, United States", "cc": "US", "lat": 38.895, "lon": -77.036, "n": 13, "art": 41, "url": "https://www.newsweek.com/trump-tps-stipend-2100-backdoor-amnesty-mullin-12194058"}, {"name": "El Salvador", "cc": "ES", "lat": 13.833, "lon": -88.917, "n": 2, "art": 10, "url": "https://www.maravipost.com/el-salvador-validated-by-who-as-having-eliminated-trachoma-as-a-public-health-problem/"}, {"name": "Bucaramanga, Santander, Colombia", "cc": "CO", "lat": 7.125, "lon": -73.12, "n": 3, "art": 30, "url": "https://www.colombia.com:443/actualidad/internacionales/familiares-de-colombiano-muerto-por-el-ice-en-eeuu-buscan-repatriarlo-591822"}, {"name": "Pasdaran, Kohgiluyeh va Buyer A?mad, Iran", "cc": "IR", "lat": 30.635, "lon": 51.805, "n": 1, "art": 10, "url": "https://www.nuovosud.it/articoli/318938-fattinotizie/notte-di-raid-medio-oriente-l%E2%80%99iran-colpisce-strutture-militari-usa"}, {"name": "San Fermin, Sonora, Mexico", "cc": "MX", "lat": 28.9, "lon": -110.133, "n": 1, "art": 10, "url": "https://www.elcorreo.com/gente-estilo/aventuras-joker-san-fermin-desafiar-restricciones-covid-20260714121557-nt.html"}, {"name": "Dovedale, United Kingdom (general), United Kingdom", "cc": "UK", "lat": 53.067, "lon": -1.783, "n": 1, "art": 1, "url": "https://www.theguardian.com/global/2026/jul/14/enyd-williams-obituary"}, {"name": "Belgium", "cc": "BE", "lat": 50.833, "lon": 4.0, "n": 2, "art": 11, "url": "https://www.dhnet.be/conso/travail/2026/07/14/les-belges-adeptes-du-teletravail-les-pieds-dans-leau-3VQZZTPGRJEK3CBM277A7BTJYU/"}, {"name": "Garhwa, Uttar Pradesh, India", "cc": "IN", "lat": 24.733, "lon": 83.217, "n": 1, "art": 2, "url": "https://indianexpress.com/article/india/jharkhand-adivasi-family-bank-kyc-8000-savings-death-10786086/"}, {"name": "Missouri, United States", "cc": "US", "lat": 38.462, "lon": -92.302, "n": 1, "art": 6, "url": "http://www.newarkpostonline.com/spotlight_delaware/delawares-medical-school-will-be-based-at-uds-willard-hall-education-building/article_56fa6d95-79f5-454b-b33a-71d3714d84af.html"}, {"name": "Caracas, Distrito Federal, Venezuela", "cc": "VE", "lat": 10.5, "lon": -66.917, "n": 2, "art": 18, "url": "https://www.ng.ru/world/2026-07-14/1_9537_venezuela.html"}, {"name": "Cameroon", "cc": "CM", "lat": 6.0, "lon": 12.0, "n": 1, "art": 10, "url": "https://www.cameroononline.org/cameroun-un-programme-innovant-pour-lutter-contre-le-chantage-a-la-sextape/"}, {"name": "Slovenia", "cc": "SI", "lat": 46.25, "lon": 15.167, "n": 1, "art": 10, "url": "https://www.rtvslo.si/zdravje/zasebni-zdravniki-zacudeni-nad-odlocitvijo-ustavnega-sodisca-glede-koncesionarjev/788108"}, {"name": "Monrovia, Montserrado, Liberia", "cc": "LI", "lat": 6.311, "lon": -10.805, "n": 1, "art": 10, "url": "https://www.jeuneafrique.com/176380/politique/liberia-un-si-long-chemin-vers-la-paix-9/"}, {"name": "Sentul, Jawa Tengah, Indonesia", "cc": "ID", "lat": -6.704, "lon": 110.946, "n": 2, "art": 3, "url": "https://en.antaranews.com/news/422636/local-flagship-commodities-strengthen-food-security-minister"}, {"name": "Nagpur, Maharashtra, India", "cc": "IN", "lat": 21.15, "lon": 79.1, "n": 1, "art": 10, "url": "https://www.tribuneindia.com/news/india/farm-leader-charuni-issues-warning-to-centre-as-wangchuks-health-worsens/"}, {"name": "Indore, Madhya Pradesh, India", "cc": "IN", "lat": 22.717, "lon": 75.833, "n": 3, "art": 18, "url": "https://www.freepressjournal.in/indore/disabled-70-year-old-woman-seeks-justice-after-drone-survey-land-record-error"}, {"name": "Philadelphia, Pennsylvania, United States", "cc": "US", "lat": 39.952, "lon": -75.164, "n": 1, "art": 8, "url": "https://www.independent.co.uk/news/health/robert-f-kennedy-jr-health-secretary-nih-vaccines-autism-b3014505.html"}, {"name": "Colorado, United States", "cc": "US", "lat": 39.065, "lon": -105.327, "n": 2, "art": 13, "url": "https://www.theautochannel.com/news/2026/07/13/1691580-sierra-space-awarded-798-million-missile-defense-contract-support-golden.html"}, {"name": "Croatia", "cc": "HR", "lat": 45.167, "lon": 15.5, "n": 1, "art": 10, "url": "https://naslovi.net/2026-07-14/naslovi-ai/resavanje-problema-mestana-nestina-i-vizica-dacic-u-pregovorima-sa-hrvatskom/42086488"}, {"name": "Bihar, Bihar, India", "cc": "IN", "lat": 25.183, "lon": 85.517, "n": 3, "art": 16, "url": "https://timesofindia.indiatimes.com/city/patna/btsc-aspirants-protest-over-pending-recruitment-results-exams/articleshow/132396045.cms"}, {"name": "Essex, Essex, United Kingdom", "cc": "UK", "lat": 51.833, "lon": 0.583, "n": 4, "art": 10, "url": "https://socialistworker.co.uk/anti-racism/anti-racist-majority-fights-far-right/"}, {"name": "West Midlands, United Kingdom (general), United Kingdom", "cc": "UK", "lat": 52.5, "lon": -1.967, "n": 2, "art": 7, "url": "https://socialistworker.co.uk/anti-racism/anti-racist-majority-fights-far-right/"}, {"name": "Oxfordshire, Oxfordshire, United Kingdom", "cc": "UK", "lat": 51.782, "lon": -1.314, "n": 1, "art": 10, "url": "https://socialistworker.co.uk/anti-racism/oppose-labours-plans-to-turn-army-barracks-into-camps-for-refugees/"}, {"name": "Ziguinchor, Ziguinchor, Senegal", "cc": "SG", "lat": 12.583, "lon": -16.272, "n": 1, "art": 5, "url": "https://www2.fundsforngos.org/community-development-2/eoi-deployment-and-testing-of-community-feedback-mechanism-in-senegal/"}, {"name": "Islamabad, Islamabad, Pakistan", "cc": "PK", "lat": 33.7, "lon": 73.167, "n": 4, "art": 21, "url": "https://economictimes.indiatimes.com/news/defence/one-misstep-away-pakistans-iran-tightrope-faces-its-toughest-test/articleshow/132394903.cms"}, {"name": "Renai, Gansu, China", "cc": "CH", "lat": 35.387, "lon": 102.417, "n": 2, "art": 8, "url": "http://www.bruneinews.net/news/279186277/who-is-blurring-the-focus-on-south-china-sea-islands"}, {"name": "Singapore", "cc": "SN", "lat": 1.367, "lon": 103.8, "n": 1, "art": 10, "url": "https://www.channelnewsasia.com/singapore/bloomberg-shanmugam-tan-see-leng-defamation-230000-damages-6252946"}, {"name": "Rawalakot, Azad Kashmir, Pakistan", "cc": "PK", "lat": 33.858, "lon": 73.76, "n": 1, "art": 2, "url": "https://www.freepressjournal.in/world/6-civilians-killed-as-pakistan-forces-open-fire-during-clashes-in-pok-reports"}, {"name": "Nepal", "cc": "NP", "lat": 28.0, "lon": 84.0, "n": 6, "art": 30, "url": "https://www.thehindu.com/opinion/lead/the-disruptive-rise-of-indias-new-political-generation/article71222425.ece"}, {"name": "Crowborough, East Sussex, United Kingdom", "cc": "UK", "lat": 51.05, "lon": 0.15, "n": 1, "art": 1, "url": "https://socialistworker.co.uk/anti-racism/oppose-labours-plans-to-turn-army-barracks-into-camps-for-refugees/"}, {"name": "Stockholm, Stockholm, Sweden", "cc": "SW", "lat": 59.333, "lon": 18.05, "n": 6, "art": 20, "url": "https://www.ynetnews.com/jewish-world/article/sy6hpevngx"}, {"name": "East Sussex, East Sussex, United Kingdom", "cc": "UK", "lat": 50.917, "lon": 0.333, "n": 2, "art": 7, "url": "https://socialistworker.co.uk/anti-racism/oppose-labours-plans-to-turn-army-barracks-into-camps-for-refugees/"}, {"name": "Massachusetts, United States", "cc": "US", "lat": 42.237, "lon": -71.531, "n": 1, "art": 6, "url": "https://www.airforcetimes.com/news/pentagon-congress/2026/07/14/the-us-military-measures-readiness-what-about-adaptability/"}, {"name": "Kapeeka, Nakaseke, Uganda", "cc": "UG", "lat": 0.691, "lon": 32.236, "n": 1, "art": 6, "url": "https://allafrica.com/stories/202607140301.html"}, {"name": "Czech Republic", "cc": "EZ", "lat": 49.75, "lon": 15.0, "n": 1, "art": 2, "url": "https://allafrica.com/stories/202607140301.html"}, {"name": "Gostynin, Mazowieckie, Poland", "cc": "PL", "lat": 52.429, "lon": 19.466, "n": 1, "art": 10, "url": "https://www.polityka.pl/tygodnikpolityka/kraj/2349039,1,rzecznicy-w-tajemnicy-kto-zostanie-rpo-i-dlaczego-opinia-publiczna-nic-o-tym-nie-wie.read"}, {"name": "Netherlands", "cc": "NL", "lat": 52.5, "lon": 5.75, "n": 1, "art": 10, "url": "https://styknews.info/novyny/novyny/2026/07/14/auktsion-u-prozorro-prodazhi-v-ivano-frankivsku-ne-prodaly-ofisnyj-kompleks-bankruta-montana-estejt-z-hrupy-pryvat"}, {"name": "Manila, Manila, Philippines", "cc": "RP", "lat": 14.604, "lon": 120.982, "n": 3, "art": 20, "url": "https://www.manilatimes.net/2026/07/15/world/asia-oceania/taliban-women-not-oppressed-after-dress-crackdown/2384374"}, {"name": "Artemisa, Provincia de Artemisa, Cuba", "cc": "CU", "lat": 22.813, "lon": -82.762, "n": 2, "art": 10, "url": "https://www.cubaheadlines.com/articles/335050"}, {"name": "Marianao, Ciudad de La Habana, Cuba", "cc": "CU", "lat": 23.077, "lon": -82.43, "n": 1, "art": 5, "url": "https://www.cubaheadlines.com/articles/335055"}, {"name": "Latvia", "cc": "LG", "lat": 57.0, "lon": 25.0, "n": 1, "art": 10, "url": "https://www.bbc.co.uk/news/articles/cy9r9dzxql2o"}, {"name": "Karnali, Karnali, Nepal", "cc": "NP", "lat": 29.5, "lon": 82.417, "n": 1, "art": 10, "url": "https://www.onlinekhabar.com/2026/07/1975522/i-am-impressed-by-the-infrastructure-ministers-plans-targeting-remote-and-mountainous-areas-mp-rana"}, {"name": "Mali", "cc": "ML", "lat": 17.0, "lon": -4.0, "n": 1, "art": 10, "url": "https://www.khaberni.com/news/828408-%D8%A7%D8%A8%D9%84-%D8%AA%D8%AD%D8%B0%D8%B1-%D9%85%D9%86-%D9%85%D9%88%D8%AC%D8%A9-%D8%A7%D8%AD%D8%AA%D9%8A%D8%A7%D9%84-%D8%AC%D8%AF%D9%8A%D8%AF%D8%A9-%D8%B9%D8%A8%D8%B1-facetime"}, {"name": "Wizarat Ad Dakhiliyah, Al Qahirah, Egypt", "cc": "EG", "lat": 30.041, "lon": 31.24, "n": 2, "art": 20, "url": "https://www.elwatannews.com/news/details/8320281"}, {"name": "Azad Kashmir, Azad Kashmir, Pakistan", "cc": "PK", "lat": 33.947, "lon": 73.91, "n": 2, "art": 10, "url": "https://arynews.tv/pti-founders-sisters-came-out-after-losing-hope-in-system"}, {"name": "Kanpur, Uttar Pradesh, India", "cc": "IN", "lat": 26.467, "lon": 80.35, "n": 1, "art": 10, "url": "https://www.rediff.com/news/report/iit-research-finds-no-impact-of-e20-on-fuel-efficiency/20260714.htm"}, {"name": "Rajnagar, Madhya Pradesh, India", "cc": "IN", "lat": 24.733, "lon": 79.95, "n": 1, "art": 10, "url": "https://timesofindia.indiatimes.com/city/bhubaneswar/rajnagar-villagers-intensify-protests-over-coastal-highway-exclusion/articleshow/132392635.cms"}, {"name": "Odessa, Odes'ka Oblast, Ukraine", "cc": "UP", "lat": 46.464, "lon": 30.739, "n": 1, "art": 10, "url": "https://odessa-life.od.ua/news/v-odesse-proshel-piket-v-zaschitu-russkogo-yazyka-kto-podderzhal"}, {"name": "Poland", "cc": "PL", "lat": 52.0, "lon": 20.0, "n": 4, "art": 32, "url": "https://www.forlitoday.it/cronaca/electrolux-aperture-piano-tagli.html"}, {"name": "Deraa, Dar\u0091a, Syria", "cc": "SY", "lat": 32.619, "lon": 36.102, "n": 1, "art": 8, "url": "https://sana.sy/es/local/2321636/"}, {"name": "Nassau, New Providence, Bahamas, The", "cc": "BF", "lat": 25.083, "lon": -77.35, "n": 2, "art": 8, "url": "https://www.newsday.com/business/long-island-home-prices-june-p10hg0lg"}, {"name": "Indus River, Pakistan (general), Pakistan", "cc": "PK", "lat": 24.191, "lon": 67.736, "n": 1, "art": 10, "url": "https://propakistani.pk/2026/07/14/zong-wwf-pakistan-drive-environmental-sustainability-through-conservation-of-the-endangered-indus-river-dolphin/"}, {"name": "Haatafu, Tongatapu, Tonga", "cc": "TN", "lat": -21.067, "lon": -175.333, "n": 1, "art": 10, "url": "https://www.indcatholicnews.com/news/55437"}, {"name": "Cyprus", "cc": "CY", "lat": 35.0, "lon": 33.0, "n": 1, "art": 10, "url": "https://cyprus-mail.com/2026/07/14/finance-minister-hails-cyprus-role-in-advancing-eu-economic-agenda"}, {"name": "Ondo State, Ondo, Nigeria", "cc": "NI", "lat": 7.167, "lon": 5.083, "n": 2, "art": 10, "url": "https://theeagleonline.com.ng/we-wont-automatically-absorb-unimedth-staff-futa/"}, {"name": "Imphal, Manipur, India", "cc": "IN", "lat": 24.817, "lon": 93.95, "n": 1, "art": 4, "url": "https://www.bhaskar.com/bhaskar-khaas/bhaskar-explainer/news/sonam-wangchuk-hunger-strike-vs-modi-bjp-govt-cjp-protest-dharmendra-pradhan-138442353.html"}, {"name": "Canada", "cc": "CA", "lat": 60.0, "lon": -96.0, "n": 6, "art": 30, "url": "https://westseattleblog.com/event/scottish-country-dancing-classes-in-west-seattle/?instance_id=746424"}, {"name": "Titao, Region du Nord, Burkina Faso", "cc": "UV", "lat": 12.817, "lon": -2.467, "n": 1, "art": 2, "url": "https://allafrica.com/stories/202607140546.html"}, {"name": "Kuwait", "cc": "KU", "lat": 29.5, "lon": 47.75, "n": 1, "art": 10, "url": "https://www.fool.com/investing/2026/07/14/president-donald-trump-just-declared-the-ceasefire/?source=iedfolrf0000001"}, {"name": "Anchieta, Santa Catarina, Brazil", "cc": "BR", "lat": -26.55, "lon": -53.283, "n": 1, "art": 10, "url": "https://g1.globo.com/sp/santos-regiao/porto-mar/noticia/2026/07/14/fila-de-caminhoes-para-os-patios-congestiona-rodovias-no-litoral-de-sp-greve-de-caminhoneiros-chega-ao-2o-dia.ghtml"}, {"name": "Morelos, M\u00e9co, Mexico", "cc": "MX", "lat": 19.601, "lon": -99.052, "n": 1, "art": 10, "url": "https://morelos.quadratin.com.mx/tiempos-modernos-el-saqueo-del-cuauh-sube-a-8-mil-641-millones/"}, {"name": "Eyemouth, Scottish Borders, The, United Kingdom", "cc": "UK", "lat": 55.867, "lon": -2.1, "n": 3, "art": 10, "url": "https://metro.co.uk/2026/07/14/britains-first-gull-ranger-starts-work-improve-human-seagull-relations-29134594/"}, {"name": "Georgia, United States", "cc": "US", "lat": 32.987, "lon": -83.649, "n": 7, "art": 20, "url": "https://thegrio.com/2026/07/14/wes-moore-trump-primetime-speech-election-fraud/"}, {"name": "Petite Riviere, Sud, Haiti", "cc": "HA", "lat": 18.094, "lon": -73.842, "n": 1, "art": 10, "url": "https://efe.com/mundo/2026-07-14/protestas-haitianos-fin-estatus-tps-estados-unidos-migracion/"}, {"name": "Povoa De Varzim, Porto, Portugal", "cc": "PO", "lat": 41.383, "lon": -8.764, "n": 1, "art": 10, "url": "https://greensavers.sapo.pt/fundacao-repsol-distingue-escolas-portuguesas-que-lideram-a-inovacao-na-transicao-energetica/"}, {"name": "Donbass, Ukraine (general), Ukraine", "cc": "UP", "lat": 48.5, "lon": 38.5, "n": 2, "art": 9, "url": "https://24tv.ua/geopolitics/ru/rossijane-trebujut-ot-putina-zhestokosti-intervju-s-piterom-dikinsonom_n3105600"}, {"name": "Madras, Tamil Nadu, India", "cc": "IN", "lat": 13.083, "lon": 80.283, "n": 1, "art": 10, "url": "https://www.thehindu.com/news/cities/puducherry/demonstration-held-to-protest-delay-in-holding-local-body-polls/article71221378.ece"}, {"name": "Abuja, Abuja Federal Capital Territory, Nigeria", "cc": "NI", "lat": 9.083, "lon": 7.533, "n": 1, "art": 6, "url": "https://punchng.com/history-will-judge-you-by-your-stand-shehu-sani-tells-lawmakers/"}, {"name": "Kaduna, Kaduna, Nigeria", "cc": "NI", "lat": 10.523, "lon": 7.44, "n": 1, "art": 4, "url": "https://punchng.com/history-will-judge-you-by-your-stand-shehu-sani-tells-lawmakers/"}, {"name": "Nigeria", "cc": "NI", "lat": 10.0, "lon": 8.0, "n": 1, "art": 4, "url": "https://blueprint.ng/2027-presidencial-election-adp-candidate-abbas-picks-running-mate/"}, {"name": "Michoacan, Tabasco, Mexico", "cc": "MX", "lat": 17.917, "lon": -93.883, "n": 2, "art": 10, "url": "https://www.jornada.com.mx/2026/07/14/politica/005n1pol"}, {"name": "Mauritius", "cc": "MP", "lat": 16.0, "lon": 146.0, "n": 2, "art": 20, "url": "https://www.eltiempo.com/colombia/cali/la-frontera-entre-colombia-y-ecuador-cumple-24-horas-bloqueada-ipiales-esta-aislada-del-resto-del-pais-3571101"}, {"name": "Mysuru, Karnataka, India", "cc": "IN", "lat": 12.307, "lon": 76.65, "n": 2, "art": 7, "url": "https://www.thehindu.com/news/national/karnataka/bidadi-township-issue-farmers-stage-road-blockade-in-mysuru-against-alleged-police-brutality/article71221616.ece"}, {"name": "Bidadi, Karnataka, India", "cc": "IN", "lat": 12.817, "lon": 77.4, "n": 1, "art": 8, "url": "https://www.thehindu.com/news/national/karnataka/bidadi-township-issue-farmers-stage-road-blockade-in-mysuru-against-alleged-police-brutality/article71221616.ece"}, {"name": "Dominican Republic", "cc": "DR", "lat": 19.0, "lon": -70.667, "n": 3, "art": 8, "url": "https://dominicanrepublicpost.com/mahmoud-khalil-alleges-conspiracy-in-lawsuit-against-trump-officials/"}, {"name": "Boston, Massachusetts, United States", "cc": "US", "lat": 42.358, "lon": -71.06, "n": 1, "art": 4, "url": "https://crooksandliars.com/2026/07/vote-her-out-protesters-swarm-susan"}, {"name": "Wyoming, United States", "cc": "US", "lat": 42.748, "lon": -107.209, "n": 2, "art": 14, "url": "https://www.wyomingnews.com/rawlinstimes/rawlinstimes/c-j-box-reads-declaration-of-independence-at-the-encampment-museum-on-july-8/article_e144e751-1a79-4286-a815-e87b3b2d7f8a.html"}, {"name": "La Paz, La Paz, Bolivia", "cc": "BL", "lat": -16.5, "lon": -68.15, "n": 1, "art": 10, "url": "https://eldeber.com.bo/pais/medicos-continuan-paro-incumplirse-pago-salarios-prometido-gobierno_1784030802"}, {"name": "Piedmont, Piemonte, Italy", "cc": "IT", "lat": 45.0, "lon": 8.0, "n": 1, "art": 10, "url": "https://www.laleggepertutti.it/771007_come-si-calcola-il-danno-per-luso-di-un-software-senza-licenza"}, {"name": "Lubie, Slaskie, Poland", "cc": "PL", "lat": 50.444, "lon": 18.655, "n": 1, "art": 10, "url": "https://wiadomosci.gazeta.pl/polityka/7,198012,32911852,szarpanina-obajtka-z-prezesem-iks-solino-orlen-zawiadamia-prokurature.html"}, {"name": "Jasionka, Podkarpackie, Poland", "cc": "PL", "lat": 50.383, "lon": 21.8, "n": 1, "art": 10, "url": "https://radio.rzeszow.pl/337539/podkarpacie-rozwija-technologie-dronowe-carpathian-drone-summit-w-jasionce-ma-to-ulatwic/"}, {"name": "Astana, Gorod Astana, Kazakhstan", "cc": "KZ", "lat": 51.181, "lon": 71.428, "n": 1, "art": 7, "url": "https://timesca.com/dainess-tour-signals-an-emerging-u-s-caspian-corridor-strategy/"}, {"name": "Baku, Baki*, Azerbaijan", "cc": "AJ", "lat": 40.395, "lon": 49.882, "n": 1, "art": 1, "url": "https://timesca.com/dainess-tour-signals-an-emerging-u-s-caspian-corridor-strategy/"}, {"name": "Crucea, Romania (general), Romania", "cc": "RO", "lat": 44.533, "lon": 28.233, "n": 1, "art": 3, "url": "https://www.investegate.co.uk/announcement/rns/societatea-energetica-electrica-sa--elsa/gender-balance-reporting/9668431"}, {"name": "Uzbekistan", "cc": "UZ", "lat": 41.708, "lon": 63.849, "n": 1, "art": 3, "url": "https://consortiumnews.com/2026/07/14/craig-murray-the-ditching-of-nigel-farage/"}, {"name": "Hurstpierpoint, West Sussex, United Kingdom", "cc": "UK", "lat": 50.917, "lon": -0.167, "n": 1, "art": 4, "url": "https://consortiumnews.com/2026/07/14/craig-murray-the-ditching-of-nigel-farage/"}, {"name": "Apapa, Lagos, Nigeria", "cc": "NI", "lat": 6.446, "lon": 3.359, "n": 1, "art": 8, "url": "https://thesun.ng/customs-intercepts-n26-5bn-cannabis-indica-concealed-with-imported-vehicles/"}, {"name": "Ranka, Jharkhand, India", "cc": "IN", "lat": 23.983, "lon": 83.783, "n": 1, "art": 10, "url": "https://www.livemint.com/politics/news/at-jantar-mantar-cjps-5-point-exam-reform-charter-calls-for-dissolution-of-nta-sonam-wangchuk-hungder-strike-11784035554676.html"}, {"name": "Ghezel Hesar, Ostan-e Alborz, Iran", "cc": "IR", "lat": 35.793, "lon": 50.853, "n": 2, "art": 15, "url": "https://www.ncr-iran.org/en/news/human-rights/iranian-prisoners-launch-mass-hunger-strike-across-58-prisons-in-129th-week-of-no-to-execution-tuesdays/"}, {"name": "Jammu, Jammu and Kashmir, India", "cc": "IN", "lat": 32.733, "lon": 74.867, "n": 2, "art": 2, "url": "https://news.webindia123.com/news/Articles/India/20260714/4474809.html"}, {"name": "Ciudad De Mexico, Distrito Federal, Mexico", "cc": "MX", "lat": 19.434, "lon": -99.139, "n": 1, "art": 10, "url": "https://edomex.quadratin.com.mx/la-deuda-historica-con-la-salud-hospitalaria-del-edomex/"}, {"name": "Virginia, United States", "cc": "US", "lat": 37.768, "lon": -78.206, "n": 2, "art": 6, "url": "https://www.cavalierdaily.com/article/2026/07/taylor-the-slush-funds-defeat-is-a-reminder-that-our-damaged-institutions-still-function"}, {"name": "Kurdistan, Khuzestan, Iran", "cc": "IR", "lat": 30.669, "lon": 50.206, "n": 1, "art": 10, "url": "https://www.moneycontrol.com/world/forget-missiles-and-drones-how-iran-used-mobile-networks-to-secretly-track-us-troops-across-middle-east-article-13973915.html"}, {"name": "Gyeongsangnam-Do, Kyongsang-namdo, South Korea", "cc": "KS", "lat": 35.25, "lon": 128.25, "n": 2, "art": 10, "url": "http://www.knnews.co.kr/news/articleView.php?idxno=1546428"}, {"name": "Bulgaria", "cc": "BU", "lat": 43.0, "lon": 25.0, "n": 1, "art": 4, "url": "http://www.austinglobe.com/news/279187208/bulgaria-pulls-out-of-coalition-of-ukraine-backers"}, {"name": "Darfur, Gharb Darfur, Sudan", "cc": "SU", "lat": 13.5, "lon": 23.5, "n": 1, "art": 5, "url": "https://www.premiumtimesng.com/foreign/africa/895273-sudanese-court-sentences-rsf-chief-hemedti-to-death.html"}, {"name": "Casablanca, Grand Casablanca, Morocco", "cc": "MO", "lat": 33.59, "lon": -7.61, "n": 2, "art": 10, "url": "https://www.journalismpakistan.com/moroccan-journalist-ali-lmrabet-held-in-pretrial-detention"}, {"name": "Keenesburg, Colorado, United States", "cc": "US", "lat": 40.108, "lon": -104.52, "n": 1, "art": 10, "url": "https://www.kunc.org/politics/2026-07-14/ice-signed-a-contract-to-take-over-hudsons-empty-jail-the-people-who-live-and-work-there-have-mixed-feelings"}, {"name": "Sonam, Uttaranchal, India", "cc": "IN", "lat": 31.233, "lon": 79.117, "n": 2, "art": 20, "url": "https://dailyaaj.com.pk/news/156492"}, {"name": "Lisbon, Lisboa, Portugal", "cc": "PO", "lat": 38.717, "lon": -9.133, "n": 1, "art": 10, "url": "https://www.dnoticias.pt/2026/7/14/499013-celia-pessegueiro-acusa-albuquerque-de-estar-agachado-a-lisboa/"}, {"name": "Simonenko, Krym, Avtonomna Respublika, Ukraine", "cc": "UP", "lat": 45.298, "lon": 33.9, "n": 3, "art": 16, "url": "https://galinfo.com.ua/news/miska_komisiya_lvova_doruchyla_vyznachyty_potrebu_v_koshtah_dlya_organizatsiy_yaki_dopomagayut_zahys_451074"}, {"name": "Palsoda, Madhya Pradesh, India", "cc": "IN", "lat": 24.367, "lon": 74.983, "n": 1, "art": 2, "url": "https://www.freepressjournal.in/indore/disabled-70-year-old-woman-seeks-justice-after-drone-survey-land-record-error"}, {"name": "Saraswati, India (general), India", "cc": "IN", "lat": 23.567, "lon": 71.55, "n": 2, "art": 20, "url": "https://scroll.in/latest/1094275/rush-hour-no-interim-relief-to-muslim-side-in-bhojshala-case-sc-fines-samay-raina-rs-3-lakh-more"}, {"name": "Newark, New Jersey, United States", "cc": "US", "lat": 40.736, "lon": -74.172, "n": 1, "art": 10, "url": "https://www.theguardian.com/us-news/2026/jul/14/tuberculosis-outbreak-colorado-ice-jail"}, {"name": "Bolivia", "cc": "BL", "lat": -17.0, "lon": -65.0, "n": 1, "art": 10, "url": "https://www.zazoom.it/2026-07-14/in-lituania-si-e-insediato-un-nuovo-governo-di-centrosinistra-il-terzo-in-due-anni/19460815/"}, {"name": "Zaragoza, Baja California, Mexico", "cc": "MX", "lat": 32.533, "lon": -117.017, "n": 3, "art": 10, "url": "https://www.elperiodicodearagon.com/zaragoza/2026/07/14/ayuntamiento-zaragoza-paralizacion-adjudicacion-zona-132448837.html"}, {"name": "Veneto, Veneto, Italy", "cc": "IT", "lat": 45.699, "lon": 12.226, "n": 2, "art": 10, "url": "https://www.corrierepl.it/2026/07/14/vi-presento-il-partito-del-sud/"}, {"name": "Sanandaj, Kordestan, Iran", "cc": "IR", "lat": 35.314, "lon": 46.992, "n": 1, "art": 2, "url": "https://www.thenationalnews.com/news/mena/2026/07/14/iran-executes-two-men-accused-of-links-to-isis/"}, {"name": "Lewistown, Missouri, United States", "cc": "US", "lat": 40.086, "lon": -91.813, "n": 1, "art": 10, "url": "http://www.lewistownnews.com/news/missouri-breaks-fest-celebrates-25-years-of-monument-stewardship/article_a004c666-e772-49d3-8d1f-d1a16c22255f.html"}, {"name": "Libreville, Estuaire, Gabon", "cc": "GB", "lat": 0.383, "lon": 9.45, "n": 1, "art": 10, "url": "https://www.union.sonapresse.com/fr/occupation-anarchique-lultimatum-de-la-mairie-prend-fin-demain"}, {"name": "San Remo, Liguria, Italy", "cc": "IT", "lat": 43.817, "lon": 7.767, "n": 1, "art": 8, "url": "https://www.tempostretto.it/news/la-morte-di-peppino-di-capri-narrata-sui-social-esempio-della-contraddizione-dei-nostri-tempi.html"}, {"name": "Paris, France (general), France", "cc": "FR", "lat": 48.867, "lon": 2.333, "n": 2, "art": 18, "url": "https://www.skai.gr/news/world/aroma-elladas-stin-imera-tis-vastilis"}, {"name": "Tiberias, Ha?afon, Israel", "cc": "IS", "lat": 32.792, "lon": 35.531, "n": 2, "art": 7, "url": "https://www.jpost.com/israel-news/politics-and-diplomacy/article-902513"}, {"name": "Amsterdam, Noord-Holland, Netherlands", "cc": "NL", "lat": 52.35, "lon": 4.917, "n": 1, "art": 2, "url": "https://www.algemeiner.com/2026/07/14/nazi-looted-painting-discovered-in-amsterdam-street-trash-to-be-returned-to-jewish-owners-family/"}, {"name": "University Of Haifa, H_efa, Israel", "cc": "IS", "lat": 32.762, "lon": 35.02, "n": 1, "art": 10, "url": "https://www.algemeiner.com/2026/07/14/pennsylvania-college-founds-partnership-with-haifa-university-to-study-antisemitism/"}, {"name": "Brooklyn, New York, United States", "cc": "US", "lat": 42.344, "lon": -75.17, "n": 3, "art": 10, "url": "https://www.algemeiner.com/2026/07/14/pennsylvania-college-founds-partnership-with-haifa-university-to-study-antisemitism/"}, {"name": "Minnesota, United States", "cc": "US", "lat": 45.733, "lon": -93.92, "n": 3, "art": 19, "url": "https://www.ketv.com/article/ice-pauses-most-vehicle-stops-nationwide/71932499"}, {"name": "Ivano-Frankivsk, Ivano-Frankivs'ka Oblast', Ukraine", "cc": "UP", "lat": 48.922, "lon": 24.71, "n": 3, "art": 20, "url": "https://pravda.if.ua/v-ivano-frankivsioku-startuvala-blagodijna-akcziya-pershyj-portfelyk-dlya-ditej-zahysnykiv/"}, {"name": "Camaguey, Camag\u00fc, Cuba", "cc": "CU", "lat": 21.381, "lon": -77.917, "n": 1, "art": 10, "url": "https://www.martinoticias.com/a/junio-deja-en-evidencia-el-costo-humano-de-la-represi%C3%B3n-en-cuba-denuncia-informe/471209.html"}, {"name": "Yemen", "cc": "YM", "lat": 15.5, "lon": 47.5, "n": 1, "art": 2, "url": "https://news.bg/int-politics/sled-ormuz-iran-zaplashi-da-prevarne-cherveno-more-v-tochka-za-natisk.html"}, {"name": "Colebrookdale, Pennsylvania, United States", "cc": "US", "lat": 40.308, "lon": -75.652, "n": 2, "art": 2, "url": "https://www.pottsmerc.com/2026/07/14/feds-award-25-million-for-colebrookdale-railroad-upgrades-in-pottstown/"}, {"name": "Kaliningrad, Kaliningradskaya Oblast', Russia", "cc": "RS", "lat": 54.706, "lon": 20.511, "n": 1, "art": 2, "url": "https://24tv.ua/geopolitics/ru/rossijane-trebujut-ot-putina-zhestokosti-intervju-s-piterom-dikinsonom_n3105600"}, {"name": "Portugal", "cc": "PO", "lat": 39.5, "lon": -8.0, "n": 1, "art": 4, "url": "https://sapo.pt/artigo/lohann-doucet-apresenta-se-aos-adeptos-nao-vou-poupar-esforcos-para-ajudar-o-v-guimaraes-6a5673711d56c7322a34ecbf"}, {"name": "Ohio, United States", "cc": "US", "lat": 40.374, "lon": -82.775, "n": 2, "art": 11, "url": "https://www.wokv.com/news/many-questions/6G6LIDACKQ5CRE3DFYMSWH4WKM/"}, {"name": "Little River, Victoria, Australia", "cc": "AS", "lat": -37.967, "lon": 144.5, "n": 1, "art": 2, "url": "https://www.guitarplayer.com/music/john-lennon-played-it-on-repeat-frank-sinatra-called-it-the-best-song-of-the-1970s-how-a-simple-c9-chord-inspired-a-timeless-top-10-hit"}, {"name": "Westport, Minnesota, United States", "cc": "US", "lat": 45.715, "lon": -95.167, "n": 1, "art": 10, "url": "http://www.azerbaijannews.net/news/279187024/legitimising-lethal-state-violence-the-case-of-renee-good"}, {"name": "Lucknow, Uttar Pradesh, India", "cc": "IN", "lat": 26.85, "lon": 80.917, "n": 2, "art": 6, "url": "https://www.livehindustan.com/uttar-pradesh/mp-priya-saroj-met-sonam-wangchuk-after-the-akhilesh-yadav-tweet-cockroach-janta-party-thanked-samajwadi-party-201784047835333.html"}, {"name": "Frankfurt Am Main, Hessen, Germany", "cc": "GM", "lat": 50.117, "lon": 8.683, "n": 1, "art": 10, "url": "https://www.thedailystar.net/slow-reads/focus/news/bengals-forgotten-connections-nazi-germany-4223776"}, {"name": "Punta Gorda, Departamento de Islas de la Bahia, Honduras", "cc": "HO", "lat": 16.383, "lon": -86.383, "n": 2, "art": 10, "url": "https://www.greaterbelize.com/you-touch-one-you-touch-all-why-belizes-garinagu-took-to-the-streets/"}, {"name": "Nadda, Uttaranchal, India", "cc": "IN", "lat": 29.867, "lon": 78.582, "n": 2, "art": 6, "url": "https://www.rediff.com/news/report/wangchuk-refuses-to-end-fast-despite-being-in-immense-pain/20260714.htm"}, {"name": "Washington, United States", "cc": "US", "lat": 47.392, "lon": -121.571, "n": 2, "art": 12, "url": "https://www.insidenova.com/news/politics/democrats-challenge-beyer-in-virginias-8th-congressional-district/article_8acf414b-7050-424b-b469-6a8ba139603e.html"}, {"name": "Red Sea, Djibouti (general), Djibouti", "cc": "DJ", "lat": 19.0, "lon": 39.5, "n": 1, "art": 2, "url": "https://economictimes.indiatimes.com/news/defence/one-misstep-away-pakistans-iran-tightrope-faces-its-toughest-test/articleshow/132394903.cms"}, {"name": "Ghadir, Hormozgan, Iran", "cc": "IR", "lat": 26.878, "lon": 53.967, "n": 1, "art": 6, "url": "https://maritime-executive.com/article/iranian-submarine-force-consigned-to-history"}, {"name": "Buhari, Kano, Nigeria", "cc": "NI", "lat": 11.415, "lon": 8.251, "n": 1, "art": 10, "url": "https://blueprint.ng/orire-abduction-sustain-onslaughts-against-bandits-terrorists-nationwide-senate-tells-fg/"}, {"name": "Waterville, Maine, United States", "cc": "US", "lat": 44.552, "lon": -69.632, "n": 1, "art": 8, "url": "https://www.pressherald.com/2026/07/14/waterville-protest-of-ice-shooting-draws-crowd/"}, {"name": "Panama", "cc": "PM", "lat": 9.0, "lon": -80.0, "n": 1, "art": 10, "url": "https://www.prensa.com/sociedad/medicos-internos-y-residentes-mantienen-protestas-css-y-minsa-anuncian-pagos/"}, {"name": "Palermo, Sicilia, Italy", "cc": "IT", "lat": 38.117, "lon": 13.367, "n": 1, "art": 10, "url": "https://askanews.it/2026/07/14/parco-cascate-di-chia-manufatti-abusivi-nonostante-ordine-demolizione/"}, {"name": "Manama, Al Manamah, Bahrain", "cc": "BA", "lat": 26.236, "lon": 50.583, "n": 1, "art": 8, "url": "https://www.africa-newsroom.com/press/egypt-president-elsisi-pays-a-fraternal-visit-to-the-kingdom-of-bahrain"}, {"name": "Lashkar, Esfahan, Iran", "cc": "IR", "lat": 32.977, "lon": 53.16, "n": 1, "art": 10, "url": "https://economictimes.indiatimes.com/news/india/irans-deputy-envoy-summoned-to-protest-indians-killing-in-hormuz/articleshow/132399177.cms"}, {"name": "Cherkasy, Cherkas'ka Oblast', Ukraine", "cc": "UP", "lat": 49.428, "lon": 32.062, "n": 1, "art": 10, "url": "https://regionews.ua/ukr/news/cherkasskaya/1784049349-dtp-u-cherkasah-politsiya-vidkrila-spravu-pislya-zitknennya-na-vulitsi-rustavi"}, {"name": "Goiania, Goi\u00e1BR, Brazil", "cc": "BR", "lat": -16.667, "lon": -49.267, "n": 1, "art": 10, "url": "https://noticiabrasil.net.br/20260714/energia-firme-e-a-energia-nuclear-evento-da-abdan-defende-novo-marco-para-o-setor-52219408.html"}, {"name": "Malawi", "cc": "MI", "lat": -13.5, "lon": 34.0, "n": 2, "art": 8, "url": "https://morningstaronline.co.uk/article/world-brief-july-14-2026"}, {"name": "Bengaluru, Karnataka, India", "cc": "IN", "lat": 12.983, "lon": 77.583, "n": 1, "art": 10, "url": "https://www.newsx.com/entertainment/aamir-khan-faces-fatwa-after-marrying-gauri-spratt-cleric-says-it-violates-sharia-248580/"}, {"name": "Buckingham Palace, Westminster, United Kingdom", "cc": "UK", "lat": 51.5, "lon": -0.133, "n": 2, "art": 5, "url": "https://www.irishnews.com/news/new-plaque-in-lisburn-removes-prince-andrew-legacy-from-tree-marking-citys-400th-anniversary-D7IMQDMG7JPT7E2PZDUEP7MZY4/"}, {"name": "Dedham, Massachusetts, United States", "cc": "US", "lat": 42.242, "lon": -71.166, "n": 1, "art": 6, "url": "https://www.yahoo.com/news/weather-news/articles/pet-safety-tips-consider-heat-185740474.html"}, {"name": "Zvernec, Vlore, Albania", "cc": "AL", "lat": 40.515, "lon": 19.417, "n": 3, "art": 22, "url": "https://24-ore.com/mbyllja-e-tre-grupkapitujve-te-shqiperise-me-be-qefalia-ecuri-e-bazuar-te-reformat-dhe-puna-konkrete-e-qeverise/"}, {"name": "Naama, Doukkala-Abda, Morocco", "cc": "MO", "lat": 32.287, "lon": -8.905, "n": 2, "art": 10, "url": "http://lecourrier-dalgerie.com/le-depute-jean-paul-lecoq-interpelle-sebastien-lecornu-a-loccasion-de-la-visite-de-ce-dernier-au-maroc-intervenir-en-faveur-des-detenus-politiques-sahraouis/"}, {"name": "Kings Park, Glasgow City, United Kingdom", "cc": "UK", "lat": 55.817, "lon": -4.25, "n": 1, "art": 6, "url": "https://theedinburghreporter.co.uk/2026/07/chicken-restaurant-set-to-open-branch-midlothian-branch-in-former-pub/"}, {"name": "San Cristobal, M\u00e9co, Mexico", "cc": "MX", "lat": 19.601, "lon": -99.052, "n": 1, "art": 10, "url": "https://www.semana.com/nacion/bogota/articulo/habra-bloqueos-en-bogota-esta-semana-estas-son-las-manifestaciones-del-14-al-20-de-julio/202643/"}, {"name": "Syria", "cc": "SY", "lat": 35.0, "lon": 38.0, "n": 2, "art": 10, "url": "https://news.israelinfo.co.il/145993"}, {"name": "Kokaj, Qarku Kukes, Albania", "cc": "AL", "lat": 41.878, "lon": 20.505, "n": 1, "art": 2, "url": "https://gazeta-shqip.com/aktualiteti/sot-45-dite-tubim-ne-tirane-aktivistja-te-vetmit-qe-nuk-e-shohin-protesten-jane-kryeministri-dhe-sherbetoret-e-tij/"}, {"name": "Brussels, Bruxelles-Capitale, Belgium", "cc": "BE", "lat": 50.833, "lon": 4.333, "n": 2, "art": 18, "url": "https://kohajone.com/lajme/berisha-poston-fotot-nga-brukseli-kudo-qe-shkon-e-percmojne-diaspora-e-pret-me-proteste-ramen/"}, {"name": "Entre Rios, Potos\u00edL, Bolivia", "cc": "BL", "lat": -21.517, "lon": -65.683, "n": 1, "art": 10, "url": "https://www.analisisdigital.com.ar/provinciales/2026/07/14/el-senado-de-entre-rios-votara-la-reforma-previsional-en-medio-de-una-protesta-de-la-multisectorial"}, {"name": "Peru", "cc": "PE", "lat": -10.0, "lon": -76.0, "n": 1, "art": 10, "url": "https://www.deperu.com/tv/xoTTk4a3NVE.un-conductor-resulto-herido-dos-buses-repletos-de-pasajeros-fueron-baleados-en-puente-piedra.UCFnOwPrJ-Skrzk_GPNBV5tg.html"}, {"name": "Chapel Hill, North Carolina, United States", "cc": "US", "lat": 35.943, "lon": -82.709, "n": 2, "art": 8, "url": "https://www.piratemedia1.com/theeastcarolinian/theeastcarolinian/article_6fb46755-0cd3-4c63-b48a-b5e3d821bc38.html"}, {"name": "Edinburgh Castle, Queensland, Australia", "cc": "AS", "lat": -20.05, "lon": 147.583, "n": 1, "art": 2, "url": "https://www.gazetteherald.co.uk/news/26278894.york-barbican-show-best-mike-oldfield-2027/"}, {"name": "West Chester, Pennsylvania, United States", "cc": "US", "lat": 39.961, "lon": -75.606, "n": 1, "art": 6, "url": "https://www.fox29.com/news/man-stopped-gun-near-west-chester-no-kings-protest-receives-prison-sentence"}, {"name": "Pennsylvania, United States", "cc": "US", "lat": 40.577, "lon": -77.264, "n": 1, "art": 2, "url": "https://www.fox29.com/news/man-stopped-gun-near-west-chester-no-kings-protest-receives-prison-sentence"}, {"name": "Hodeida, Al ?udaydah, Yemen", "cc": "YM", "lat": 14.798, "lon": 42.955, "n": 2, "art": 10, "url": "https://economictimes.indiatimes.com/news/defence/saudi-houthis-edge-towards-war-as-middle-east-conflict-spills-over/articleshow/132400525.cms"}, {"name": "Tetovo, Tetovo, Macedonia", "cc": "MK", "lat": 42.011, "lon": 20.971, "n": 1, "art": 8, "url": "https://alsat.mk/perplasjet-me-bdi-ne-kostadinovski-nuk-jam-antishqiptare/"}, {"name": "Balochistan, Balochistan, Pakistan", "cc": "PK", "lat": 28.479, "lon": 65.644, "n": 2, "art": 10, "url": "https://www.indiatvnews.com/news/world/has-balochistan-gained-independence-from-pakistan-viral-letter-claims-85-territory-taken-in-control-2026-07-14-1048249"}, {"name": "Bogota, Cundinamarca, Colombia", "cc": "CO", "lat": 4.6, "lon": -74.083, "n": 1, "art": 4, "url": "https://www.lanacion.com.ar/el-mundo/petro-denuncia-la-muerte-de-un-colombiano-a-manos-del-ice-nid14072026/"}, {"name": "Valencia, Carabobo, Venezuela", "cc": "VE", "lat": 10.181, "lon": -68.004, "n": 1, "art": 10, "url": "https://www.elmercuriodigital.net/2026/07/la-inelegancia-especista.html"}, {"name": "Rumichaca, Tungurahua, Ecuador", "cc": "EC", "lat": -1.3, "lon": -78.567, "n": 1, "art": 10, "url": "https://www.eluniverso.com/noticias/ecuador/una-protesta-por-agua-potable-en-ipiales-genera-problemas-de-movilizacion-en-la-frontera-con-ecuador-nota/"}, {"name": "Volusia, Florida, United States", "cc": "US", "lat": 29.169, "lon": -81.521, "n": 1, "art": 2, "url": "https://www.daytonatimes.com/news/another-a-for-mainland-and-volusia-school-district/article_4dbcb21c-6a9c-497c-815c-aff0928eac9e.html"}, {"name": "Oregon, United States", "cc": "US", "lat": 44.567, "lon": -122.127, "n": 1, "art": 5, "url": "https://biologicaldiversity.org/w/news/press-releases/lawsuit-seeks-to-protect-americas-wildlife-from-trump-administration-2026-07-14/"}, {"name": "Nandigram, Bangladesh (general), Bangladesh", "cc": "BG", "lat": 23.867, "lon": 89.283, "n": 1, "art": 1, "url": "https://timesofindia.indiatimes.com/city/kolkata/taslima-forced-to-leave-kol-in-2007-set-to-return-this-month/articleshow/132400831.cms"}, {"name": "Beirut, Beyrouth, Lebanon", "cc": "LE", "lat": 33.872, "lon": 35.51, "n": 1, "art": 6, "url": "https://news.israelinfo.co.il/145993"}, {"name": "Bombay, Maharashtra, India", "cc": "IN", "lat": 18.975, "lon": 72.826, "n": 1, "art": 5, "url": "https://www.ummid.com/news/2026/7/14/what-targeting-of-justice-tabassum-khan-says-about-minority-rights-in-todays-india.html"}, {"name": "Madhya Pradesh, Madhya Pradesh, India", "cc": "IN", "lat": 23.5, "lon": 78.5, "n": 1, "art": 5, "url": "https://www.ummid.com/news/2026/7/14/what-targeting-of-justice-tabassum-khan-says-about-minority-rights-in-todays-india.html"}, {"name": "Sheikhpura, Jammu and Kashmir, India", "cc": "IN", "lat": 34.331, "lon": 74.231, "n": 1, "art": 5, "url": "https://www.tribuneindia.com/news/punjab/punjab-farmers-make-40-toll-plazas-free-to-protest-land-pooling-policy-us-trade-deal/"}, {"name": "Tegucigalpa, Francisco Moraz\u00e1HO, Honduras", "cc": "HO", "lat": 14.1, "lon": -87.217, "n": 1, "art": 10, "url": "https://www.washingtonblade.com/2026/07/14/mexicos-first-openly-gay-mayor-killed/"}, {"name": "Columbia University, New York, United States", "cc": "US", "lat": 40.809, "lon": -73.961, "n": 2, "art": 6, "url": "https://www.clevelandjewishnews.com/jta/mamdani-sticks-with-morris-katz-adviser-who-worked-on-platner-campaign/article_0d2d7828-edf3-5041-ac84-848e590d4225.html"}, {"name": "Ayodhya, Uttar Pradesh, India", "cc": "IN", "lat": 26.8, "lon": 82.2, "n": 1, "art": 4, "url": "https://www.siasat.com/rs-5-crore-for-killing-aamir-khan-ayodhya-priests-remark-sparks-uproar-3507123/"}, {"name": "Bandra, Maharashtra, India", "cc": "IN", "lat": 19.067, "lon": 72.833, "n": 1, "art": 6, "url": "https://www.siasat.com/rs-5-crore-for-killing-aamir-khan-ayodhya-priests-remark-sparks-uproar-3507123/"}, {"name": "Ludhiana, Punjab, India", "cc": "IN", "lat": 30.9, "lon": 75.85, "n": 1, "art": 10, "url": "https://www.tribuneindia.com/news/ludhiana/nihangs-block-road-in-ludhiana-seek-justice-over-suspicious-death-of-peer/"}, {"name": "Pilbara, Western Australia, Australia", "cc": "AS", "lat": -21.25, "lon": 118.3, "n": 1, "art": 5, "url": "https://theconversation.com/heres-whats-at-stake-as-bhp-workers-prepare-for-a-historic-strike-287364"}, {"name": "Cachette, Ouest, Haiti", "cc": "HA", "lat": 18.817, "lon": -72.483, "n": 1, "art": 3, "url": "https://haitiantimes.com/2026/07/14/contractor-drops-lien-haitian-restaurant-brooklyn/"}, {"name": "Flatbush, New York, United States", "cc": "US", "lat": 40.652, "lon": -73.959, "n": 1, "art": 1, "url": "https://haitiantimes.com/2026/07/14/contractor-drops-lien-haitian-restaurant-brooklyn/"}, {"name": "Yerevan, Yerevan*, Armenia", "cc": "AM", "lat": 40.181, "lon": 44.514, "n": 1, "art": 10, "url": "https://www.eng.kavkaz-uzel.eu/articles/76934"}, {"name": "Bicester, Oxfordshire, United Kingdom", "cc": "UK", "lat": 51.9, "lon": -1.15, "n": 3, "art": 10, "url": "https://www.theblaze.com/news/british-villagers-act-like-its-1776-declare-independence-over-mass-migration-plans"}, {"name": "Fort Lauderdale, Florida, United States", "cc": "US", "lat": 26.122, "lon": -80.143, "n": 1, "art": 2, "url": "https://www.theautochannel.com/news/2026/07/14/1692011-i-95-south-florida-why-it-s-one-america-s.html"}, {"name": "Libya", "cc": "LY", "lat": 25.0, "lon": 17.0, "n": 1, "art": 10, "url": "https://www.libyaakhbar.com/libya-news/2834987.html"}, {"name": "Leicester, Leicester, United Kingdom", "cc": "UK", "lat": 52.633, "lon": -1.133, "n": 2, "art": 26, "url": "https://www.ancient-origins.net/news-history-archaeology/rutland-mosaic-00102360"}, {"name": "Biloxi, Mississippi, United States", "cc": "US", "lat": 30.396, "lon": -88.885, "n": 1, "art": 1, "url": "https://thegrio.com/2026/07/14/nolan-wells-funeral-arrangements/"}, {"name": "Ocean Springs, Mississippi, United States", "cc": "US", "lat": 30.411, "lon": -88.828, "n": 1, "art": 3, "url": "https://thegrio.com/2026/07/14/nolan-wells-funeral-arrangements/"}, {"name": "Mississippi, United States", "cc": "US", "lat": 32.767, "lon": -89.681, "n": 1, "art": 1, "url": "https://thegrio.com/2026/07/14/nolan-wells-funeral-arrangements/"}, {"name": "Zurich, Z\u00fcSZ, Switzerland", "cc": "SZ", "lat": 47.367, "lon": 8.55, "n": 1, "art": 2, "url": "https://capitolfax.com/2026/07/14/isabel%E2%80%99s-afternoon-roundup-555/"}, {"name": "Albuquerque, New Mexico, United States", "cc": "US", "lat": 35.084, "lon": -106.651, "n": 2, "art": 6, "url": "https://capitolfax.com/2026/07/14/isabel%E2%80%99s-afternoon-roundup-555/"}, {"name": "Illinois, United States", "cc": "US", "lat": 40.336, "lon": -89.002, "n": 1, "art": 2, "url": "https://capitolfax.com/2026/07/14/isabel%E2%80%99s-afternoon-roundup-555/"}, {"name": "Connecticut, United States", "cc": "US", "lat": 41.583, "lon": -72.762, "n": 1, "art": 10, "url": "https://www.wgbh.org/news/local/2026-07-14/disability-advocates-rally-in-boston-for-faster-wheelchair-repairs"}, {"name": "New Hampshire, United States", "cc": "US", "lat": 43.411, "lon": -71.565, "n": 2, "art": 4, "url": "https://www.centralmaine.com/2026/07/14/armed-counter-protester-raises-tension-at-protest-at-scarborough-ice-facility/"}, {"name": "Pune, Maharashtra, India", "cc": "IN", "lat": 18.533, "lon": 73.867, "n": 1, "art": 1, "url": "https://www.mainstreamweekly.net/article16829.html"}, {"name": "Espriella, Nari\u00f1O, Colombia", "cc": "CO", "lat": 1.433, "lon": -77.417, "n": 1, "art": 10, "url": "https://www.eltiempo.com/colombia/otras-ciudades/un-nuevo-pulso-por-la-tierra-enfrenta-a-comunidades-de-taganga-y-palmor-con-pueblos-indigenas-de-la-sierra-nevada-de-santa-marta-3571179"}, {"name": "Guinea", "cc": "GV", "lat": 11.0, "lon": -10.0, "n": 1, "art": 10, "url": "https://www.ejecentral.com.mx/nuestro-eje/bloqueo-en-avenida-chapultepec-hoy-que-exigen-los-trabajadores-de-cultura-estas-son-las-calles-afectadas-y-rutas-alternas-para-evitar-trafico"}, {"name": "Capitol Hill, District of Columbia, United States", "cc": "US", "lat": 38.889, "lon": -77.0, "n": 1, "art": 1, "url": "https://www.newsweek.com/trump-tps-stipend-2100-backdoor-amnesty-mullin-12194058"}, {"name": "Haiti", "cc": "HA", "lat": 19.0, "lon": -72.417, "n": 1, "art": 6, "url": "https://www.newsweek.com/trump-tps-stipend-2100-backdoor-amnesty-mullin-12194058"}, {"name": "Ouagadougou, Kadiogo, Burkina Faso", "cc": "UV", "lat": 12.37, "lon": -1.525, "n": 1, "art": 10, "url": "https://lefaso.net/spip.php?article147856"}, {"name": "Temascaltepec, M\u00e9co, Mexico", "cc": "MX", "lat": 19.033, "lon": -100.05, "n": 1, "art": 10, "url": "https://www.proceso.com.mx/nacional/estados/2026/7/14/mas-de-40-viviendas-y-7-vehiculos-afectados-por-desgajamiento-de-cerro-en-temascaltepe-376082.html"}, {"name": "Halvad, Gujarat, India", "cc": "IN", "lat": 23.017, "lon": 71.183, "n": 1, "art": 10, "url": "https://indianexpress.com/article/cities/ahmedabad/400-land-compensation-or-monthly-rent-morbi-farmers-take-out-padayatra-10786776/"}, {"name": "Brasilia, Distrito Federal, Brazil", "cc": "BR", "lat": -15.783, "lon": -47.917, "n": 1, "art": 10, "url": "https://www.estadao.com.br/brasil/quem-e-o-padre-brasileiro-excomungado-que-se-nega-a-deixar-a-igreja-vida-segue-normal/"}, {"name": "Alexandria, Al Iskandariyah, Egypt", "cc": "EG", "lat": 31.198, "lon": 29.919, "n": 1, "art": 4, "url": "https://www.insidenova.com/news/politics/democrats-challenge-beyer-in-virginias-8th-congressional-district/article_8acf414b-7050-424b-b469-6a8ba139603e.html"}, {"name": "Grenada", "cc": "GJ", "lat": 12.117, "lon": -61.667, "n": 1, "art": 2, "url": "https://grenadachronicle.com/mahmoud-khalil-alleges-conspiracy-in-lawsuit-against-trump-officials/"}]